     2.11           OBSERVATION DATA    G (GPS)             RINEX VERSION / TYPE
teqc  2009Oct19     BNGS User           20100511 01:55:10UTCPGM / RUN BY / DATE
Solaris x86 5.10|AMD64|cc SC5.8|=+|=+                       COMMENT
teqc  2009Oct19     BNGS User           20100511 01:54:25UTCCOMMENT
teqc  2009Oct19     BNGS User           20100510 01:21:42UTCCOMMENT
teqc  2009Oct19     CORS/NGS/NOAA       20100510 01:21:41UTCCOMMENT
0000.000      (antenna height)                              COMMENT
BIT 2 OF LLI FLAGS DATA COLLECTED UNDER A/S CONDITION       COMMENT
 SNR is mapped to RINEX snr flag value [0-9]                COMMENT
  L1 & L2: min(max(int(snr_dBHz/6), 0), 9)                  COMMENT
teqc edited: all GLONASS satellites excluded                COMMENT
GARF                                                        MARKER NAME
34                                                          MARKER NUMBER
David Beiter        Ohio Department of Transportation       OBSERVER / AGENCY
4850K59783          TRIMBLE NETR5       NP 4.02 / SP 3.54   REC # / TYPE / VERS
31182713            TRM57971.00     NONE                    ANT # / TYPE
   698558.9966 -4739154.3957  4197329.8025                  APPROX POSITION XYZ
        0.0000        0.0000        0.0000                  ANTENNA: DELTA H/E/N
     1     1                                                WAVELENGTH FACT L1/2
     7    L1    L2    C1    P2    P1    S1    S2            # / TYPES OF OBSERV
    30.0000                                                 INTERVAL
teqc windowed: start @ 2010 May 10 00:00:00.000             COMMENT
teqc windowed: delta = 3600.000 sec                         COMMENT
Forced Modulo Decimation to 30 seconds                      COMMENT
  2010     5    10     0     0    0.0000000     GPS         TIME OF FIRST OBS
                                                            END OF HEADER
 10  5 10  0  0  0.0000000  0  9G03G10G19G24G16G07G23G13G06
 105711747.59047  82372848.38446  20116263.3444   20116268.1374
        47.0004         40.7004
 132040634.29845                  25126463.6254
        31.0004
 112312388.41647  87516288.33846  21372348.4224   21372351.3404
        45.4004         39.0004
 130376319.92247 101591969.70143  24809790.8984   24809798.8204
        42.2004         22.9004
 119163737.75648  92854938.75745  22676100.7584   22676104.8324
        49.0004         33.8004
 117033769.86747  91195120.24646  22270765.7034   22270770.3674
        46.4004         36.8004
 109748521.67048  85518345.28646  20884444.0234   20884446.0704
        52.1004         40.1004
 107676858.77548  83904123.30747  20490233.5704   20490237.4344
        48.7004         42.3004
 109432313.08348  85271980.94146  20824263.6414   20824268.0084
        48.5004         39.0004
 10  5 10  0  0 30.0000000  0  9G03G10G19G24G16G07G23G13G06
 105698235.96547  82362319.84546  20113691.9304   20113696.8914
        47.9004         40.9004
 132050488.65345                  25128337.3284
        31.5004
 112236883.38347  87457453.27746  21357980.3054   21357983.1214
        46.6004         38.9004
 130348443.81947 101570248.14343  24804485.8284   24804491.9344
        43.0004         22.8004
 119247470.51647  92920185.03945  22692034.1414   22692038.3324
        47.8004         33.4004
 116953885.13147  91132872.41446  22255564.4224   22255568.5944
        47.8004         36.6004
 109813373.97748  85568879.52146  20896784.3914   20896786.8954
        52.2004         40.4004
 107689706.00648  83914134.12347  20492678.7034   20492682.2774
        49.5004         42.4004
 109449931.06948  85285709.25046  20827616.3594   20827620.4534
        49.6004         39.3004
 10  5 10  0  1  0.0000000  0  9G03G10G19G24G16G07G23G13G06
 105685364.85848  82352290.41446  20111242.8984   20111247.4694
        49.2004         41.2004
 132060853.23654                  25130307.0234
        28.9004
 112161835.97147  87398974.81046  21343699.3284   21343702.2624
        45.8004         38.6004
 130321011.73046 101548872.52343  24799264.8524   24799271.2234
        40.7004         21.5004
 119331301.19447  92985507.62445  22707986.5084   22707990.4264
        47.5004         33.7004
 116874137.42248  91070731.36346  22240389.0084   22240393.4804
        48.0004         36.8004
 109878746.71248  85619819.29346  20909224.8054   20909226.9844
        51.8004         40.6004
 107703190.95348  83924641.86347  20495244.7194   20495248.3204
        51.1004         42.3004
 109468109.26148  85299874.07646  20831075.4454   20831079.4884
        50.2004         39.2004
 10  5 10  0  1 30.0000000  0  9G03G10G19G24G16G07G23G13G06
 105673135.68748  82342761.19446  20108915.8674   20108920.4144
        48.6004         41.3004
 132071727.73244                  25132377.4844
        29.9004
 112087249.60347  87340855.60446  21329505.5474   21329508.4804
        46.2004         38.6004
 130294025.99646 101527844.74843  24794130.7734   24794137.4454
        39.0004         22.0004
 119415229.01047  93050905.87445  22723957.6484   22723961.5004
        47.5004         33.1004
 116794528.87248  91008698.73246  22225240.1254   22225244.0904
        48.8004         37.3004
 109944639.13348  85671164.01146  20921763.5314   20921765.7704
        51.4004         40.4004
 107717314.50548  83935647.21647  20497932.0864   20497935.9144
        50.2004         42.1004
 109486847.48548  85314475.30646  20834641.3444   20834645.6914
        50.5004         39.4004
 10  5 10  0  2  0.0000000  0  8G03G19G24G16G07G23G13G06
 105661547.07848  82333731.10446  20106710.4924   20106715.2734
        48.3004         41.2004
 112013125.45847  87283096.56046  21315400.2894   21315403.0904
        47.1004         39.4004
 130267486.83746 101507164.87444  24789081.3834   24789088.4654
        40.0004         24.3004
 119499250.95947  93116377.49545  22739946.5864   22739950.2584
        47.3004         32.7004
 116715059.62848  90946774.66346  22210117.2974   22210122.0124
        48.6004         37.5004
 110011046.73148  85722910.15346  20934400.5004   20934402.9574
        51.5004         40.0004
 107732074.48448  83947148.48647  20500740.5474   20500744.6374
        48.3004         42.0004
 109506143.18348  85329510.92046  20838312.9224   20838317.4264
        49.2004         39.5004
 10  5 10  0  2 30.0000000  0  8G03G19G24G16G07G23G13G06
 105650600.76248  82325201.51646  20104627.5394   20104632.1484
        49.6004         41.6004
 111939467.50048  87225700.77946  21301383.8204   21301386.5314
        49.0004         39.6004
 130241397.54346 101486835.58043  24784116.0314   24784124.5124
        40.5004         22.5004
 119583367.41247  93181922.74445  22755953.5864   22755957.6684
        46.8004         32.3004
 116635732.87148  90884961.62846  22195022.3674   22195026.8984
        48.6004         37.7004
 110077969.46148  85775057.70246  20947135.1644   20947137.6134
        51.3004         39.8004
 107747472.62748  83959147.03247  20503671.0864   20503674.8014
        51.2004         42.0004
 109525997.39948  85344981.73146  20842091.1094   20842095.7114
        49.5004         38.9004
 10  5 10  0  3  0.0000000  0  8G03G19G24G16G07G23G13G06
 105640295.00048  82317171.05346  20102666.3984   20102671.3524
        50.0004         41.3004
 111866276.41548  87168668.78946  21287456.4924   21287459.0044
        48.9004         39.9004
 130215758.12146 101466856.87443  24779236.4304   24779243.1994
        41.7004         22.6004
 119667575.43747  93247539.37045  22771977.0704   22771981.1294
        46.2004         31.8004
 116556548.46048  90823259.50646  22179953.9144   22179958.4964
        48.5004         37.7004
 110145403.10648  85827603.36146  20959967.8914   20959970.0594
        49.9004         39.8004
 107763506.72848  83971641.11847  20506722.1564   20506725.6294
        51.6004         42.4004
 109546407.28548  85360885.54346  20845975.1644   20845979.4614
        49.6004         39.1004
 10  5 10  0  3 30.0000000  0  8G03G19G24G16G07G23G13G06
 105630631.15248  82309640.78746  20100827.6024   20100831.8634
        48.2004         40.9004
 111793555.89648  87112003.49346  21273617.7974   21273620.7114
        49.1004         40.3004
 130190571.86346 101447231.31343  24774443.5164   24774449.8984
        39.2004         21.1004
 119751875.02047  93313227.29745  22788019.7034   22788023.5744
        45.1004         31.6004
 116477509.36348  90761670.60946  22164913.3914   22164917.9104
        49.0004         38.3004
 110213347.09248  85880546.69046  20972897.1414   20972899.3794
        50.5004         40.2004
 107780177.87648  83984631.61146  20509894.7734   20509898.2974
        51.3004         41.9004
 109567373.04348  85377222.49846  20849964.6024   20849968.9144
        49.8004         39.4004
 10  5 10  0  4  0.0000000  0  8G03G19G24G16G07G23G13G06
 105621606.24348  82302608.39546  20099110.0234   20099114.5594
        48.9004         41.3004
 111721305.50048  87055704.50046  21259869.2274   21259871.8014
        49.3004         40.8004
 130165837.55046 101427957.86943  24769737.1644   24769743.0554
        37.7004         20.6004
 119836262.05547  93378983.40045  22804077.3674   22804081.5164
        44.3004         31.8004
 116398614.18248  90700193.84746  22149900.4224   22149904.5514
        48.8004         38.6004
 110281796.36848  85933883.75446  20985922.2274   20985925.2154
        49.7004         39.4004
 107797482.90448  83998116.04246  20513187.7664   20513191.3984
        49.5004         41.7004
 109588890.99348  85393989.72546  20854059.6484   20854063.6564
        49.0004         39.0004
 10  5 10  0  4 30.0000000  0  9G03G19G24G16G07G23G08G13G06
 105613222.86348  82296075.89446  20097514.7734   20097518.7274
        48.3004         41.4004
 111649529.07148  86999774.84146  21246210.6954   21246213.2774
        48.7004         40.6004
 130141558.66646 101409039.23143  24765117.2504   24765123.5634
        38.2004         22.0004
 119920736.63747  93444807.73345  22820152.6564   22820157.0434
        45.3004         32.2004
 116319866.09748  90638831.71746  22134915.0784   22134919.2384
        48.4004         38.7004
 110350750.57548  85987614.25046  20999044.2344   20999046.7974
        49.6004         40.0004
 133623574.13845                  25427708.7344
        31.3004
 107815423.17348  84012095.45546  20516601.7584   20516605.3594
        50.7004         41.4004
 109610961.78948  85411187.74846  20858259.4304   20858263.7154
        48.9004         39.2004
 10  5 10  0  5  0.0000000  0  9G03G19G24G16G07G23G08G13G06
 105605479.59948  82290042.18646  20096041.2894   20096045.2854
        48.4004         41.0004
 111578228.38448  86944215.88646  21232642.7664   21232644.9414
        50.5004         41.1004
 130117735.72446 101390475.93144  24760583.3834   24760591.2034
        38.8004         24.3004
 120005296.73947  93510698.68545  22836243.2734   22836247.9494
        44.3004         31.6004
 116241266.10548  90577584.98046  22119958.0704   22119962.1174
        49.0004         38.3004
 110420206.36748  86041735.59946  21012261.5634   21012263.7584
        50.7004         39.5004
 133527180.07145                  25409366.8134
        32.2004
 107833997.27648  84026568.76446  20520136.0314   20520139.7894
        48.9004         41.6004
 109633583.53848  85428815.08646  20862564.0704   20862568.3134
        48.9004         39.2004
 10  5 10  0  5 30.0000000  0  9G03G19G24G16G07G23G08G13G06
 105598378.99148  82284509.24546  20094690.1884   20094694.1724
        48.7004         40.9004
 111507407.79748  86889031.04546  21219165.7664   21219168.1884
        50.9004         41.1004
 130094372.56846 101372270.91443  24756137.4454   24756145.2894
        39.6004         22.0004
 120089943.22947  93576656.95245  22852352.0704   22852355.7934
        46.1004         31.7004
 116162817.80048  90516456.44346  22105029.5394   22105033.9654
        49.1004         37.9004
 110490163.82748  86096247.88546  21025574.0634   21025576.0784
        50.7004         40.4004
 133430712.96845                  25391009.2814
        30.5004
 107853207.05448  84041537.40846  20523791.6414   20523795.2344
        50.5004         41.6004
 109656757.44948  85446872.68546  20866973.7114   20866978.5394
        49.6004         39.4004
 10  5 10  0  6  0.0000000  0  9G03G19G24G16G07G23G08G13G06
 105591918.06548  82279474.76646  20093460.3914   20093465.1334
        50.2004         41.4004
 111437067.17448  86834220.21246  21205779.8984   21205782.8874
        49.9004         41.1004
 130071468.46846 101354423.64743  24751778.1254   24751786.2384
        37.7004         21.3004
 120174672.50847  93642679.71545  22868474.9924   22868479.0084
        45.6004         32.3004
 116084520.22248  90455445.35346  22090130.0004   22090134.2774
        50.2004         37.9004
 110560618.17948  86151147.34446  21038981.1254   21038983.1644
        51.8004         40.4004
 133334172.39045                  25372637.7894
        32.2004
 107873049.79448  84056999.27646  20527567.6094   20527571.4574
        50.3004         41.4004
 109680479.82448  85465357.63946  20871488.5554   20871492.4064
        49.2004         39.5004
 10  5 10  0  6 30.0000000  0 10G03G10G19G24G16G07G23G08G13G06
 105586097.75948  82274939.46946  20092352.9224   20092357.2034
        49.7004         41.3004
 132208256.22044                  25158353.5554
        29.1004
 111367209.91248  86779786.00046  21192486.8674   21192489.5634
        48.9004         40.8004
 130049025.89945 101336935.97643  24747506.9454   24747515.4574
        35.0004         19.6004
 120259484.04447  93708766.59545  22884614.6484   22884617.9494
        46.3004         32.1004
 116006376.07348  90394553.81746  22075259.7504   22075263.6414
        49.5004         38.3004
 110631568.18448  86206433.01446  21052482.6414   21052484.6174
        51.9004         40.3004
                                  25354252.7194
        30.5004
 107893525.76148  84072954.56146  20531464.1954   20531467.6214
        50.3004         41.7004
 109704750.55848  85484269.90746  20876107.1804   20876111.2384
        50.9004         39.9004
 10  5 10  0  7  0.0000000  0 10G03G10G19G24G16G07G23G08G13G06
 105580917.86148  82270903.18846  20091367.3444   20091371.8164
        50.6004         40.9004
 132224656.18745                  25161473.8284
        31.3004
 111297837.45348  86725729.57546  21179285.9614   21179288.3794
        49.3004         41.0004
 130027045.80645 101319808.67443  24743325.7974   24743332.3164
        34.6004         20.1004
 120344375.97047  93774916.10945  22900769.5084   22900773.0004
        46.0004         32.1004
 115928386.32248  90333782.58846  22060418.6484   22060423.0824
        49.6004         38.6004
 110703010.91148  86262102.63646  21066077.5704   21066079.4774
        52.8004         40.1004
 133140870.55044                  25335851.6724
        25.3004
 107914633.87448  84089402.42946  20535480.6254   20535484.6294
        50.0004         41.3004
 109729568.03148  85503608.18146  20880829.6414   20880833.7304
        50.3004         39.4004
 10  5 10  0  7 30.0000000  0 10G03G10G19G24G16G07G23G08G13G06
 105576379.77048  82267367.01246  20090503.5784   20090507.7544
        49.8004         40.8004
 132241552.85245                  25164689.8524
        32.0004
 111228954.08848  86672054.25246  21166177.4844   21166180.3164
        48.4004         40.5004
 130005531.67346 101303044.43743  24739231.7584   24739238.7504
        38.1004         22.2004
 120429349.02647  93841128.85045  22916939.1484   22916942.4264
        44.7004         31.5004
 115850554.67948  90273134.56846  22045608.2194   22045612.3954
        50.2004         38.6004
 110774945.77848  86318155.74346  21079766.1254   21079768.4614
        52.6004         40.6004
                                  25317437.7114
        25.3004
 107936375.70248  84106344.09546  20539617.8674   20539622.2934
        49.8004         41.7004
 109754932.62248  85523372.79346  20885656.3594   20885660.5824
        50.5004         39.9004
 10  5 10  0  8  0.0000000  0  9G03G10G19G24G16G07G23G13G06
 105572480.94948  82264328.97246  20089761.7274   20089765.9494
        49.7004         40.9004
 132258942.48044                  25167996.6884
        29.9004
 111160559.23048  86618759.59346  21153162.4384   21153165.3954
        48.6004         40.7004
 129984482.59646 101286642.62443  24735225.9304   24735232.2704
        39.9004         22.8004
 120514399.55747  93907401.95445  22933123.4534   22933127.5164
        44.6004         32.3004
 115772880.02148  90212608.86946  22030826.7344   22030830.8364
        50.0004         38.9004
 110847368.01648  86374588.61446  21093547.7274   21093550.2734
        51.9004         40.1004
 107958748.07547  84123777.09946  20543875.0554   20543878.9774
        47.5004         41.1004
 109780841.09147  85543561.21346  20890586.4144   20890590.7544
        47.5004         39.6004
 10  5 10  0  8 30.0000000  0  9G03G10G19G24G16G07G23G13G06
 105569223.71448  82261790.87446  20089141.9224   20089146.1764
        49.3004         41.3004
 132276826.40044                  25171401.8054
        28.6004
 111092658.32748  86565849.83646  21140241.3444   21140244.1054
        48.2004         40.4004
 129963903.01446 101270606.65943  24731308.9144   24731316.0434
        39.0004         23.0004
 120599529.00347  93973736.56945  22949322.9924   22949327.0634
        44.5004         32.5004
 115695366.81048  90152208.97246  22016076.5634   22016080.9064
        49.1004         38.3004
 110920278.16748  86431401.67546  21107422.2894   21107424.9144
        52.1004         39.8004
 107981753.31848  84141703.24346  20548252.8134   20548256.9924
        51.0004         41.3004
 109807295.19248  85564174.79346  20895620.2424   20895624.9884
        49.1004         39.3004
 10  5 10  0  9  0.0000000  0  9G03G10G19G24G16G07G23G13G06
 105566606.23148  82259751.28446  20088643.8054   20088647.8364
        48.8004         41.0004
 132295201.73745                  25174899.7424
        31.0004
 111025251.18048  86513324.82246  21127414.0004   21127416.8524
        48.0004         39.8004
 129943792.45346 101254936.12843  24727482.7424   24727490.0474
        36.9004         21.8004
 120684734.10747  94040130.13245  22965537.5784   22965541.0124
        47.0004         32.9004
 115618014.65248  90091934.57546  22001356.7274   22001361.0394
        49.6004         38.7004
 110993671.76148  86488591.44946  21121388.5004   21121391.0394
        52.3004         39.8004
 108005388.55748  84160120.29546  20552750.4924   20552755.0004
        48.0004         41.3004
 109834291.29948  85585210.71346  20900757.7974   20900762.3674
        48.0004         39.6004
 10  5 10  0  9 30.0000000  0  9G03G10G19G24G16G07G23G13G06
 105564628.92348  82258210.52046  20088267.7274   20088271.9964
        48.0004         40.9004
                                  25178492.3054
        29.1004
 110958340.66747  86461186.78846  21114681.2274   21114683.7154
        47.6004         39.9004
 129924152.61545 101239632.36343  24723745.4064   24723753.0904
        35.5004         22.5004
 120770014.22447  94106582.14145  22981765.3914   22981769.8444
        45.7004         32.2004
 115540825.84048  90031787.46046  21986668.0704   21986672.4964
        49.4004         37.8004
 111067547.00548  86546156.53346  21135446.2734   21135448.7664
        51.7004         39.5004
 108029653.73548  84179028.21546  20557368.0394   20557372.3634
        50.5004         41.1004
 109861828.80848  85606668.51146  20905998.0634   20906002.3204
        49.0004         39.2004
 10  5 10  0 10  0.0000000  0  9G03G10G19G24G16G07G23G13G06
 105563291.33848  82257168.25446  20088013.0234   20088017.6414
        49.0004         41.3004
 132333422.90244                  25182171.3984
        28.3004
 110891928.96548  86409437.43846  21102043.4614   21102046.2424
        48.2004         40.2004
 129904985.17846 101224696.71843  24720097.9844   24720105.5704
        39.6004         21.7004
 120855368.01447  94173091.57545  22998007.7114   22998011.8054
        45.3004         31.6004
 115463801.95148  89971768.85246  21972011.1254   21972015.2774
        49.5004         38.3004
 111141901.43448  86604095.00946  21149595.8054   21149598.0864
        50.7004         39.0004
 108054548.19848  84198426.47546  20562106.0554   20562109.3954
        49.8004         41.5004
 109889906.56048  85628547.26746  20911340.9064   20911345.3324
        48.8004         40.0004
 10  5 10  0 10 30.0000000  0  9G03G10G19G24G16G07G23G13G06
 105562592.58348  82256623.77746  20087880.1094   20087884.3674
        48.8004         41.2004
                                  25185948.7274
        27.3004
 110826017.59348  86358077.96346  21089501.3834   21089503.7734
        49.2004         41.3004
 129886290.73746 101210129.72743  24716540.1724   24716547.1884
        39.4004         22.8004
 120940793.49147  94239656.86545  23014263.5554   23014267.8874
        46.1004         32.0004
 115386944.07648  89911879.61146  21957385.4304   21957389.5824
        49.8004         37.8004
 111216732.02948  86662404.51946  21163835.1724   21163837.9654
        50.5004         38.6004
 108080070.85748  84218314.24646  20566962.4924   20566966.4804
        49.8004         41.7004
 109918522.26848  85650845.21546  20916786.3594   20916790.9574
        49.5004         39.6004
 10  5 10  0 11  0.0000000  0  9G03G10G19G24G16G07G23G13G06
 105562533.45848  82256577.70746  20087868.4384   20087873.2544
        50.3004         40.6004
                                  25189816.2424
        25.3004
 110760609.94148  86307110.98646  21077054.6254   21077056.9654
        49.9004         40.9004
 129868071.76346 101195933.18843  24713073.1644   24713079.5824
        38.3004         22.6004
 121026290.77047  94306278.07445  23030533.8364   23030536.4884
        46.1004         31.2004
 115310255.23748  89852122.08146  21942792.2504   21942796.1054
        49.6004         38.4004
 111292037.42848  86721084.00346  21178165.5634   21178167.8094
        51.0004         38.4004
 108106221.60648  84238691.43146  20571938.8754   20571942.7974
        49.3004         41.3004
 109947676.41347  85673562.72946  20922334.2814   20922338.5784
        47.9004         40.0004
 10  5 10  0 11 30.0000000  0  9G03G19G24G16G07G23G08G13G06
 105563112.62248  82257029.00346  20087979.1334   20087983.3874
        49.3004         40.6004
 110695706.75948  86256537.10046  21064703.9224   21064706.3554
        48.5004         40.9004
 129850328.89346 101182107.56743  24709697.0944   24709704.2234
        37.7004         22.5004
 121111857.58147  94372953.51045  23046816.3834   23046819.7974
        47.2004         31.7004
 115233735.71448  89792496.47146  21928230.7894   21928235.3444
        49.2004         38.6004
 111367814.35448  86780130.91546  21192585.3134   21192587.5864
        50.2004         38.3004
 132267580.16845                  25169671.1954
        32.4004
 108132999.00648  84259556.92346  20577034.3444   20577037.9384
        48.4004         41.4004
 109977366.17848  85696697.60646  20927983.7814   20927988.5634
        49.5004         39.8004
 10  5 10  0 12  0.0000000  0  9G03G19G24G16G07G23G08G13G06
 105564330.06748  82257977.66346  20088210.6094   20088214.8444
        49.4004         41.3004
 110631310.99348  86206358.61246  21052449.9224   21052451.8484
        49.2004         40.5004
 129833063.84146 101168654.30743  24706411.4774   24706418.5124
        39.7004         22.9004
 121197493.14947  94439682.46545  23063111.8444   23063115.3484
        47.4004         30.5004
 115157387.52848  89733004.38646  21913702.3834   21913706.5784
        49.5004         39.3004
 111444060.79848  86839543.69446  21207094.6564   21207097.1254
        50.4004         38.0004
 132170215.50445                  25151142.4694
        30.7004
 108160402.52748  84280910.29246  20582249.2424   20582252.8834
        48.2004         41.9004
 110007591.07748  85720249.46746  20933735.3594   20933739.8714
        49.5004         39.4004
 10  5 10  0 12 30.0000000  0  9G03G19G24G16G07G23G08G13G06
 105566183.86848  82259422.19146  20088563.3674   20088567.7464
        48.6004         40.9004
 110567423.08548  86156575.84446  21040292.4774   21040294.6454
        48.2004         41.2004
 129816276.40846 101155573.22844  24703217.1254   24703225.1254
        40.3004         24.4004
 121283195.13247  94506463.19845  23079420.5314   23079424.3484
        47.2004         30.4004
 115081211.45048  89673646.40546  21899206.4844   21899211.0904
        49.9004         39.1004
 111520772.53948  86899319.02746  21221692.5864   21221695.2234
        49.9004         38.4004
 132072786.61845                  25132601.3594
        30.5004
 108188430.12448  84302749.96446  20587582.8754   20587586.6094
        49.1004         41.6004
 110038348.18048  85744216.03846  20939588.1644   20939592.9144
        49.6004         39.4004
 10  5 10  0 13  0.0000000  0  9G03G19G24G16G07G23G08G13G06
 105568676.77848  82261364.71846  20089038.1024   20089042.2664
        49.3004         41.6004
 110504047.59348  86107192.36346  21028232.4774   21028234.7274
        48.7004         40.9004
 129799970.67646 101142867.53144  24700113.2664   24700122.0354
        40.7004         24.4004
 121368964.71247  94573296.63445  23095742.1254   23095745.8914
        45.3004         30.5004
 115005211.52148  89614425.70046  21884744.1414   21884748.4774
        48.8004         38.9004
 111597950.02448  86959457.29646  21236378.6724   21236381.3984
        50.9004         38.2004
 131975296.72745                  25114050.2504
        33.8004
 108217084.10847  84325077.71747  20593035.3674   20593039.4264
        47.8004         42.1004
 110069638.81947  85768598.34746  20945543.0704   20945547.3444
        46.8004         39.7004
 10  5 10  0 13 30.0000000  0  9G03G19G24G16G07G23G08G13G06
 105571805.57348  82263802.74146  20089633.2664   20089637.2664
        50.5004         41.3004
 110441184.63147  86058208.26646  21016269.9454   21016272.5744
        47.8004         41.2004
 129784145.86846 101130536.55743  24697101.9224   24697109.4534
        38.9004         22.8004
 121454798.73247  94640180.27044  23112075.5474   23112079.3094
        44.9004         29.5004
 114929387.66148  89555342.18146  21870315.1254   21870319.7234
        49.6004         39.2004
 111675588.58448  87019954.82546  21251153.0004   21251155.4884
        50.9004         38.4004
 131877744.07745                  25095486.5234
        35.7004
 108246360.81448  84347890.72047  20598606.7734   20598610.4494
        49.6004         42.2004
 110101459.52048  85793393.70146  20951598.0864   20951602.5744
        50.2004         39.2004
 10  5 10  0 14  0.0000000  0  9G03G19G24G16G07G23G08G13G06
 105575569.99848  82266736.06546  20090349.5634   20090353.9414
        50.9004         41.3004
 110378836.31948  86009625.19046  21004405.4694   21004407.9774
        48.5004         41.1004
 129768803.52446 101118581.53443  24694184.0164   24694189.0514
        38.8004         22.6004
 121540696.21547  94707113.35344  23128421.8364   23128425.4304
        46.4004         28.9004
 114853740.97048  89496396.71846  21855920.3204   21855924.8364
        49.8004         38.6004
 111753685.84748  87080809.79646  21266014.5944   21266017.0314
        51.5004         38.7004
 131780129.93045                  25076911.8984
        35.8004
 108276259.47448  84371188.35646  20604296.3204   20604300.2074
        50.9004         41.9004
 110133808.98848  85818601.06746  20957753.7274   20957758.3134
        49.4004         39.2004
 10  5 10  0 14 30.0000000  0  9G03G19G24G16G07G23G08G13G06
 105579971.05148  82270165.46146  20091187.1174   20091191.2504
        48.5004         41.1004
 110317005.71648  85961445.52046  20992639.3834   20992641.5704
        48.7004         40.6004
 129753946.00146 101107004.28943  24691355.7814   24691362.3444
        38.8004         23.5004
 121626657.01747  94774095.79944  23144778.5944   23144783.4064
        45.7004         28.9004
 114778274.58148  89437591.74146  21841559.5084   21841563.4924
        50.5004         38.9004
 111832240.46148  87142021.13746  21280963.3444   21280965.7154
        51.9004         38.8004
 131682456.47445                  25058325.3984
        35.5004
 108306780.58948  84394971.03847  20610103.8914   20610108.2304
        50.6004         42.0004
 110166686.88648  85844220.19746  20964010.4384   20964015.1134
        48.1004         39.0004
 10  5 10  0 15  0.0000000  0  9G03G19G24G16G07G23G08G13G06
 105585006.78848  82274089.42046  20092145.3594   20092149.5204
        50.2004         41.0004
 110255693.70347  85913669.94546  20980971.9144   20980974.5514
        47.9004         40.4004
 129739573.22246 101095804.77343  24688621.0554   24688628.1844
        37.8004         22.3004
 121712678.83447  94841125.71244  23161149.1254   23161152.9694
        45.4004         29.1004
 114702989.47148  89378928.02846  21827233.4844   21827237.2974
        50.2004         38.7004
 111911248.38048  87203585.70646  21295997.9454   21296000.0354
        51.9004         39.0004
 131584723.53946                  25039727.2664
        36.1004
 108337921.96348  84419237.02347  20616030.2034   20616034.0234
        50.3004         42.5004
 110200090.61448  85870249.06846  20970366.8524   20970371.3364
        50.2004         39.4004
 10  5 10  0 15 30.0000000  0  9G03G19G24G16G07G23G08G13G06
 105590677.74848  82278508.35046  20093224.5004   20093228.8014
        50.0004         41.4004
 110194903.24047  85866300.78546  20969403.8834   20969406.6454
        47.5004         40.9004
 129725687.66146 101084984.89143  24685978.9224   24685986.3054
        38.4004         22.6004
 121798761.35747  94908202.97344  23177529.2114   23177532.9264
        45.9004         28.5004
 114627887.84648  89320407.28346  21812942.0004   21812946.1214
        50.1004         38.6004
 111990708.32148  87265502.49546  21311118.6564   21311120.9304
        52.1004         39.1004
 131486933.07745                  25021117.5864
        35.5004
 108369683.70448  84443986.40947  20622074.3674   20622078.2304
        50.2004         42.1004
 110234019.81148  85896687.40246  20976823.5784   20976828.0204
        49.2004         39.4004
 10  5 10  0 16  0.0000000  0  9G03G19G24G16G07G23G08G13G06
 105596982.34848  82283421.03246  20094424.4384   20094428.1994
        49.8004         41.2004
 110134635.35248  85819338.82446  20957934.9924   20957937.8404
        48.6004         40.7004
 129712289.31446 101074544.67643  24683427.3834   24683436.3914
        37.4004         22.5004
 121884902.79747  94975326.16744  23193921.6644   23193925.4304
        45.4004         27.7004
 114552970.77848  89262030.35146  21798686.0004   21798689.7074
        50.5004         39.2004
 112070616.64248  87327768.67146  21326324.6564   21326327.1884
        52.1004         39.9004
 131389084.87245                  25002497.4614
        33.9004
 108402063.84848  84469217.67847  20628236.1254   20628239.8714
        50.8004         42.6004
 110268471.89548  85923533.17946  20983379.3594   20983383.9734
        50.5004         39.4004
 10  5 10  0 16 30.0000000  0  9G03G19G24G16G07G23G08G13G06
 105603922.00448  82288828.56846  20095744.8054   20095748.9734
        49.0004         41.1004
 110074893.51947  85772786.78146  20946566.5234   20946569.4454
        47.4004         40.6004
 129699381.53745 101064486.68243  24680971.9694   24680979.6524
        33.5004         20.9004
 121971103.76847  95042495.71644  23210325.2734   23210328.9804
        44.2004         27.7004
 114478241.71848  89203799.92846  21784465.1414   21784469.7464
        50.0004         39.0004
 112150972.53348  87390383.59846  21341615.9694   21341618.5594
        51.2004         38.6004
 131291181.45145                  24983866.2894
        33.7004
 108435063.00648  84494931.28346  20634515.3364   20634519.4304
        50.2004         41.7004
 110303447.69448  85950787.03446  20990035.1724   20990039.2194
        48.6004         38.9004
 10  5 10  0 17  0.0000000  0  9G03G19G24G16G07G23G08G13G06
 105611494.10148  82294728.89346  20097185.8984   20097189.7424
        50.5004         40.9004
 110015678.30848  85726645.08046  20935298.0474   20935301.1564
        48.0004         41.1004
 129686963.56445 101054810.37543  24678608.9304   24678615.1254
        32.4004         20.9004
 122057361.44147  95109709.46444  23226739.1024   23226744.1604
        43.4004         27.1004
 114403700.78648  89145716.09346  21770280.5394   21770284.5904
        50.8004         39.1004
 112231771.77748  87453343.99946  21356991.4534   21356994.1524
        51.9004         38.8004
 131193222.26345                  24965226.6024
        33.7004
 108468678.63348  84521125.26646  20640912.1254   20640915.9534
        48.3004         41.7004
 110338943.54348  85978446.12746  20996789.7814   20996794.4804
        48.0004         39.2004
 10  5 10  0 17 30.0000000  0  9G03G19G24G16G07G23G08G13G06
 105619697.41748  82301121.09346  20098746.5784   20098750.7584
        48.6004         41.4004
 109956990.87847  85680914.64546  20924130.8444   20924133.2734
        47.6004         41.1004
 129675036.07546 101045516.28743  24676340.2664   24676346.1564
        36.6004         21.3004
 122143674.09647  95176966.05844  23243164.1954   23243168.5164
        44.5004         27.5004
 114329349.34448  89087779.91646  21756131.8204   21756136.4924
        51.1004         38.9004
 112313011.23448  87516647.41246  21372450.9384   21372453.7544
        51.3004         38.8004
 131095207.92846                  24946574.9694
        36.7004
 108502908.89048  84547798.17946  20647426.1254   20647430.4534
        49.4004         41.8004
 110374957.56648  86006508.99746  21003643.0314   21003647.4654
        48.5004         39.4004
 10  5 10  0 18  0.0000000  0  9G03G19G24G16G07G23G08G13G06
 105628532.15748  82308005.31246  20100427.6804   20100431.9924
        49.6004         40.9004
 109898834.07647  85635597.68147  20913063.6564   20913066.5204
        47.7004         42.1004
 129663600.98446 101036605.89043  24674162.8984   24674171.4964
        37.1004         21.7004
 122230041.57647  95244265.32544  23259599.4844   23259604.0634
        42.9004         26.5004
 114255189.68048  89029993.17846  21742019.8754   21742023.9414
        50.9004         39.4004
 112394688.93148  87580292.32146  21387993.6174   21387996.4224
        50.7004         38.8004
 130997139.86646                  24927914.7114
        37.3004
 108537753.63148  84574949.90546  20654056.3914   20654061.1024
        48.6004         41.5004
 110411488.88148  86034974.95746  21010594.7114   21010598.9454
        48.5004         38.9004
 10  5 10  0 18 30.0000000  0  9G03G19G24G16G07G23G08G13G06
 105637996.99148  82315380.50346  20102229.2734   20102233.2154
        50.8004         41.3004
 109841208.59748  85590694.74646  20902098.0314   20902100.4264
        48.9004         41.4004
 129652658.72246 101028079.48343  24672080.7194   24672089.5274
        36.3004         21.7004
 122316462.00847  95311605.91344  23276044.8524   23276049.1804
        45.5004         27.1004
 114181222.94048  88972356.76546  21727944.3284   21727948.5984
        50.7004         39.9004
 112476801.58348  87644276.15646  21403619.2974   21403622.1374
        51.4004         38.4004
 130899018.65646 101999197.91042  24909242.0704   24909246.4024
        38.7004         16.9004
 108573211.00948  84602579.01046  20660803.7194   20660808.4144
        49.8004         41.6004
 110448535.36548  86063842.34846  21017644.5634   21017648.4024
        50.0004         39.1004
 10  5 10  0 19  0.0000000  0  9G03G19G24G16G07G23G08G13G06
 105648092.55948  82323247.17946  20104150.4224   20104154.6294
        51.0004         41.6004
 109784117.90948  85546208.51546  20891234.1644   20891236.8524
        49.2004         41.8004
 129642211.84745 101019939.03543  24670093.7034   24670100.8364
        32.6004         21.3004
 122402935.76347  95378988.01744  23292499.8364   23292504.6644
        43.2004         27.2004
 114107452.41448  88914873.25146  21713906.3594   21713910.5984
        51.8004         39.8004
 112559348.00348  87708597.99546  21419327.1024   21419329.8754
        51.0004         38.1004
 130800845.86946 101922699.72843  24890559.7034   24890565.4264
        38.7004         18.3004
 108609281.20747  84630685.63046  20667667.8834   20667672.3134
        47.5004         41.3004
 110486096.87448  86093111.04946  21024792.1484   21024796.4654
        48.2004         38.6004
 10  5 10  0 19 30.0000000  0  9G03G19G24G16G07G23G08G13G06
 105658817.79348  82331604.51146  20106190.9064   20106195.5394
        50.5004         41.3004
 109727563.27348  85502139.99146  20880472.0084   20880474.2464
        49.1004         41.4004
 129632260.91446 101012185.10143  24668200.4144   24668205.9184
        38.1004         22.3004
 122489461.22946  95446410.42144  23308965.6174   23308970.3014
        40.5004         27.2004
 114033879.56648  88857543.76246  21699906.0234   21699910.1994
        51.5004         40.1004
 112642325.15348  87773255.44846  21435117.5004   21435120.4734
        50.1004         38.2004
 130702622.68246 101846162.21142  24871869.0474   24871874.3364
        38.9004         17.8004
 108645962.72248  84659268.60746  20674648.1414   20674652.1884
        48.1004         40.5004
 110524171.36448  86122779.47146  21032037.4454   21032041.6484
        50.8004         39.0004
 10  5 10  0 20  0.0000000  0  9G03G19G24G16G07G23G08G13G06
 105670170.94348  82340451.12246  20108351.2344   20108355.9844
        50.9004         40.8004
 109671545.88948  85458490.10846  20869812.0944   20869814.5474
        48.3004         41.5004
 129622806.05646 101004817.71343  24666401.1564   24666405.9454
        41.3004         22.6004
 122576036.61046  95513871.71144  23325440.5004   23325444.5474
        39.4004         26.9004
 113960505.20448  88800368.95346  21685943.4384   21685947.9104
        51.4004         40.2004
 112725729.48548  87838245.78046  21450988.5164   21450991.4064
        51.1004         38.0004
 130604349.62346 101769585.79343  24853168.2734   24853174.0554
        37.3004         18.6004
 108683253.51347  84688326.32946  20681744.3754   20681748.6564
        47.5004         40.9004
 110562756.31547  86152845.67946  21039379.9224   21039384.1484
        47.8004         38.4004
 10  5 10  0 20 30.0000000  0  9G03G19G24G16G07G23G08G13G06
 105682152.16048  82349787.14046  20110631.6024   20110636.0514
        50.6004         41.6004
 109616068.15548  85415260.73146  20859254.8444   20859257.6524
        49.2004         41.3004
 129613848.96846 100997838.22043  24664695.8524   24664702.3554
        40.7004         23.0004
 122662661.59947  95581371.66744  23341924.1724   23341928.6884
        43.0004         27.1004
 113887331.36548  88743350.38546  21672018.7424   21672023.1954
        51.1004         40.4004
 112809559.06448  87903567.46946  21466941.0474   21466943.7384
        51.7004         38.7004
 130506027.96246 101692971.54943  24834457.8594   24834463.9344
        38.1004         18.6004
 108721152.95248  84717858.33346  20688956.3364   20688960.7194
        49.8004         41.1004
 110601850.97948  86183309.04946  21046819.3364   21046824.1134
        49.9004         39.3004
 10  5 10  0 21  0.0000000  0  9G03G19G24G16G07G23G08G13G06
 105694760.01348  82359611.43646  20113030.5944   20113034.6954
        49.8004         41.4004
 109561131.62148  85372453.06946  20848800.8594   20848803.7584
        48.9004         41.1004
 129605390.56546 100991247.25943  24663086.2664   24663094.3524
        36.9004         23.6004
 122749334.93747  95648909.31944  23358418.1724   23358421.6134
        44.6004         27.3004
 113814359.95648  88686489.56546  21658132.4454   21658136.6174
        50.4004         39.5004
 112893810.80448  87969218.13546  21482973.7664   21482976.3634
        51.0004         37.6004
 130407657.99846 101616319.67143  24815737.8054   24815744.4264
        37.2004         19.6004
 108759659.71548  84747863.57846  20696283.8444   20696288.1954
        49.8004         40.9004
 110641453.47048  86214168.12946  21054355.2114   21054359.4844
        49.4004         39.5004
 10  5 10  0 21 30.0000000  0  9G03G19G24G16G07G23G08G13G06
 105707992.81348  82369922.71146  20115548.8984   20115553.2274
        50.8004         41.4004
 109506737.18648  85330067.81147  20838450.2194   20838453.0084
        49.3004         42.1004
 129597431.21445 100985045.14443  24661572.5554   24661579.7814
        35.0004         21.1004
 122836054.72347  95716483.15244  23374920.0784   23374924.3834
        44.7004         28.4004
 113741592.19348  88629787.42946  21644285.4454   21644289.6804
        50.2004         40.0004
 112978481.20748  88035195.01746  21499086.0944   21499088.4064
        51.8004         38.1004
 130309240.72846 101539630.94043  24797010.2974   24797016.7114
        38.8004         19.3004
 108798771.66548  84778340.40246  20703727.0164   20703731.5394
        51.0004         41.3004
 110681561.40248  86245421.06646  21061988.0234   21061992.4144
        50.6004         39.0004
 10  5 10  0 22  0.0000000  0  9G03G19G24G16G07G23G08G13G06
 105721850.54248  82380720.94646  20118185.8134   20118189.9924
        50.0004         41.8004
 109452887.25948  85288106.86346  20828202.6644   20828205.3524
        48.6004         41.4004
 129589972.32746 100979233.01943  24660152.9774   24660158.7544
        37.6004         21.8004
 122922820.83947  95784093.09344  23391431.5084   23391435.3794
        44.6004         28.9004
 113669030.67348  88573245.99946  21630477.3754   21630481.3794
        50.3004         39.6004
 113063568.51248  88101496.76646  21515277.8834   21515280.2504
        51.8004         38.3004
 130210777.60746 101462906.44943  24778273.5554   24778280.2584
        39.2004         19.0004
 108838488.48848  84809288.54846  20711285.1954   20711288.9884
        51.2004         41.3004
 110722173.97348  86277067.21146  21069716.2584   21069720.8014
        50.2004         39.2004
 10  5 10  0 22 30.0000000  0  9G03G19G24G16G07G23G08G13G06
 105736332.91448  82392005.91146  20120941.8204   20120946.0274
        49.2004         40.9004
 109399583.90948  85246571.79746  20818059.6564   20818061.8444
        49.3004         41.7004
 129583015.32146 100973812.05143  24658828.0394   24658834.6024
        38.9004         22.3004
 123009632.67347  95851738.63445  23407951.0234   23407955.5514
        45.3004         30.2004
 113596677.53648  88516866.94146  21616709.2114   21616713.1844
        49.5004         40.4004
 113149070.21848  88168121.43546  21531548.4384   21531550.6254
        51.6004         38.1004
 130112270.35046 101386147.53443  24759528.4774   24759533.8204
        39.3004         19.3004
 108878809.01148  84840707.11346  20718957.9144   20718961.4144
        51.2004         41.4004
 110763289.94648  86309105.62746  21077540.3364   21077544.7734
        49.9004         38.8004
 10  5 10  0 23  0.0000000  0  9G03G19G24G16G07G23G08G13G06
 105751438.28248  82403776.32446  20123816.1024   20123820.0434
        49.2004         40.9004
 109346828.31248  85205463.56646  20808020.7274   20808022.6254
        50.0004         41.7004
 129576560.43046 100968782.34444  24657599.4614   24657606.6214
        37.6004         24.2004
 123096488.25447  95919418.28045  23424478.5084   23424483.9694
        44.9004         30.4004
 113524533.91648  88460651.15246  21602980.5634   21602984.4844
        49.7004         40.6004
 113234982.97348  88235066.39046  21547896.8674   21547899.7974
        52.0004         38.6004
 130013719.44646 101309354.65743  24740774.7344   24740780.3524
        39.2004         18.6004
 108919731.16048  84872594.49246  20726744.7584   20726748.6254
        51.2004         41.2004
 110804906.83448  86341534.37946  21085459.9384   21085464.0864
        48.9004         38.7004
 10  5 10  0 23 30.0000000  0  9G03G19G24G16G07G23G08G13G06
 105767166.52448  82416032.10146  20126809.3284   20126813.6174
        49.1004         41.4004
 109294622.96248  85164784.08346  20798086.1644   20798088.7664
        49.9004         41.8004
 129570609.70545 100964145.40643  24656468.1804   24656474.5084
        33.2004         21.5004
 123183387.78147  95987132.17644  23441015.1564   23441020.0164
        44.9004         29.9004
 113452602.50348  88404600.71046  21589292.5084   21589296.6454
        48.8004         39.9004
 113321304.83248  88302330.12746  21564323.5084   21564326.1174
        51.5004         38.5004
 129915126.38846 101232528.95142  24722012.7424   24722018.3914
        39.7004         17.8004
 108961254.62948  84904950.41646  20734646.6724   20734650.6054
        51.1004         41.4004
 110847023.75348  86374352.76146  21093474.4304   21093478.8834
        48.7004         38.4004
 10  5 10  0 24  0.0000000  0  9G03G19G24G16G07G23G08G13G06
 105783515.65448  82428771.67846  20129920.2584   20129924.9654
        48.7004         41.2004
 109242968.34748  85124533.75846  20788256.7034   20788259.0554
        48.7004         41.6004
 129565162.88245 100959901.05943  24655431.7894   24655439.2234
        34.6004         22.2004
 123270329.09647  96054878.60645  23457560.2114   23457564.5744
        45.4004         30.5004
 113380884.50048  88348716.57246  21575644.9614   21575649.6214
        48.8004         39.7004
 113408032.30148  88369909.92346  21580827.0704   21580829.5554
        50.9004         38.2004
 129816491.54846 101155670.61543  24703243.4694   24703248.8984
        40.0004         19.0004
 109003376.85848  84937772.92246  20742662.2424   20742666.0394
        51.1004         41.7004
 110889638.14048  86407558.77146  21101583.5634   21101587.7274
        48.5004         38.3004
 10  5 10  0 24 30.0000000  0  9G03G19G24G16G07G23G08G13G06
 105800484.85748  82441994.43846  20133149.3284   20133153.7234
        49.0004         41.3004
 109191866.54848  85084714.20846  20778532.2114   20778534.4384
        49.6004         41.5004
 129560221.29146 100956050.51243  24654490.7114   24654497.8874
        40.0004         22.3004
 123357311.82747  96122657.33045  23474112.5784   23474116.6054
        45.5004         30.5004
 113309381.88848  88293000.26646  21562038.6094   21562042.5864
        48.4004         40.2004
 113495162.87448  88437803.82446  21597407.5474   21597410.3404
        50.9004         37.7004
 129717816.40746 101078780.91643  24684466.0554   24684471.8674
        40.7004         19.3004
 109046097.17348  84971061.45246  20750792.1174   20750795.5664
        52.1004         41.8004
 110932748.77848  86441151.47746  21109787.2114   21109791.3634
        48.5004         38.3004
 10  5 10  0 25  0.0000000  0  9G03G19G24G16G07G23G08G13G06
 105818072.33048  82455698.95346  20136496.2424   20136500.6094
        50.0004         41.4004
 109141318.32648  85045326.00246  20768913.0704   20768915.9614
        48.5004         41.4004
 129555784.62446 100952593.41943  24653646.9694   24653653.1024
        40.9004         22.0004
 123444333.90047  96190466.71845  23490672.0554   23490676.5124
        46.3004         30.4004
 113238095.33648  88237452.32346  21548472.9844   21548477.3794
        49.9004         40.1004
 113582692.84748  88506008.93346  21614063.9694   21614066.4414
        50.9004         38.1004
 129619101.15646 101001859.93043  24665681.0704   24665686.6804
        39.8004         19.0004
 109089412.97248  85004814.01846  20759034.4924   20759038.7734
        51.9004         41.7004
 110976352.82948  86475128.64846  21118084.6024   21118089.3634
        48.4004         38.0004
 10  5 10  0 25 30.0000000  0  9G03G19G24G16G07G23G08G13G06
 105836278.05848  82469885.23646  20139960.6724   20139965.1484
        50.2004         41.1004
 109091325.88048  85006370.87646  20759400.1094   20759402.3134
        49.1004         41.9004
 129551854.73646 100949531.25243  24652896.3914   24652904.3444
        36.8004         19.6004
 123531395.37047  96258306.77944  23507239.4064   23507243.2854
        46.1004         29.7004
 113167027.65148  88182074.90746  21534949.1954   21534953.3054
        48.9004         39.5004
 113670620.27748  88574523.75746  21630795.6644   21630798.7734
        51.1004         37.9004
 129520347.31846 100924908.93343  24646889.1414   24646894.7664
        39.8004         20.1004
 109133323.37848  85039029.89746  20767390.2504   20767394.3794
        52.1004         41.7004
 111020449.33148  86509489.55346  21126475.9454   21126480.6644
        49.5004         38.1004
 10  5 10  0 26  0.0000000  0  9G03G19G24G16G07G23G08G13G06
 105855100.36048  82484551.96446  20143542.2274   20143547.0394
        50.3004         41.4004
 109041890.53048  84967849.83246  20749992.3594   20749994.5944
        48.4004         41.4004
 129548432.06645 100946864.20943  24652247.4614   24652253.5274
        34.4004         19.3004
 123618494.59647  96326176.28344  23523814.1414   23523817.1454
        44.9004         29.1004
 113096180.81848  88126869.59946  21521467.5084   21521471.3284
        48.7004         39.5004
 113758941.80748  88643345.67346  21647602.9064   21647605.7934
        50.2004         36.9004
 129421556.03846 100847928.73843  24628089.1884   24628095.5234
        40.9004         20.9004
 109177826.82948  85073707.87946  20775858.8674   20775863.3714
        51.3004         41.3004
 111065036.42748  86544232.74346  21134960.8524   21134965.0634
        49.8004         38.5004
 10  5 10  0 26 30.0000000  0  9G03G19G24G16G07G23G08G13G06
 105874538.11548  82499698.26146  20147241.4304   20147246.1914
        49.6004         41.4004
 108993013.40748  84929763.78946  20740691.6564   20740693.6414
        48.5004         41.8004
 129545517.16646 100944592.83143  24651693.1884   24651699.8094
        37.9004         21.8004
 123705630.63847  96394074.45944  23540394.8834   23540399.2344
        45.2004         28.8004
 113025555.91548  88071837.22146  21508028.3444   21508032.0314
        48.1004         39.4004
 113847654.55648  88712472.42046  21664484.4614   21664487.8014
        49.8004         36.9004
 129322728.31146 100770920.16943  24609283.2814   24609288.6054
        41.4004         21.7004
 109222921.46748  85108846.54346  20784439.9224   20784444.3134
        51.7004         40.7004
 111110111.86048  86579356.45346  21143538.1024   21143542.5514
        48.8004         38.6004
 10  5 10  0 27  0.0000000  0  9G03G19G24G16G07G23G08G13G06
 105894591.19148  82515324.03046  20151057.0704   20151061.6764
        49.9004         41.6004
 108944697.10648  84892114.74146  20731497.3524   20731499.8914
        50.0004         41.9004
 129543111.54947 100942718.36344  24651235.1334   24651242.0704
        42.2004         26.0004
 123792803.60747  96462001.39344  23556984.1644   23556988.3014
        45.9004         29.0004
 112955156.06448  88016980.22246  21494631.3914   21494635.4064
        48.8004         39.3004
 113936756.67848  88781902.58446  21681439.8204   21681442.9774
        50.1004         37.5004
 129223865.84146 100693884.51443  24590470.5314   24590476.7074
        40.9004         22.6004
 109268606.75048  85144445.44146  20793133.7194   20793137.7234
        50.2004         40.9004
 111155674.85448  86614860.08346  21152208.5704   21152212.8204
        49.2004         38.1004
 10  5 10  0 27 30.0000000  0  9G03G19G24G16G07G23G08G13G06
 105915256.92848  82531427.21046  20154989.4774   20154994.2154
        50.4004         41.8004
 108896941.96748  84854902.96946  20722409.7584   20722412.0434
        49.5004         41.7004
 129541214.96946 100941240.56743  24650873.4144   24650881.1174
        40.7004         23.6004
 123880011.19947  96529955.33044  23573578.6644   23573582.8484
        46.0004         29.5004
 112884982.00448  87962299.15146  21481277.7974   21481281.9924
        48.4004         39.0004
 114026244.30448  88851633.15146  21698468.9384   21698471.5044
        49.5004         36.8004
 129124969.23646 100616822.25043  24571651.3674   24571656.4654
        41.1004         23.0004
 109314880.16648  85180502.61546  20801939.0704   20801943.3014
        49.9004         40.8004
 111201722.58148  86650741.42446  21160970.8284   21160975.3834
        48.7004         38.3004
 10  5 10  0 28  0.0000000  0  9G03G19G24G16G07G23G08G13G06
 105936534.27348  82548006.96646  20159038.5004   20159043.3244
        49.0004         41.5004
 108849749.21348  84818129.41947  20713429.3754   20713431.7384
        49.5004         42.1004
 129539828.00246 100940159.82443  24650610.5474   24650617.0554
        36.1004         22.2004
 123967252.58847  96597935.60344  23590180.7814   23590184.4104
        45.5004         29.4004
 112815035.40947  87907795.32646  21467967.4844   21467971.3404
        47.2004         39.2004
 114116114.31448  88921661.67046  21715570.9534   21715574.3134
        50.5004         37.1004
 129026039.23046 100539733.96343  24552825.3364   24552830.7734
        41.2004         22.6004
 109361739.82948  85217016.63046  20810856.3054   20810860.4454
        49.5004         40.2004
 111248253.17247  86686999.02946  21169825.6254   21169830.1724
        47.9004         38.1004
 10  5 10  0 28 30.0000000  0  9G03G19G24G16G07G23G08G13G06
 105958423.39748  82565063.41846  20163204.0634   20163208.4964
        49.8004         41.7004
 108803121.46348  84781796.13147  20704556.0084   20704558.3914
        49.3004         42.2004
 129538952.44646 100939477.56843  24650444.3444   24650449.3834
        38.7004         19.6004
 124054527.85947  96665942.29044  23606788.2814   23606793.1524
        45.0004         27.5004
 112745319.17447  87853470.99846  21454700.6954   21454705.2074
        46.3004         39.2004
 114206364.95548  88991986.78746  21732745.3754   21732748.0944
        50.4004         37.5004
 128927077.93246 100462621.29243  24533993.3444   24533998.9184
        41.1004         22.6004
 109409185.05848  85253986.89746  20819884.9064   20819888.8284
        49.4004         40.2004
 111295265.58748  86723632.08246  21178771.5634   21178776.1684
        48.4004         38.3004
 10  5 10  0 29  0.0000000  0  9G03G19G24G16G07G23G08G13G06
 105980921.51448  82582594.41846  20167485.3444   20167490.1214
        49.9004         41.7004
 108757058.66648  84745903.06247  20695790.7584   20695793.2304
        49.9004         42.0004
 129538587.65446 100939193.34443  24650374.4304   24650380.0204
        40.3004         22.2004
 124141835.12047  96733973.88244  23623402.7424   23623407.0664
        43.6004         28.0004
 112675834.06447  87799326.77646  21441477.7274   21441482.3984
        46.9004         38.9004
 114296992.12548  89062605.31646  21749990.9924   21749993.4104
        50.8004         36.9004
 128828085.11846 100385484.08843  24515156.2504   24515160.5594
        40.1004         22.6004
 109457213.13748  85291411.34946  20829024.7114   20829028.6564
        50.7004         40.3004
 111342756.96848  86760638.34346  21187809.0634   21187813.1764
        48.8004         38.1004
 10  5 10  0 29 30.0000000  0  9G03G19G24G16G07G23G08G13G06
 106004028.80548  82600600.09746  20171882.0234   20171887.1254
        48.9004         41.5004
 108711563.87248  84710452.59447  20687133.7424   20687135.6174
        49.3004         42.2004
 129538735.57846 100939308.66743  24650402.1564   24650408.3594
        40.5004         22.2004
 124229174.23747  96802030.31444  23640022.7274   23640026.3834
        45.1004         28.2004
 112606583.29547  87745365.15046  21428300.2194   21428304.2464
        46.4004         39.4004
 114387994.33548  89133516.07246  21767308.4454   21767310.6804
        51.6004         36.6004
 128729063.14846 100308324.10943  24496312.7894   24496317.5234
        40.4004         22.9004
 109505823.61248  85329289.62346  20838275.0864   20838278.9184
        50.8004         40.5004
 111390726.44548  86798017.14746  21196937.7734   21196942.0944
        48.6004         38.3004
 10  5 10  0 30  0.0000000  0  9G03G19G24G16G07G23G08G13G06
 106027743.02348  82619078.70347  20176395.2814   20176400.1454
        50.9004         42.0004
 108666637.35948  84675444.94947  20678584.1804   20678586.4694
        49.3004         42.2004
 129539395.95446 100939823.21943  24650527.1484   24650535.4494
        39.4004         22.9004
 124316543.74347  96870110.41344  23656648.1564   23656651.3164
        42.5004         25.6004
 112537567.89847  87691586.93146  21415167.0004   21415171.0124
        46.1004         39.4004
 114479367.94048  89204716.23946  21784695.8134   21784698.7704
        50.9004         36.6004
 128630012.88347 100231142.07944  24477463.8364   24477469.2974
        42.0004         24.6004
 109555013.92248  85367619.71246  20847635.6334   20847639.4024
        50.3004         40.9004
 111439171.82148  86835766.77046  21206156.5004   21206160.8324
        48.5004         38.3004
 10  5 10  0 30 30.0000000  0  9G03G19G24G16G07G23G08G13G06
 106052062.77548  82638029.16047  20181022.8984   20181027.7894
        50.4004         42.1004
 108622280.59148  84640881.26147  20670143.2814   20670145.5554
        48.6004         42.2004
 129540569.63246 100940737.77243  24650751.2584   24650757.7704
        37.1004         21.3004
 124403943.16047  96938213.79944  23673279.7274   23673283.4024
        43.9004         27.1004
 112468790.49047  87637994.16746  21402078.8984   21402083.1884
        46.0004         38.8004
 114571110.07548  89276203.56246  21802154.1724   21802156.4924
        50.8004         36.8004
 128530935.78547 100153939.16544  24458609.9224   24458615.4964
        42.0004         25.3004
 109604782.84948  85406400.67146  20857106.3284   20857110.0554
        50.4004         40.5004
 111488091.13648  86873885.72546  21215465.7504   21215469.8164
        48.8004         38.3004
 10  5 10  0 31  0.0000000  0  9G03G19G24G16G07G23G08G13G06
 106076987.71948  82657451.19946  20185766.4924   20185770.7114
        50.3004         41.4004
 108578495.12948  84606762.72846  20661811.2974   20661813.6294
        48.7004         41.7004
 129542257.48846 100942052.98243  24651072.3834   24651078.7934
        39.6004         21.8004
 124491371.47947  97006339.71144  23689917.0784   23689920.9964
        42.4004         26.5004
 112400252.67148  87584588.09446  21389036.6724   21389040.5634
        48.7004         39.0004
 114663218.17648  89347976.06546  21819681.5474   21819684.3134
        50.6004         37.0004
 128431833.10547 100076716.32344  24439751.2894   24439757.3754
        43.1004         26.2004
 109655129.08048  85445631.47846  20866686.5234   20866690.5394
        51.4004         41.1004
 111537483.02048  86912372.90746  21224864.3204   21224868.4694
        49.1004         38.3004
 10  5 10  0 31 30.0000000  0  9G03G19G24G16G07G23G08G13G06
 106102514.90348  82677342.49946  20190624.0634   20190628.5084
        50.0004         41.4004
 108535281.14448  84573089.51747  20653588.0944   20653590.0634
        49.7004         42.4004
 129544459.01646 100943768.51243  24651491.2814   24651496.8204
        40.6004         20.1004
 124578827.06947  97074486.91544  23706559.2734   23706563.2034
        42.8004         24.6004
 112331955.10648  87531369.21946  21376040.4064   21376044.2624
        48.7004         39.7004
 114755687.87648  89420030.31246  21837277.9304   21837280.8954
        50.2004         36.9004
 128332704.77347  99999473.45244  24420887.9224   24420893.4734
        43.2004         25.7004
 109706048.76148  85485309.12746  20876376.4614   20876380.7664
        51.5004         40.6004
 111587343.94148  86951225.56946  21234352.5944   21234357.1684
        48.4004         38.6004
 10  5 10  0 32  0.0000000  0  9G03G19G24G16G07G23G08G13G06
 106128644.12548  82697702.93446  20195595.9384   20195600.6214
        50.7004         41.2004
 108492640.91548  84539863.38847  20645473.9774   20645476.0434
        48.8004         42.3004
 129547175.39546 100945885.20943  24652007.4454   24652014.3014
        40.8004         21.3004
 124666309.78746  97142655.27243  23723206.4614   23723211.2894
        41.7004         22.9004
 112263901.06648  87478340.11346  21363089.8444   21363093.7734
        48.7004         39.4004
 114848517.69648  89492365.17346  21854942.8754   21854945.4884
        50.3004         36.8004
 128233552.76147  99922212.15444  24402019.8444   24402025.6484
        43.2004         27.9004
 109757541.51948  85525433.33546  20886174.8834   20886179.5354
        50.3004         40.3004
 111637672.97148  86990442.99346  21243929.8594   21243934.0434
        48.7004         38.8004
 10  5 10  0 32 30.0000000  0  9G03G19G24G16G07G23G08G13G06
 106155374.20148  82718531.56246  20200682.7344   20200687.0664
        50.5004         41.7004
 108450575.78748  84507085.38947  20637468.7114   20637471.0664
        49.2004         42.4004
 129550407.25546 100948403.54443  24652622.5474   24652629.7704
        40.1004         22.3004
 124753818.61947  97210843.95443  23739858.6804   23739864.1524
        42.3004         22.6004
 112196092.06448  87425501.94146  21350186.2274   21350190.3714
        49.3004         40.0004
 114941704.33348  89564978.08146  21872675.9224   21872678.9344
        50.2004         36.8004
 128134378.67646  99844933.66044  24383147.6644   24383153.6764
        41.6004         27.3004
 109809605.71747  85566002.80246  20896082.3284   20896087.0084
        47.3004         39.9004
 111688468.42447  87030023.86046  21253595.6564   21253600.4734
        46.8004         38.7004
 10  5 10  0 33  0.0000000  0  9G03G19G24G16G07G23G08G13G06
 106182702.62148  82739826.43346  20205883.1884   20205887.5744
        50.7004         41.4004
 108409085.79448  84474755.54347  20629573.7584   20629576.4964
        48.8004         42.4004
 129554154.37445 100951323.37143  24653335.9224   24653343.3794
        35.2004         20.1004
 124841352.23346  97279051.93143  23756515.8054   23756520.4304
        41.6004         22.0004
 112128529.31548  87372855.66346  21337329.3674   21337333.5474
        49.2004         39.9004
 115035244.32948  89637866.33646  21890475.5634   21890479.2854
        49.4004         36.2004
 128035183.10447  99767638.41144  24364271.5234   24364277.0744
        43.9004         26.7004
 109862238.68148  85607015.47146  20906098.3204   20906102.9574
        48.1004         39.7004
 111739727.52847  87069966.00146  21263350.3364   21263354.8014
        47.9004         38.3004
 10  5 10  0 33 30.0000000  0  9G03G19G24G16G07G23G08G13G06
 106210629.59048  82761587.70946  20211197.4304   20211201.7774
        49.9004         41.7004
 108368174.15247  84442876.36847  20621788.6564   20621790.9414
        47.9004         42.3004
 129558418.75046 100954646.25143  24654147.9454   24654154.3404
        39.8004         20.6004
 124928911.12446  97347279.64743  23773176.8284   23773181.6684
        40.3004         22.0004
 112061216.51648  87320404.14746  21324519.9844   21324524.3484
        49.8004         39.9004
 115129136.19848  89711028.76746  21908342.7114   21908346.4104
        49.8004         36.3004
 127935968.92447  99690328.67344  24345391.3204   24345397.1294
        42.8004         27.1004
 109915440.44248  85648471.36346  20916222.3204   20916226.5664
        49.7004         39.8004
 111791450.02847  87110269.23946  21273192.9304   21273197.0744
        47.3004         38.0004
 10  5 10  0 34  0.0000000  0  9G03G19G24G16G07G23G08G13G06
 106239152.92848  82783813.68346  20216624.9614   20216629.4964
        50.9004         41.1004
 108327840.94648  84411447.92147  20614113.2584   20614115.5784
        49.0004         42.3004
 129563200.05046 100958372.00243  24655057.5314   24655063.9144
        39.9004         21.1004
 125016494.01746  97415525.99143  23789845.0314   23789848.5744
        39.2004         22.2004
 111994154.84248  87268148.31146  21311758.6564   21311762.6954
        49.4004         40.2004
 115223376.39148  89784462.62146  21926276.2894   21926279.0944
        50.4004         36.3004
 127836736.58847  99613004.76344  24326508.9304   24326514.4024
        42.1004         27.8004
 109969208.12848  85690368.22346  20926453.9844   20926457.9574
        49.7004         39.6004
 111843632.89448  87150931.20646  21283122.8834   21283127.7774
        49.0004         37.9004
 10  5 10  0 34 30.0000000  0  9G03G19G24G16G07G23G08G13G06
 106268269.87048  82806502.20846  20222166.1804   20222170.2664
        50.9004         40.9004
 108288086.31048  84380470.30746  20606548.1804   20606550.0434
        48.1004         41.8004
 129568497.38946 100962499.79743  24656064.6484   24656072.3524
        38.4004         21.3004
 125104098.47846  97483789.17843  23806515.5944   23806518.8134
        36.9004         21.3004
 111927344.92648  87216088.64046  21299045.1414   21299049.4774
        49.3004         40.5004
 115317960.84748  89858164.73946  21944275.3914   21944278.2704
        50.5004         37.2004
 127737485.79247  99535666.49844  24307621.4924   24307627.3714
        42.6004         28.3004
 110023538.32148  85732703.41346  20936792.5164   20936797.1454
        49.6004         39.7004
 111896272.94648  87191949.42646  21293139.7584   21293144.2934
        48.2004         37.9004
 10  5 10  0 35  0.0000000  0  9G03G19G24G16G07G23G08G13G06
 106297979.16148  82829652.30146  20227819.3594   20227823.5004
        51.0004         41.1004
 108248911.67847  84349944.63647  20599093.3364   20599095.5704
        47.9004         42.2004
 129574311.38746 100967030.13343  24657173.9224   24657179.4344
        37.3004         21.3004
 125191724.14746  97552068.88443  23823189.7664   23823194.3324
        36.6004         21.5004
 111860789.31148  87164227.13746  21286380.1484   21286384.4734
        48.0004         39.8004
 115412886.38848  89932132.63246  21962339.0704   21962341.8554
        50.0004         36.0004
 127638218.38847  99458315.27444  24288732.1804   24288737.2234
        43.5004         27.9004
 110078429.58448  85775475.80646  20947238.5554   20947242.1604
        48.8004         39.7004
 111949368.67948  87233322.72446  21303243.5084   21303247.6454
        48.3004         38.0004
 10  5 10  0 35 30.0000000  0  9G03G19G24G16G07G23G08G13G06
 106328280.80148  82853263.97746  20233585.2504   20233590.1254
        50.3004         40.6004
 108210319.30948  84319872.67147  20591749.2504   20591751.4304
        48.1004         42.5004
 129580643.77046 100971964.44143  24658376.3754   24658384.5664
        37.6004         19.9004
 125279371.88646  97620365.80643  23839868.3204   23839872.4844
        39.6004         22.8004
 111794490.91248  87112566.05946  21273763.9454   21273767.8094
        48.8004         40.5004
 115508151.71948  90006365.29346  21980468.1414   21980470.3984
        50.2004         36.7004
 127538937.04947  99380953.20344  24269839.2424   24269844.5234
        42.0004         27.6004
 110133881.30048  85818684.90646  20957790.4534   20957794.7704
        48.0004         39.9004
 112002919.60447  87275050.71946  21313434.0784   21313438.5004
        46.7004         37.6004
 10  5 10  0 36  0.0000000  0  9G03G19G24G16G07G23G08G13G06
 106359172.56348  82877335.47646  20239464.3524   20239468.6024
        50.2004         41.0004
 108172309.66547  84290254.78847  20584516.6254   20584518.4144
        47.5004         42.0004
 129587494.30946 100977302.60243  24659681.0084   24659687.2734
        40.4004         22.0004
 125367039.97446  97688678.51943  23856550.9694   23856556.3404
        39.5004         22.8004
 111728451.23447  87061106.57646  21261197.2894   21261201.2114
        47.8004         40.5004
 115603753.23148  90080859.94046  21998660.2034   21998662.7344
        50.9004         36.2004
 127439642.57447  99303580.89844  24250943.8054   24250949.4884
        43.1004         27.8004
 110189890.90948  85862328.73546  20968448.8594   20968453.1334
        49.3004         40.4004
 112056922.94247  87317131.23446  21323710.4844   21323714.6454
        47.9004         37.4004
 10  5 10  0 36 30.0000000  0  9G03G19G24G16G07G23G08G13G06
 106390652.64448  82901865.41246  20245454.6414   20245458.7464
        50.3004         40.8004
 108134883.19948  84261091.33346  20577394.2194   20577396.7114
        48.3004         41.8004
 129594862.91346 100983044.40443  24661081.5164   24661089.2114
        37.9004         20.6004
 125454726.91346  97757006.02943  23873237.7974   23873242.5274
        39.3004         22.5004
 111662671.73948  87009849.84146  21248679.5004   21248683.9414
        48.2004         40.4004
 115699687.39148  90155613.76845  22016915.8984   22016918.5904
        50.3004         35.8004
 127340335.42647  99226198.72144  24232046.4694   24232052.0004
        43.4004         27.9004
 110246456.14948  85906405.52046  20979212.9304   20979217.2344
        49.2004         40.0004
 112111376.13048  87359562.28646  21334072.4454   21334076.9924
        48.5004         37.7004
 10  5 10  0 37  0.0000000  0  9G03G19G24G16G07G23G08G13G06
 106422719.39448  82926852.48346  20251556.8444   20251560.9024
        49.8004         40.7004
 108098041.32348  84232383.39847  20570383.6174   20570385.8914
        48.9004         42.3004
 129602750.12145 100989190.26343  24662582.6414   24662590.0004
        31.9004         18.6004
 125542432.35746  97825347.89743  23889927.5784   23889931.6604
        39.1004         22.3004
 111597154.82548  86958797.70546  21236212.3444   21236216.3714
        48.7004         40.2004
 115795951.35348  90230624.60845  22035233.9924   22035236.8054
        50.0004         35.7004
 127241016.90147  99148807.70644  24213146.3364   24213152.1094
        42.8004         27.3004
 110303575.17148  85950913.83246  20990081.6884   20990086.1294
        49.6004         39.5004
 112166277.10148  87402342.26246  21344519.6024   21344524.3714
        48.5004         37.3004
 10  5 10  0 37 30.0000000  0  9G03G19G24G16G07G23G08G13G06
 106455371.18748  82952295.44046  20257769.7734   20257774.3794
        50.5004         40.9004
 108061785.07448  84204131.79546  20563484.0084   20563486.3674
        48.9004         41.5004
 129611156.25145 100995740.49243  24664184.3134   24664190.2034
        35.7004         19.0004
 125630155.37246  97893703.50043  23906620.4694   23906624.6524
        39.2004         23.0004
 111531901.95748  86907951.33146  21223795.1254   21223798.7424
        49.3004         40.3004
 115892542.12448  90305890.10445  22053614.6094   22053617.3984
        49.6004         35.2004
 127141688.57647  99071409.02344  24194244.7504   24194250.7974
        43.6004         26.8004
 110361245.75448  85995851.93046  21001056.5394   21001060.7734
        49.2004         39.9004
 112221623.91547  87445469.64246  21355051.9224   21355056.2974
        47.6004         36.8004
 10  5 10  0 38  0.0000000  0  9G03G19G24G16G07G23G08G13G06
 106488605.94348  82978192.64946  20264094.3524   20264098.8794
        50.0004         40.8004
 108026114.52348  84176336.56947  20556696.4694   20556698.8364
        48.7004         42.2004
 129620080.47246 101002694.49343  24665883.0474   24665888.1954
        39.5004         20.6004
 125717894.71446  97962071.78344  23923316.8134   23923321.1334
        40.2004         25.9004
 111466914.55048  86857311.79846  21211428.2664   21211432.5314
        49.5004         40.6004
 115989456.27348  90381407.57145  22072056.7734   22072060.2344
        48.9004         35.2004
 127042351.36147  98994003.43244  24175341.2194   24175347.3404
        44.0004         27.9004
 110419465.19648  86041217.69746  21012134.9454   21012139.2814
        49.9004         39.8004
 112277413.89047  87488942.34046  21365668.4534   21365672.9184
        47.5004         36.9004
 10  5 10  0 38 30.0000000  0  9G03G19G24G16G07G23G08G13G06
 106522423.55648  83004544.04046  20270529.7584   20270534.4064
        50.0004         40.9004
 107991032.45448  84148999.91446  20550020.2034   20550022.8594
        48.7004         41.6004
 129629524.87546 101010053.83942  24667676.8754   24667684.8324
        36.7004         17.8004
 125805650.98447  98030453.25544  23940016.0164   23940020.5704
        42.1004         26.7004
 111402196.31248  86806882.01846  21199112.7664   21199116.7034
        50.1004         40.4004
 116086692.48648  90457176.00445  22090559.6724   22090563.2934
        48.6004         34.3004
 126943008.12547  98916593.13444  24156437.5314   24156442.5704
        43.8004         26.5004
 110478232.97248  86087010.74046  21023318.4694   21023322.4184
        49.4004         39.5004
 112333646.71947  87532760.13646  21376369.1484   21376373.7194
        47.1004         37.1004
 10  5 10  0 39  0.0000000  0  9G03G19G24G16G07G23G08G13G06
 106556821.67948  83031347.77646  20277075.6484   20277079.7814
        50.2004         40.6004
 107956538.66048  84122121.65546  20543456.4774   20543458.6914
        48.3004         41.6004
 129639489.08645 101017818.12243  24669574.1024   24669581.2274
        33.0004         19.0004
 125893422.70947  98098846.79244  23956718.6644   23956723.8554
        42.3004         27.0004
 111337748.37248  86756662.85646  21186848.6724   21186852.9774
        49.4004         41.3004
 116184246.47847  90533192.04445  22109123.9064   22109126.8164
        47.5004         33.6004
 126843659.11547  98839178.33244  24137531.8914   24137537.0204
        43.4004         25.3004
 110537546.23948  86133228.85446  21034605.6254   21034609.1884
        48.1004         39.6004
 112390319.41447  87576920.66446  21387153.3524   21387158.6414
        44.6004         36.8004
 10  5 10  0 39 30.0000000  0  9G03G19G24G16G07G23G08G13G06
 106591798.51848  83058602.44546  20283731.5634   20283735.9884
        50.5004         41.1004
 107922634.44048  84095702.80846  20537004.7974   20537007.0514
        48.8004         41.8004
 129649973.06346 101025987.42443  24671570.1414   24671576.6684
        38.4004         19.0004
 125981209.34947  98167251.93544  23973424.2664   23973429.8444
        42.8004         28.4004
 111273572.98948  86706656.07446  21174636.4844   21174640.6524
        49.3004         40.6004
 116282115.60648  90609453.63545  22127747.7344   22127751.2624
        48.0004         34.4004
 126744306.46347  98761760.71344  24118625.6024   24118631.4064
        42.7004         25.3004
 110597403.18948  86179870.60846  21045996.1484   21045999.6454
        51.2004         40.0004
 112447430.03847  87621422.43846  21398021.1804   21398026.5204
        47.5004         37.1004
 10  5 10  0 40  0.0000000  0  9G03G19G24G16G07G23G08G13G06
 106627352.08948  83086306.52346  20290496.9534   20290501.3984
        50.7004         40.9004
 107889320.07848  84069743.58546  20530665.3284   20530667.3484
        48.0004         41.6004
 129660976.35246 101034561.45543  24673663.9384   24673670.4064
        40.0004         21.7004
 126069009.95446  98235667.97744  23990132.1254   23990137.2154
        41.8004         28.4004
 111209671.71848  86656862.88546  21162476.7584   21162480.7584
        49.2004         40.6004
 116380296.34348  90685958.03945  22146431.3134   22146434.8404
        48.1004         34.8004
 126644950.41646  98684340.42344  24099718.7504   24099724.3134
        41.8004         25.1004
 110657801.14548  86226933.93546  21057489.3984   21057493.0554
        49.9004         40.1004
 112504976.06447  87666263.48846  21408972.0944   21408977.1684
        45.2004         37.4004
 10  5 10  0 40 30.0000000  0  9G03G19G24G16G07G23G08G13G06
 106663480.18148  83114458.28346  20297372.0704   20297376.1724
        50.8004         40.8004
 107856596.51348  84044244.72847  20524438.3914   20524439.9924
        48.5004         42.0004
 129672499.15045 101043540.28043  24675854.1334   24675862.4144
        34.4004         18.6004
 126156823.06147  98304093.75044  24006842.2194   24006846.9614
        42.2004         27.8004
 111146045.81548  86607284.27946  21150368.9774   21150373.3714
        49.3004         41.4004
 116478785.58348  90762702.85145  22165173.3674   22165175.9304
        49.8004         35.5004
 126545592.82747  98606918.96543  24080811.5554   24080817.2774
        42.3004         22.9004
 110718737.39148  86274416.71646  21069084.8284   21069088.8984
        50.3004         39.8004
 112562954.86447  87711441.75646  21420004.9924   21420009.5784
        47.8004         37.6004
 10  5 10  0 41  0.0000000  0 10G03G28G19G24G16G07G23G08G13G06
 106700182.68348  83143057.64546  20304356.1414   20304360.5434
        50.7004         40.8004
 133373868.02146 103927748.84243  25380212.7894   25380218.2274
        40.0004         21.1004
 107824465.67848  84019207.74046  20518323.7734   20518325.9614
        48.9004         41.8004
 129684542.99745 101052925.05042  24678148.7194   24678153.7074
        33.9004         17.4004
 126244649.21847  98372529.68044  24023555.0634   24023559.8674
        43.1004         26.2004
 111082699.04048  86557923.16446  21138314.3834   21138318.9454
        49.1004         41.1004
 116577581.30848  90839686.47745  22183973.8364   22183977.0274
        48.6004         35.8004
 126446236.52347  98529498.48244  24061904.7274   24061910.4064
        42.1004         24.2004
 110780211.50948  86322318.59846  21080782.7034   21080787.2464
        48.1004         39.4004
 112621366.26147  87756957.13546  21431120.3594   21431125.1484
        45.9004         37.5004
 10  5 10  0 41 30.0000000  0 10G03G28G19G24G16G07G23G08G13G06
 106737457.00048  83172102.58046  20311449.1334   20311453.3554
        50.5004         40.7004
 133295541.88246 103866715.53943  25365307.0864   25365313.3404
        38.0004         20.1004
 107792927.10248  83994632.23947  20512322.2114   20512324.0044
        49.0004         42.3004
 129697107.07946 101062715.29543  24680539.5864   24680544.8164
        37.5004         20.4004
 126332487.15247  98440974.80444  24040270.7274   24040273.8094
        45.0004         27.3004
 111019632.57748  86508780.47846  21126313.3594   21126317.1844
        49.4004         40.9004
 116676679.77048  90916905.98545  22202831.3674   22202834.5274
        49.6004         35.8004
 126346881.18347  98452078.76144  24042997.5634   24043003.4224
        42.8004         24.6004
 110842220.45648  86370637.24346  21092582.7114   21092587.4024
        49.5004         39.3004
 112680206.82247  87802806.90946  21442318.0084   21442322.0004
        47.2004         37.7004
 10  5 10  0 42  0.0000000  0 10G03G28G19G24G16G07G23G08G13G06
 106775300.55948  83201591.06246  20318650.6334   20318655.4614
        50.0004         41.1004
 133217292.02646 103805741.69043  25350416.8444   25350423.2114
        36.8004         18.3004
 107761981.35247  83970518.69047  20506433.5944   20506435.4344
        47.6004         42.4004
 129710190.64446 101072910.31343  24683029.4924   24683034.9534
        41.0004         21.7004
 126420335.46547  98509427.99744  24056987.6024   24056991.0594
        43.2004         28.3004
 110956847.46048  86459857.01746  21114365.2584   21114369.5354
        49.0004         41.3004
 116776077.34948  90994358.59446  22221746.2894   22221749.2234
        49.7004         36.0004
 126247527.90247  98374660.62244  24024091.5164   24024097.1094
        42.3004         24.3004
 110904761.17848  86419370.24446  21104483.8674   21104487.8594
        48.6004         38.7004
 112739473.89747  87848989.04546  21453595.7504   21453600.0944
        46.6004         38.1004
 10  5 10  0 42 30.0000000  0 10G03G28G19G24G16G07G23G08G13G06
 106813712.56148  83231522.49346  20325959.9614   20325964.5904
        50.9004         41.1004
 133139119.44246 103744828.03942  25335540.5314   25335547.0394
        36.8004         17.8004
 107731629.69147  83946868.05847  20500657.7894   20500659.7774
        47.1004         42.3004
 129723794.72046 101083510.89743  24685616.5234   24685624.4924
        37.9004         20.1004
 126508194.24847  98577889.37244  24073706.3524   24073710.5354
        43.0004         27.5004
 110894346.59148  86411155.05946  21102472.1024   21102476.2584
        48.3004         41.0004
 116875771.52148  91072042.30945  22240717.5084   22240720.9064
        49.5004         35.5004
 126148178.97847  98297245.88643  24005185.6484   24005191.8554
        42.6004         22.3004
 110967832.20848  86468516.47146  21116486.0004   21116490.0394
        49.9004         39.4004
 112799166.03247  87895502.38546  21464954.9534   21464959.6214
        47.2004         38.7004
 10  5 10  0 43  0.0000000  0 10G03G28G19G24G16G07G23G08G13G06
 106852690.43948  83261894.86246  20333377.9144   20333381.7624
        50.5004         40.7004
 133061023.81346 103683974.25942  25320680.7814   25320686.1134
        38.7004         16.3004
 107701872.62847  83923680.76247  20494995.2664   20494997.2154
        47.5004         42.4004
 129737918.86446 101094516.59643  24688306.9384   24688312.4964
        37.1004         20.1004
 126596062.34746  98646358.00844  24090426.8524   24090431.1884
        41.5004         25.8004
 110832131.57648  86362675.84346  21090632.9924   21090637.1054
        48.2004         41.4004
 116975759.13748  91149954.66545  22259744.4694   22259747.6524
        48.9004         35.3004
 126048835.41547  98219835.33643  23986281.8754   23986287.1564
        42.0004         23.4004
 111031430.97747  86518073.91946  21128588.7894   21128592.7624
        47.8004         39.4004
 112859280.75847  87942345.01246  21476394.4064   21476398.7624
        46.6004         38.1004
 10  5 10  0 43 30.0000000  0 10G03G28G19G24G16G07G23G08G13G06
 106892232.84848  83292707.13046  20340902.2114   20340906.2664
        51.6004         41.3004
 132983005.27846 103623180.64543  25305833.9534   25305839.0124
        38.1004         19.9004
 107672711.10947  83900957.51947  20489445.5394   20489448.3204
        47.5004         42.5004
 129752562.89246 101105927.57943  24691093.0554   24691097.9384
        41.0004         19.9004
 126683938.82047  98714833.19644  24107148.8054   24107153.8754
        42.8004         25.3004
 110770205.06548  86314421.42746  21078848.8834   21078852.9264
        48.8004         41.6004
 117076037.20448  91228093.35845  22278826.9614   22278829.4534
        48.9004         34.0004
 125949498.37847  98142429.83943  23967378.2274   23967384.0314
        42.1004         22.3004
 111095555.07948  86568040.72346  21140791.2504   21140795.5434
        51.0004         39.6004
 112919815.94947  87989515.29946  21487913.5784   21487918.0124
        47.5004         38.3004
 10  5 10  0 44  0.0000000  0 10G03G28G19G24G16G07G23G08G13G06
 106932337.72048  83323957.68446  20348533.5634   20348538.1994
        51.0004         41.3004
 132905064.14246 103562447.34443  25291001.6884   25291007.7194
        38.4004         21.5004
 107644145.34047  83878698.50047  20484010.2344   20484012.3954
        47.3004         42.7004
 129767727.20046 101117744.01543  24693979.6094   24693983.4304
        40.6004         19.3004
 126771823.34047  98783314.60843  24123872.4924   24123877.3714
        42.0004         22.9004
 110708568.01248  86266392.56246  21067119.9844   21067123.6334
        49.3004         41.7004
 117176602.60948  91306455.96845  22297963.5314   22297966.7384
        49.2004         34.4004
 125850169.77847  98065030.94743  23948476.7114   23948482.7704
        43.0004         22.6004
 111160202.67648  86618415.46246  21153093.1804   21153097.7074
        50.7004         40.2004
 112980769.37547  88037011.44046  21499513.3134   21499517.3054
        47.9004         38.0004
 10  5 10  0 44 30.0000000  0 10G03G28G19G24G16G07G23G08G13G06
 106973002.70548  83355644.68946  20356272.1024   20356276.6604
        52.1004         41.1004
 132827200.17646 103501774.17343  25276184.1024   25276190.5904
        36.1004         18.6004
 107616175.75348  83856904.03447  20478687.6564   20478690.0784
        48.0004         43.0004
 129783411.41545 101129965.44342  24696960.3834   24696968.8014
        33.7004         17.8004
 126859714.87346  98851801.47543  24140598.4144   24140602.3554
        40.9004         22.2004
 110647222.48148  86218590.87046  21055446.0164   21055450.1174
        48.9004         41.3004
 117277452.08848  91385039.91845  22317154.7274   22317158.2234
        48.5004         33.8004
 125750850.92547  97987639.63043  23929577.1334   23929582.4024
        42.7004         21.8004
 111225370.82548  86669195.82746  21165493.8754   21165498.4064
        51.0004         40.3004
 113042138.72447  88084831.72546  21511190.7664   21511195.5514
        47.0004         38.1004
 10  5 10  0 45  0.0000000  0 10G03G28G19G24G16G07G23G08G13G06
 107014226.32748  83387766.99146  20364116.5864   20364120.9694
        51.5004         41.6004
 132749413.57746 103441161.25242  25261382.3364   25261387.9964
        38.6004         16.9004
 107588803.39248  83835574.93947  20473478.6564   20473480.8634
        48.1004         43.0004
 129799615.44246 101142591.84143  24700048.1174   24700052.7424
        38.3004         18.6004
 126947612.76146  98920293.30943  24157324.9064   24157328.3714
        39.4004         22.8004
 110586170.63748  86171018.02146  21043827.9694   21043831.9614
        49.2004         41.5004
 117378582.58547  91463842.83645  22336398.7344   22336402.4264
        47.6004         32.7004
 125651543.42747  97910257.16843  23910680.1724   23910684.9494
        43.0004         22.6004
 111291057.22847  86720380.00546  21177993.6724   21177998.3444
        47.8004         39.2004
 113103921.88547  88132974.42846  21522948.1334   21522952.5434
        46.5004         38.3004
 10  5 10  0 45 30.0000000  0 10G03G28G19G24G16G07G23G08G13G06
 107056007.67048  83420323.87746  20372067.4774   20372071.6414
        52.2004         40.9004
 132671705.21946 103380609.27042  25246595.3834   25246600.5634
        39.0004         17.4004
 107562029.49947  83814712.18847  20468383.5634   20468386.1174
        47.3004         43.3004
 129816339.69146 101155623.80743  24703227.9144   24703234.6994
        41.2004         21.3004
 127035517.07546  98988790.16844  24174052.1254   24174055.7304
        40.1004         24.6004
 110525415.52148  86123676.38346  21032266.9534   21032270.5474
        49.8004         41.5004
 117479991.41948  91542862.65245  22355696.7974   22355699.6954
        48.2004         32.7004
 125552248.94247  97832884.81043  23891784.9844   23891789.7384
        44.5004         22.8004
 111357260.44148  86771966.89046  21190591.8594   21190596.5784
        48.6004         38.7004
 113166117.20447  88181438.31346  21534783.0554   21534787.7344
        47.6004         38.1004
 10  5 10  0 46  0.0000000  0 10G03G28G19G24G16G07G23G08G13G06
 107098343.37748  83453312.72946  20380123.7424   20380128.1334
        52.1004         41.6004
 132594074.69746 103320117.98243  25231823.2274   25231828.1724
        39.6004         20.4004
 107535853.87747  83794315.61047  20463402.8134   20463405.1724
        47.9004         43.1004
 129833583.44746 101169060.55143  24706509.6414   24706515.4924
        41.2004         20.9004
 127123426.63446  99057291.05043  24190780.9454   24190785.3834
        37.7004         22.9004
 110464957.99948  86076566.64346  21020762.0394   21020766.3284
        50.6004         41.5004
 117581675.20147  91622096.71545  22375045.9694   22375050.1564
        47.2004         32.4004
 125452968.63247  97755523.52944  23872892.0554   23872897.1764
        44.5004         24.5004
 111423977.41948  86823954.09346  21203288.1564   21203292.2894
        49.5004         39.0004
 113228722.13348  88230221.35146  21546696.5634   21546701.2234
        48.3004         38.3004
 10  5 10  0 46 30.0000000  0 10G03G28G19G24G16G07G23G08G13G06
 107141232.21348  83486732.60946  20388285.5004   20388289.6644
        51.8004         41.4004
 132516522.12546 103259687.47643  25217064.6954   25217070.5864
        39.2004         19.6004
 107510277.10347  83774385.66847  20458536.0004   20458538.0704
        47.9004         43.2004
 129851346.90846 101182902.17643  24709889.8914   24709895.8054
        38.1004         20.6004
 127211340.61446  99125795.43743  24207509.8674   24207515.8594
        37.1004         21.7004
 110404800.47148  86029690.66346  21009314.5474   21009318.2664
        49.9004         40.9004
 117683630.92247  91701542.65845  22394448.5944   22394451.4104
        47.8004         33.1004
 125353704.47647  97678174.83444  23854003.1094   23854007.6564
        44.7004         25.7004
 111491205.75348  86876339.78146  21216081.2504   21216085.2704
        51.4004         39.0004
 113291734.35247  88279321.78046  21558687.3284   21558692.1684
        47.1004         38.3004
 10  5 10  0 47  0.0000000  0 10G03G28G19G24G16G07G23G08G13G06
 107184672.11448  83520581.89146  20396551.4924   20396555.7074
        50.9004         41.6004
 132439047.45346 103199317.61143  25202321.7734   25202327.1454
        38.8004         18.6004
 107485299.74948  83754922.81347  20453782.8204   20453785.3874
        48.3004         43.2004
 129869629.65646 101197148.44543  24713369.1484   24713375.0664
        39.2004         20.9004
 127299258.53246  99194302.90043  24224240.5004   24224247.0004
        38.7004         21.7004
 110344944.96948  85983050.02746  20997924.7734   20997928.2774
        49.7004         40.9004
 117785855.38447  91781198.03945  22413900.8674   22413904.4804
        46.7004         33.6004
 125254457.17847  97600839.28844  23835116.7664   23835122.2304
        44.9004         25.1004
 111558943.30048  86929122.27346  21228971.1334   21228975.1134
        50.3004         39.6004
 113355151.86648  88328738.00346  21570755.5944   21570759.9304
        48.5004         38.3004
 10  5 10  0 47 30.0000000  0 10G03G28G19G24G16G07G23G08G13G06
 107228661.40248  83554859.26046  20404922.0704   20404926.7464
        51.8004         41.3004
 132361650.99546 103139008.73743  25187592.8914   25187599.1414
        38.4004         18.6004
 107460922.46947  83735927.54247  20449143.8594   20449146.3634
        47.3004         43.2004
 129888431.65446 101211799.37643  24716947.4064   24716952.7664
        41.7004         21.7004
 127387179.94146  99262813.04243  24240971.6414   24240977.2384
        38.0004         21.1004
 110285393.62048  85936646.40846  20986591.9384   20986595.8794
        49.8004         40.7004
 117888345.63347  91861060.50745  22433404.0704   22433408.0004
        47.9004         34.7004
 125155228.92747  97523518.57044  23816234.2584   23816239.8914
        45.6004         27.1004
 111627187.75948  86982299.75646  21241957.7114   21241961.4414
        50.5004         39.7004
 113418972.26647  88378468.17146  21582900.6094   21582904.6684
        46.9004         37.8004
 10  5 10  0 48  0.0000000  0 10G03G28G19G24G16G07G23G08G13G06
 107273197.20348  83589562.48446  20413397.3284   20413401.4264
        51.0004         40.8004
 132284332.07747 103078760.24043  25172881.2114   25172886.3954
        42.0004         21.8004
 107437144.94448  83717399.62447  20444618.8444   20444621.2624
        48.5004         43.6004
 129907752.10346 101226854.33143  24720622.0394   24720628.9104
        40.0004         20.4004
 127475103.37345  99331324.76243  24257702.9774   24257708.7034
        35.9004         19.3004
 110226147.60248  85890480.69846  20975318.0004   20975321.7234
        49.5004         41.0004
 117991097.97448  91941127.20245  22452958.0944   22452960.7894
        48.6004         35.0004
 125056020.63847  97446213.40444  23797355.2194   23797360.9924
        46.1004         27.1004
 111695935.80748  87035869.61946  21255039.9774   21255044.2424
        50.0004         39.2004
 113483192.99748  88428510.29746  21595121.0554   21595125.9344
        48.9004         38.3004
 10  5 10  0 48 30.0000000  0 10G03G28G19G24G16G07G23G08G13G06
 107318278.46248  83624690.73446  20421975.8984   20421980.3714
        50.1004         41.1004
 132207091.85346 103018573.04743  25158182.1334   25158187.5044
        39.4004         20.6004
 107413968.47548  83699340.06047  20440208.7194   20440211.2664
        48.4004         43.3004
 129927591.59146 101242313.67343  24724399.1094   24724404.6684
        38.9004         21.3004
 127563028.82345  99399838.05043  24274433.9534   24274438.7034
        32.8004         19.0004
 110167209.73648  85844555.11846  20964102.2424   20964106.3914
        49.8004         41.1004
 118094110.21948  92021396.45345  22472560.4534   22472563.2464
        48.0004         34.1004
 124956834.51447  97368925.52544  23778481.1414   23778486.3364
        46.0004         27.4004
 111765185.84048  87089830.65346  21268217.6724   21268222.1724
        49.5004         38.9004
 113547812.38448  88478863.05546  21607417.7974   21607422.4924
        48.4004         37.9004
 10  5 10  0 49  0.0000000  0 10G03G28G19G24G16G07G23G08G13G06
 107363902.64148  83660242.03546  20430657.7734   20430662.4384
        50.0004         40.4004
 132129930.20046 102958447.10043  25143498.2664   25143504.3634
        38.1004         19.9004
 107391393.27248  83681749.00447  20435913.2424   20435915.2814
        48.7004         43.6004
 129947949.63146 101258177.01643  24728273.4614   24728278.7304
        39.0004         19.3004
 127650955.78245  99468352.54242  24291163.3204   24291170.2624
        31.2004         16.9004
 110108582.25648  85798871.38846  20952945.7894   20952949.7424
        50.0004         41.1004
 118197378.88047  92101865.47845  22492212.0704   22492215.3014
        47.7004         34.3004
 124857672.00847  97291656.06944  23759610.9144   23759616.3754
        45.3004         27.3004
 111834935.14748  87144180.71946  21281490.5784   21281495.0784
        50.0004         38.8004
 113612828.05447  88529524.62346  21619789.4384   21619794.4804
        47.9004         37.6004
 10  5 10  0 49 30.0000000  0 10G03G28G19G24G16G07G23G08G13G06
 107410067.45848  83696214.62346  20439442.5084   20439447.1054
        51.4004         40.5004
 132052846.88246 102898382.17743  25128830.1174   25128835.7544
        38.4004         20.1004
 107369419.53548  83664626.62747  20431731.0084   20431733.3204
        48.3004         43.4004
 129968825.60547 101274444.04743  24732245.5234   24732252.0824
        42.1004         21.3004
 127738883.47745  99536867.63242  24307894.8524   24307901.2274
        31.6004         16.9004
 110050266.26648  85753430.38346  20941848.7664   20941852.3954
        49.9004         40.9004
 118300900.62647  92182531.69745  22511910.9304   22511914.5354
        47.1004         34.2004
 124758534.17347  97214405.82644  23740745.5004   23740751.3164
        45.1004         27.9004
 111905181.06648  87198917.79046  21294858.1804   21294861.9884
        50.3004         38.5004
 113678237.61547  88580493.08746  21632236.9694   21632241.6724
        47.6004         37.9004
 10  5 10  0 50  0.0000000  0 10G03G28G19G24G16G07G23G08G13G06
 107456770.86648  83732606.88346  20448329.9844   20448334.3834
        50.7004         41.0004
 131975842.20046 102838378.55543  25114177.0004   25114182.4304
        38.7004         21.8004
 107348047.50248  83647973.11347  20427664.5234   20427666.6334
        48.2004         43.6004
 129990219.39547 101291114.59643  24736315.8674   24736323.7424
        42.4004         22.0004
 127826811.26546  99605382.64143  24324631.1174   24324633.9064
        37.2004         19.3004
 109992264.41248  85708234.14946  20930811.6414   20930815.3524
        50.5004         41.2004
 118404672.69747  92263392.98445  22531657.8444   22531661.5004
        45.4004         33.1004
 124659423.21647  97137176.54144  23721885.4304   23721891.1374
        44.9004         29.0004
 111975921.23048  87254039.97346  21308319.5314   21308323.5554
        49.7004         38.4004
 113744038.52348  88631766.51946  21644758.2814   21644762.7664
        48.0004         36.8004
 10  5 10  0 50 30.0000000  0 11G03G28G19G24G11G16G07G23G08G13G06
 107504011.36748  83769417.66046  20457319.9924   20457324.3134
        50.8004         40.9004
 131898916.03846 102778436.15843  25099537.4224   25099543.6524
        37.2004         19.0004
 107327277.69848  83631788.87047  20423711.8914   20423714.1844
        48.7004         43.3004
 130012130.68046 101308188.32543  24740485.0474   24740491.6564
        39.2004         19.0004
 132250930.29646 103052734.07442  25166523.1484   25166531.0664
        36.8004         17.4004
 127914738.07246  99673897.07843  24341362.0164   24341367.5824
        40.0004         21.5004
 109934578.28848  85663283.94646  20919834.1644   20919837.7934
        49.5004         41.4004
 118508691.54647  92344446.56345  22551452.3444   22551455.9924
        47.2004         33.2004
 124560340.19047  97059969.02144  23703030.7664   23703036.0124
        44.1004         28.2004
 112047153.40848  87309545.53546  21321874.5554   21321878.5824
        49.7004         38.2004
 113810229.10948  88683343.59346  21657353.5234   21657358.3984
        48.1004         36.8004
 10  5 10  0 51  0.0000000  0 11G03G28G19G24G11G16G07G23G08G13G06
 107551787.25048  83806645.62346  20466411.4844   20466415.7274
        51.7004         41.1004
 131822069.11646 102718555.45643  25084914.4144   25084919.8794
        38.4004         18.6004
 107307111.06148  83616074.62247  20419874.0394   20419876.7544
        49.1004         43.6004
 130034559.59246 101325665.38643  24744754.0704   24744760.1764
        38.1004         18.6004
 132147348.01946 102972020.77342  25146812.8134   25146819.4774
        38.3004         16.9004
 128002664.23347  99742410.96043  24358094.0784   24358099.9964
        42.1004         22.8004
 109877210.52748  85618581.81346  20908917.2734   20908921.2234
        50.2004         41.4004
 118612954.63247  92425690.43245  22571292.9694   22571296.8634
        45.1004         32.1004
 124461287.28447  96982784.98344  23684180.7894   23684186.6374
        43.4004         28.7004
 112118874.86048  87365432.35446  21335522.3524   21335526.7304
        49.5004         38.4004
 113876806.98747  88735222.45046  21670023.0864   21670027.8954
        47.0004         37.1004
 10  5 10  0 51 30.0000000  0 11G03G28G19G24G11G16G07G23G08G13G06
 107600095.52448  83844288.43046  20475603.6564   20475608.2034
        50.9004         40.8004
 131745300.91846 102658736.06543  25070306.4144   25070311.1954
        37.1004         19.0004
 107287546.68048  83600829.65547  20416151.2814   20416153.3324
        48.8004         43.6004
 130057505.00946 101343544.94943  24749120.3524   24749126.5434
        40.5004         21.3004
 132043641.91246 102891210.97343  25127078.0944   25127085.5514
        37.9004         18.3004
 128090588.35146  99810923.22443  24374825.5394   24374832.1024
        40.3004         23.4004
 109820162.59148  85574128.89346  20898061.3204   20898065.1484
        50.3004         41.5004
 118717458.50947  92507121.98845  22591179.3674   22591182.7304
        45.3004         32.4004
 124362265.35647  96905625.05644  23665338.1804   23665343.4924
        42.5004         29.4004
 112191082.65848  87421698.13046  21349263.2814   21349267.5554
        48.0004         37.9004
 113943769.92947  88787401.36246  21682765.5554   21682769.8244
        47.8004         36.9004
 10  5 10  0 52  0.0000000  0 11G03G28G19G24G11G16G07G23G08G13G06
 107648933.94048  83882344.34646  20484897.6174   20484901.9414
        52.3004         40.9004
 131668611.22746 102598977.99243  25055713.5394   25055718.0784
        37.4004         19.9004
 107268585.13048  83586054.43347  20412542.8134   20412545.4774
        49.0004         43.6004
 130080966.82446 101361826.90243  24753585.3444   24753591.9884
        41.5004         22.6004
 131939814.53046 102810306.62442  25107320.9924   25107327.1334
        38.7004         17.4004
 128178510.03947  99879433.61444  24391557.3134   24391562.2854
        43.9004         25.3004
 109763436.57848  85529926.83046  20887266.6564   20887270.4774
        50.0004         41.6004
 118822199.93647  92588738.60545  22611111.6484   22611114.9144
        45.8004         32.8004
 124263276.53747  96828490.95844  23646500.7274   23646506.5084
        42.5004         29.7004
 112263774.26548  87478340.90846  21363096.3134   21363100.9414
        48.8004         37.5004
 114011114.83748  88839877.89846  21695580.9454   21695585.4534
        48.5004         36.8004
 10  5 10  0 52 30.0000000  0 11G03G28G19G24G11G16G07G23G08G13G06
 107698300.79848  83920812.02446  20494291.9774   20494296.5084
        52.1004         40.4004
 131592000.55546 102539281.37643  25041135.1804   25041138.9654
        39.2004         20.9004
 107250226.99147  83571749.41147  20409049.7194   20409052.0784
        47.6004         43.7004
 130104944.81546 101380511.06143  24758147.2664   24758154.1334
        41.7004         20.6004
 131835868.42946 102729309.80943  25087539.9304   25087546.6724
        38.6004         18.3004
 128266428.54547  99947941.54244  24408287.2814   24408291.5394
        43.9004         24.5004
 109707034.60848  85485977.26846  20876533.9694   20876537.8054
        50.3004         41.0004
 118927175.88147  92670537.98245  22631087.7734   22631090.5904
        46.1004         32.3004
 124164322.10747  96751383.63944  23627670.9694   23627676.2424
        42.2004         29.7004
 112336947.21848  87535358.76346  21377020.9384   21377025.0084
        49.8004         37.7004
 114078840.07547  88892650.80945  21708468.8364   21708473.4224
        47.9004         35.9004
 10  5 10  0 53  0.0000000  0 11G03G28G19G24G11G16G07G23G08G13G06
 107748194.04248  83959689.88946  20503786.4454   20503790.3524
        51.9004         40.6004
 131515468.87245 102479646.33343  25026570.6334   25026575.7194
        35.6004         18.3004
 107232472.10548  83557914.45847  20405671.0704   20405672.9104
        48.9004         43.2004
 130129438.37346 101399596.96543  24762808.8054   24762814.9384
        40.8004         20.4004
 131731806.08146 102648222.38442  25067737.0944   25067744.3134
        39.4004         17.8004
 128354343.60347 100016446.78443  24425017.0784   24425020.4264
        44.3004         23.0004
 109650958.45648  85442281.57346  20865863.1484   20865866.6054
        50.6004         40.7004
 119032383.29547  92752517.73645  22651108.3054   22651111.1564
        47.2004         32.8004
 124065403.95147  96674304.58244  23608846.9064   23608853.0084
        43.3004         29.5004
 112410599.23848  87592749.91746  21391036.1254   21391039.8164
        49.6004         38.1004
 114146943.52448  88945718.43445  21721428.1884   21721432.8484
        48.8004         35.9004
 10  5 10  0 53 30.0000000  0 11G03G28G19G24G11G16G07G23G08G13G06
 107798611.48148  83998976.20346  20513380.6174   20513384.8594
        53.0004         40.6004
 131439016.51645 102420073.08642  25012022.0944   25012026.8984
        35.2004         17.4004
 107215321.27848  83544550.18247  20402407.2584   20402409.5164
        48.6004         43.5004
 130154447.13746 101419084.30843  24767568.8984   24767573.7624
        41.4004         21.5004
 131627630.14146 102567046.45442  25047913.9064   25047919.7194
        40.9004         16.9004
 128442254.75447 100084948.92443  24441746.2424   24441749.4184
        45.3004         23.4004
 109595210.78848  85398841.84446  20855254.3204   20855257.9064
        49.9004         40.8004
 119137819.29247  92834675.58445  22671171.9534   22671175.1294
        46.6004         32.7004
 123966523.99647  96597255.31444  23590029.9694   23590036.6954
        43.9004         28.4004
 112484727.87348  87650512.46146  21405142.1094   21405146.6024
        50.3004         37.1004
 114215423.09648  88999079.13445  21734460.0164   21734464.2274
        48.7004         35.5004
 10  5 10  0 54  0.0000000  0 11G03G28G19G24G11G16G07G23G08G13G06
 107849551.49348  84038669.72446  20523073.6724   20523077.8874
        52.0004         40.8004
 131362643.96746 102360562.07343  24997488.6254   24997494.0704
        36.8004         18.3004
 107198774.90648  83531656.92647  20399258.4694   20399260.7384
        49.1004         43.3004
 130179970.99746 101438973.01043  24772424.3984   24772431.5594
        41.9004         22.8004
 131523343.46746 102485784.26643  25028068.6804   25028074.8634
        41.3004         19.3004
 128530161.76047 100153447.83744  24458474.4144   24458477.7814
        45.6004         25.2004
 109539793.72948  85355659.73746  20844708.8364   20844712.4924
        49.9004         41.1004
 119243480.98247  92917009.34845  22691278.4774   22691281.1954
        47.6004         32.0004
 123867684.20147  96520237.33444  23571221.4144   23571227.9264
        44.1004         29.3004
 112559330.26548  87708644.16146  21419338.9694   21419342.9494
        50.6004         37.7004
 114284276.48948  89052731.11645  21747562.2814   21747566.5394
        48.8004         35.4004
 10  5 10  0 54 30.0000000  0 11G03G28G19G24G11G16G07G23G08G13G06
 107901011.52148  84078768.45046  20532866.4304   20532870.7034
        52.1004         40.5004
 131286350.95246 102301113.04243  24982970.6334   24982976.1414
        37.2004         18.6004
 107182832.58848  83519234.35047  20396224.7584   20396227.0164
        49.5004         44.1004
 130206008.95746 101459262.35243  24777379.5314   24777385.7424
        41.3004         22.5004
 131418947.42546 102404436.74842  25008202.6804   25008208.7894
        40.3004         17.4004
 128618063.82547 100221942.89144  24475202.5474   24475206.0434
        45.8004         25.5004
 109484709.09748  85312736.66146  20834226.6174   20834230.2774
        50.5004         40.9004
 119349364.76547  92999516.15645  22711427.8524   22711430.3054
        46.0004         31.9004
 123768885.84747  96443251.61844  23552421.3444   23552426.9144
        43.9004         29.3004
 112634403.77648  87767142.97046  21433625.0704   21433628.8054
        50.6004         38.5004
 114353501.46848  89106672.65546  21760735.0314   21760739.6994
        48.9004         36.0004
 10  5 10  0 55  0.0000000  0 11G03G28G19G24G11G16G07G23G08G13G06
 107952988.53148  84119270.02246  20542757.2974   20542761.1604
        52.1004         40.5004
 131210136.75446 102241725.36743  24968466.4224   24968472.6484
        37.5004         19.3004
 107167493.86548  83507282.11947  20393305.8054   20393308.1134
        49.3004         43.4004
 130232560.29046 101479951.70643  24782432.4064   24782437.9344
        41.9004         22.0004
 131314444.32246 102323005.79743  24988316.1254   24988322.2384
        38.8004         19.0004
 128705959.34547 100290432.87743  24491927.8134   24491932.6454
        44.0004         22.9004
 109429957.69448  85270073.25646  20823807.6334   20823812.0044
        49.8004         41.6004
 119455467.11047  93082193.24445  22731618.0944   22731621.3754
        47.9004         32.9004
 123670129.72447  96366298.80444  23533629.1644   23533634.1484
        43.7004         28.5004
 112709945.04848  87826006.27146  21448000.0004   21448003.9414
        51.5004         38.5004
 114423094.46148  89160900.94545  21773978.0784   21773982.6054
        48.2004         35.2004
 10  5 10  0 55 30.0000000  0 11G03G28G19G24G11G16G07G23G08G13G06
 108005480.33248  84160172.72346  20552746.1174   20552750.1254
        51.6004         40.5004
 131134001.40046 102182399.19043  24953978.0864   24953985.2034
        37.7004         20.6004
 107152758.75248  83495800.22347  20390502.0634   20390504.2544
        49.5004         43.6004
 130259624.42947 101501040.65143  24787582.3284   24787588.0824
        42.3004         22.6004
 131209836.75145 102241493.56242  24968408.3834   24968416.1414
        35.8004         17.4004
 128793848.05047 100358917.59543  24508652.4844   24508657.9694
        43.1004         22.8004
 109375542.00848  85227671.43946  20813452.7344   20813456.7894
        51.1004         41.6004
 119561784.81547  93165038.16145  22751850.0084   22751853.3594
        46.9004         32.3004
 123571417.47847  96289380.18645  23514844.6414   23514849.9064
        43.3004         30.2004
 112785951.58448  87885232.11546  21462463.5394   21462467.8054
        50.5004         38.7004
 114493053.84848  89215414.74945  21787291.2034   21787295.3284
        48.9004         34.7004
 10  5 10  0 56  0.0000000  0 11G03G28G19G24G11G16G07G23G08G13G06
 108058485.47648  84201475.43146  20562832.4144   20562836.8164
        51.4004         40.3004
 131057945.60746 102123134.98443  24939505.4144   24939511.6994
        39.6004         19.9004
 107138627.97748  83484789.23747  20387812.9144   20387815.3984
        49.8004         43.4004
 130287201.15846 101522529.04543  24792829.7974   24792836.3324
        40.8004         23.2004
 131105127.98645 102159902.50542  24948483.7664   24948490.9494
        33.8004         15.6004
 128881730.06847 100427397.11743  24525375.8444   24525381.0634
        44.1004         22.8004
 109321464.67648  85185533.26946  20803162.4304   20803165.9694
        50.4004         41.6004
 119668315.65547  93248049.15545  22772122.3364   22772125.4654
        46.2004         31.6004
 123472752.03747  96212498.04444  23496068.5554   23496074.3674
        42.3004         29.7004
 112862421.27448  87944818.84246  21477015.4064   21477019.4414
        51.1004         38.3004
 114563377.40348  89270212.32545  21800673.3524   21800677.1884
        48.4004         34.4004
 10  5 10  0 56 30.0000000  0 11G03G28G19G24G11G16G07G23G08G13G06
 108112001.58848  84243176.29146  20573016.2344   20573020.8134
        51.7004         40.3004
 130981969.45646 102063932.74843  24925049.1954   24925053.5824
        40.7004         20.1004
 107125101.27248  83474248.96347  20385238.7194   20385240.8404
        50.3004         43.9004
 130315289.75446 101544416.24643  24798175.0634   24798181.7854
        40.8004         23.0004
 131000319.83645 102078233.98142  24928538.9144   24928547.1804
        35.0004         17.4004
 128969604.65847 100495870.79243  24542097.3754   24542101.9924
        44.1004         21.7004
 109267727.61048  85143660.24646  20792936.1414   20792939.5044
        50.7004         41.7004
 119775056.11647  93331223.46645  22792433.8134   22792437.9924
        46.1004         31.4004
 123374134.57047  96135653.26944  23477302.7734   23477308.2424
        43.3004         29.6004
 112939350.99948  88004764.04846  21491654.6254   21491658.5434
        51.4004         38.4004
 114634063.07848  89325292.05445  21814124.3204   21814128.7464
        48.2004         35.4004
 10  5 10  0 57  0.0000000  0 11G03G28G19G24G11G16G07G23G08G13G06
 108166027.17348  84285274.14846  20583297.0234   20583301.6454
        51.4004         40.4004
 130906073.35646 102004792.97743  24910605.4534   24910611.7664
        38.1004         22.2004
 107112179.34348  83464179.94147  20382780.2344   20382782.1884
        49.5004         43.3004
 130343890.18146 101566702.30543  24803617.4924   24803624.1254
        41.9004         22.6004
 130895415.16746 101996490.19643  24908576.9224   24908584.1564
        37.7004         18.3004
 129057471.94747 100564338.75743  24558818.4064   24558821.4414
        44.4004         21.8004
 109214333.17348  85102054.20546  20782775.6724   20782779.3754
        50.6004         41.3004
 119882003.55947  93414559.05145  22812785.3444   22812789.2704
        46.6004         31.6004
 123275567.18647  96058847.53844  23458545.5704   23458551.4884
        43.2004         28.3004
 113016738.92548  88065066.29446  21506380.6884   21506384.9024
        50.2004         37.6004
 114705109.08648  89380652.59245  21827643.7274   21827648.6094
        48.5004         34.9004
 10  5 10  0 57 30.0000000  0 11G03G28G19G24G11G16G07G23G08G13G06
 108220558.96548  84327766.45246  20593673.9534   20593677.8014
        51.5004         40.2004
 130830256.33046 101945714.85543  24896177.5634   24896184.0824
        39.8004         20.4004
 107099861.43148  83454581.58447  20380435.6804   20380438.0594
        49.3004         43.3004
 130373001.06247 101589386.10543  24809157.3594   24809163.3874
        42.6004         22.2004
 130790416.12245 101914672.88843  24888596.0784   24888603.5704
        35.4004         19.9004
 129145330.58947 100632799.98843  24575536.9384   24575540.6174
        42.9004         22.0004
 109161282.56248  85060716.07246  20772680.3204   20772684.1684
        50.6004         41.0004
 119989154.36847  93498053.15345  22833175.4224   22833179.9344
        46.5004         31.7004
 123177051.43047  95982082.02444  23439798.7974   23439804.6914
        42.9004         28.4004
 113094581.48848  88125722.80546  21521193.6094   21521198.4304
        50.0004         37.6004
 114776511.97848  89436291.19545  21841231.4384   21841235.8524
        49.1004         35.5004
 10  5 10  0 58  0.0000000  0 11G03G28G19G24G11G16G07G23G08G13G06
 108275595.27748  84370651.88646  20604147.3834   20604151.1954
        51.5004         40.5004
 130754518.62646 101886698.45343  24881765.8284   24881771.3834
        40.9004         21.1004
 107088147.69948  83445454.00847  20378207.1884   20378209.1764
        49.6004         43.5004
 130402622.12347 101612467.49643  24814793.6024   24814799.6174
        42.7004         21.1004
 130685325.11746 101832783.91243  24868597.1564   24868604.7974
        36.6004         19.0004
 129233180.26146 100701254.25043  24592254.8444   24592257.4304
        40.7004         21.3004
 109108578.37348  85019647.88946  20762651.4144   20762654.7384
        50.3004         41.4004
 120096505.35047  93581703.21045  22853603.9064   22853608.0204
        45.9004         32.7004
 123078589.09247  95905358.13644  23421062.6174   23421068.0784
        42.8004         28.1004
 113172876.22748  88186731.65346  21536092.6094   21536097.4654
        49.6004         37.7004
 114848269.75448  89492206.34245  21854886.7504   21854891.2194
        48.5004         35.7004
 10  5 10  0 58 30.0000000  0 11G03G28G19G24G11G16G07G23G08G13G06
 108331132.55348  84413927.68746  20614715.7194   20614719.6484
        51.0004         40.9004
 130678860.64946 101827744.21543  24867368.5234   24867373.8094
        39.5004         21.7004
 107077037.37848  83436796.63947  20376092.4064   20376094.6524
        50.3004         44.1004
 130432751.86446 101635945.25043  24820526.9774   24820533.3014
        41.4004         19.6004
 130580144.36346 101750825.02443  24848582.6024   24848589.7234
        39.6004         20.4004
 129321019.73546 100769700.58043  24608969.7274   24608973.5354
        40.2004         22.3004
 109056221.85448  84978850.62746  20752687.8054   20752691.7344
        50.8004         41.2004
 120204052.46447  93665506.12545  22874069.8524   22874073.6414
        46.6004         33.1004
 122980181.07747  95828676.58044  23402335.9224   23402341.3554
        42.3004         28.2004
 113251619.67848  88248090.13746  21551077.2664   21551081.8204
        49.5004         37.5004
 114920379.57848  89548395.81345  21868608.0704   21868613.0984
        48.5004         35.4004
 10  5 10  0 59  0.0000000  0 11G03G28G19G24G11G16G07G23G08G13G06
 108387169.50748  84457592.83646  20625379.0864   20625383.4734
        51.4004         40.5004
 130603282.40946 101768852.09643  24852986.7664   24852992.7894
        40.5004         21.1004
 107066530.94748  83428609.81847  20374093.1414   20374095.4844
        49.6004         43.3004
 130463390.18947 101659819.26243  24826357.8674   24826364.3914
        42.3004         20.1004
 130474876.56047 101668798.25843  24828550.7894   24828557.5164
        42.2004         21.1004
 129408849.21046 100838139.09943  24625683.5634   24625687.8054
        41.9004         22.6004
 109004215.44948  84938326.16447  20742791.5944   20742795.1954
        50.7004         42.1004
 120311793.66047  93749460.24745  22894572.1884   22894576.2894
        45.3004         32.4004
 122881829.26247  95752038.82744  23383620.2894   23383625.3554
        42.9004         28.4004
 113330809.33448  88309796.32846  21566146.3984   21566150.8674
        48.0004         37.2004
 114992839.71048  89604858.24545  21882397.1954   21882401.4964
        49.0004         35.0004
 10  5 10  0 59 30.0000000  0 11G03G28G19G24G11G16G07G23G08G13G06
 108443704.01548  84501645.69746  20636136.8834   20636141.7154
        51.1004         40.2004
 130527784.17646 101710022.35143  24838619.7194   24838625.5354
        40.5004         22.0004
 107056628.77148  83420893.84747  20372209.2734   20372210.9144
        49.9004         44.2004
 130494536.99247 101684089.52043  24832284.0164   24832291.7114
        42.3004         21.1004
 130369524.94647 101586706.15143  24808503.3754   24808508.4804
        42.7004         20.6004
 129496668.64146 100906569.83843  24642394.2274   24642400.1414
        41.7004         22.6004
 108952561.63548  84898076.44846  20732962.4224   20732965.7034
        50.8004         41.6004
 120419726.23747  93833563.50145  22915111.0864   22915114.7274
        46.6004         31.4004
 122783536.48847  95675447.05244  23364915.4384   23364921.1214
        42.8004         28.5004
 113410442.99748  88371848.49346  21581300.0084   21581304.8524
        49.5004         36.9004
 115065648.29248  89661592.20745  21896252.1094   21896257.0354
        48.5004         35.2004
                            4  1
RINEX FILE SPLICE; other post-header comments skipped       COMMENT
 10  5 10  1  0  0.0000000  0 11G03G28G19G24G11G16G07G23G08G13G06
 108500733.60648  84546084.33346  20646989.3834   20646993.8204
        50.4004         40.1004
 130452365.27846 101651254.40843  24824268.0234   24824274.0514
        41.7004         22.3004
 107047330.18148  83413648.20347  20370439.3914   20370441.5784
        49.5004         43.5004
 130526191.13647 101708755.06143  24838308.1484   24838315.2504
        43.3004         22.5004
 130264091.20246 101504550.06743  24788439.1564   24788445.6214
        41.3004         19.0004
 129584477.25246 100974992.10543  24659104.6254   24659110.0664
        41.6004         21.8004
 108901262.10348  84858102.79946  20723200.2424   20723203.9694
        51.2004         41.4004
 120527846.64447  93917813.12945  22935685.8754   22935688.6454
        46.6004         32.3004
 122685304.00847  95598902.27244  23346222.1024   23346228.0394
        42.7004         27.4004
 113490517.69148  88434244.32346  21596538.1564   21596542.4144
        48.7004         36.8004
 115138802.10948  89718595.17245  21910172.8914   21910177.0554
        49.2004         35.8004
 10  5 10  1  0 30.0000000  0 11G03G28G19G24G11G16G07G23G08G13G06
 108558255.81148  84590906.82846  20657936.0704   20657940.3874
        50.5004         40.5004
 130377026.56546 101592548.95143  24809931.5474   24809937.2234
        40.4004         20.9004
 107038635.27248  83406872.96647  20368784.5634   20368786.6914
        49.2004         43.4004
 130558351.71347 101733815.31243  24844427.8204   24844434.4224
        43.2004         22.9004
 130158578.20146 101422332.27743  24768360.4454   24768367.3134
        41.3004         19.0004
 129672274.27446 101043405.31543  24675810.8364   24675816.4344
        41.6004         20.4004
 108850318.80448  84818406.74846  20713505.7814   20713509.4384
        51.3004         41.5004
 120636151.15847  94002206.21945  22956295.8914   22956298.7814
        46.6004         31.6004
 122587133.56547  95522405.84344  23327541.1644   23327547.4534
        43.9004         27.6004
 113571030.71848  88496981.71346  21611859.3054   21611863.8164
        49.9004         37.5004
 115212299.39648  89775865.78345  21924158.9144   21924163.4804
        49.0004         35.2004
 10  5 10  1  1  0.0000000  0 11G03G28G19G24G11G16G07G23G08G13G06
 108616268.65548  84636111.63646  20668975.0474   20668979.8794
        51.6004         40.2004
 130301768.11846 101533906.08243  24795609.3594   24795616.0204
        39.3004         19.9004
 107030543.78048  83400567.91947  20367244.9774   20367247.2074
        49.0004         43.7004
 130591018.20747 101759269.74643  24850643.7664   24850650.2854
        43.2004         21.3004
 130052988.72447 101340054.76543  24748267.7194   24748274.1294
        42.0004         19.3004
 129760059.49946 101111809.39843  24692516.5634   24692520.9774
        39.3004         19.3004
 108799734.02448  84778990.04546  20703880.0944   20703883.6994
        51.2004         41.8004
 120744637.74047  94086741.17445  22976939.4614   22976942.7664
        45.7004         30.9004
 122489027.17047  95445959.31344  23308872.2424   23308878.2034
        43.4004         28.2004
 113651979.05248  88560058.30246  21627262.9774   21627267.3054
        49.2004         36.4004
 115286138.09848  89833402.42845  21938210.5634   21938214.6954
        48.7004         35.2004
 10  5 10  1  1 30.0000000  0 11G03G28G19G24G11G16G07G23G08G13G06
 108674768.80648  84681696.16246  20680107.3364   20680112.3054
        50.6004         40.4004
 130226588.74146 101475324.80343  24781304.8914   24781309.8594
        40.7004         21.3004
 107023054.62048  83394732.21347  20365820.2974   20365822.0314
        49.0004         42.9004
 130624189.00447 101785117.12043  24856956.5474   24856962.0594
        43.8004         20.4004
 129947324.34746 101257718.99443  24728160.6334   24728167.0234
        41.9004         20.4004
 129847831.77046 101180203.35943  24709218.6094   24709223.3284
        37.1004         18.6004
 108749508.92248  84739853.61546  20694322.4844   20694325.9734
        50.9004         41.7004
 120853302.20947  94171414.74245  22997618.2504   22997621.3674
        45.9004         30.5004
 122390986.20947  95369563.78544  23290215.4924   23290221.0704
        42.8004         27.9004
 113733359.10448  88623471.29646  21642749.3204   21642753.6334
        49.8004         37.1004
 115360314.70048  89891202.38245  21952325.2664   21952329.4184
        48.9004         35.8004
 10  5 10  1  2  0.0000000  0 11G03G28G19G24G11G16G07G23G08G13G06
 108733754.54248  84727659.06046  20691331.9844   20691336.6414
        51.3004         40.1004
 130151489.57046 101416806.03443  24767013.2814   24767018.5004
        39.7004         18.3004
 107016168.57147  83389366.49447  20364510.0084   20364511.8054
        47.3004         43.0004
 130657864.00847 101811357.39943  24863364.8754   24863370.5784
        43.0004         20.1004
 129841588.54046 101175327.53043  24708039.5634   24708045.8364
        40.3004         19.0004
 129935591.37946 101248587.39442  24725917.3054   24725922.8324
        36.1004         17.4004
 108699646.19048  84700999.55347  20684833.9924   20684837.4064
        50.6004         42.3004
 120962142.07447  94256224.97845  23018328.9454   23018333.4774
        44.5004         30.4004
 122293012.87847  95293220.95544  23271572.0864   23271577.3914
        43.5004         27.8004
 113815168.96648  88687219.19246  21658317.6414   21658321.8014
        50.3004         37.1004
 115434827.74448  89949264.49646  21966504.6644   21966509.0824
        49.0004         36.3004
 10  5 10  1  2 30.0000000  0 11G03G28G19G24G11G16G07G23G08G13G06
 108793223.40048  84773998.42446  20702648.8674   20702653.4304
        50.8004         40.0004
 130076470.12746 101358349.37343  24752737.7894   24752742.9734
        41.1004         22.3004
 107009884.74147  83384470.03147  20363313.6954   20363316.1214
        47.3004         43.2004
 130692041.89746 101837989.54943  24869868.4924   24869875.7464
        41.6004         19.3004
 129735783.27446 101092882.01043  24687905.1334   24687911.3324
        38.6004         18.3004
 130023337.01146 101316960.58143  24742616.5084   24742620.6724
        36.8004         19.0004
 108650147.49648  84662429.15347  20675414.5474   20675417.6884
        51.0004         42.2004
 121071153.85547  94341169.14644  23039073.7584   23039077.8014
        44.5004         29.9004
 122195108.56447  95216931.91844  23252941.5084   23252947.1214
        42.8004         29.5004
 113897405.58348  88751299.64546  21673966.6174   21673970.8554
        49.9004         37.5004
 115509674.45448  90007586.59445  21980747.7584   21980751.7894
        49.1004         35.9004
 10  5 10  1  3  0.0000000  0 11G03G28G19G24G11G16G07G23G08G13G06
 108853173.13148  84820712.50246  20714056.6564   20714061.0554
        51.9004         39.9004
 130001531.03346 101299955.32343  24738476.5864   24738481.8404
        40.8004         21.1004
 107004203.13348  83380042.81447  20362232.4614   20362234.4454
        48.8004         42.9004
 130726722.21247 101865013.15242  24876467.8134   24876474.6684
        42.4004         17.4004
 129629911.36745 101010384.57842  24667757.6484   24667765.0394
        35.2004         16.3004
 130111069.04046 101385323.15342  24759311.2894   24759316.0634
        38.0004         17.8004
 108601015.13348  84624144.21647  20666065.0394   20666068.2704
        51.2004         42.6004
 121180334.73147  94426245.10944  23059849.8284   23059854.0784
        44.9004         29.7004
 122097275.72947  95140698.57544  23234324.0164   23234330.2274
        43.2004         29.9004
 113980065.97848  88815710.31846  21689695.8444   21689700.7304
        49.9004         36.5004
 115584852.87848  90066167.19546  21995053.7974   21995057.6094
        48.6004         36.1004
 10  5 10  1  3 30.0000000  0 11G03G28G19G24G11G16G07G23G08G13G06
 108913601.86148  84867799.82446  20725555.7114   20725560.1294
        50.8004         39.6004
 129926671.98947 101241623.62043  24724231.7894   24724237.1054
        42.5004         20.6004
 106999124.01848  83376085.07547  20361266.0314   20361268.4264
        49.4004         43.4004
 130761904.40847 101892427.85843  24883162.9924   24883168.7154
        43.4004         18.6004
 129523975.95446 100927837.68542  24647598.8524   24647606.2464
        37.0004         16.9004
 130198787.41046 101453675.11343  24776003.5474   24776008.6334
        36.8004         18.3004
 108552251.81448  84586146.83547  20656785.9304   20656789.5634
        51.1004         42.6004
 121289681.90747  94511450.63844  23080658.5004   23080662.1414
        44.9004         29.9004
 121999516.44747  95064522.53045  23215721.7814   23215727.3404
        43.5004         31.0004
 114063147.79648  88880449.35946  21705506.1804   21705510.8324
        49.3004         36.5004
 115660360.98048  90125004.66845  22009422.0944   22009426.6524
        49.1004         35.5004
 10  5 10  1  4  0.0000000  0 11G03G28G19G24G11G16G07G23G08G13G06
 108974506.28548  84915257.80546  20737145.6334   20737150.1724
        51.0004         39.4004
 129851892.62246 101183354.01343  24710002.6564   24710006.9844
        40.5004         21.8004
 106994645.99848  83372595.71647  20360413.8754   20360415.9184
        49.5004         43.5004
 130797587.02347 101920232.59543  24889952.6174   24889958.5234
        43.2004         19.0004
 129417978.87845 100845242.76742  24627428.0234   24627435.7074
        35.5004         16.9004
 130286490.73046 101522015.37442  24792692.4774   24792698.3284
        36.3004         17.8004
 108503858.04048  84548437.41347  20647576.5944   20647580.5124
        51.4004         42.7004
 121399191.53047  94596782.76245  23101497.5634   23101501.0474
        46.8004         30.3004
 121901831.34647  94988404.30045  23197132.3674   23197138.3404
        44.3004         30.5004
 114146647.28648  88945513.85146  21721395.8134   21721400.3524
        49.5004         36.9004
 115736195.26448  90184096.31545  22023852.7504   22023857.3134
        48.9004         35.3004
 10  5 10  1  4 30.0000000  0 11G03G28G19G24G11G16G07G23G08G13G06
 109035884.77948  84963085.20946  20748825.6024   20748830.1724
        50.7004         40.3004
 129777193.84346 101125147.20843  24695787.3524   24695791.8094
        41.8004         21.8004
 106990769.64048  83369575.20247  20359676.0864   20359677.9694
        49.7004         44.1004
 130833769.78847 101948426.97443  24896838.6804   24896844.7384
        43.9004         21.5004
 129311923.41746 100762602.31842  24607246.5164   24607253.3094
        37.1004         16.9004
 130374179.41846 101590344.24543  24809379.8674   24809384.3134
        38.0004         18.6004
 108455837.04148  84511018.47547  20638438.7194   20638442.3094
        50.7004         42.7004
 121508861.22347  94682239.61345  23122367.1884   23122370.5354
        46.1004         30.4004
 121804223.60447  94912346.35445  23178558.7194   23178564.0594
        44.5004         31.6004
 114230562.56048  89010902.33146  21737364.0474   21737368.5864
        49.3004         36.2004
 115812354.85447  90243441.45045  22038345.5864   22038349.9384
        47.9004         35.4004
 10  5 10  1  5  0.0000000  0 11G03G28G19G24G11G16G07G23G08G13G06
 109097733.85348  85011279.28846  20760595.1804   20760599.6374
        51.2004         40.8004
 129702574.39546 101067002.23043  24681587.3284   24681592.4534
        41.6004         22.2004
 106987493.60748  83367022.45347  20359052.8914   20359054.9454
        49.3004         43.8004
 130870450.57947 101977009.37643  24903818.6024   24903825.2584
        43.9004         22.5004
 129205810.78146 100679917.36943  24587053.3284   24587060.5984
        41.5004         21.3004
 130461851.67546 101658660.21243  24826063.1884   24826066.7074
        39.5004         19.6004
 108408189.62448  84473890.63547  20629371.4774   20629375.3134
        50.0004         42.5004
 121618686.68947  94767817.85445  23143265.9144   23143269.6254
        46.1004         30.5004
 121706693.92447  94836349.23345  23159999.0164   23160004.5314
        45.8004         32.1004
 114314889.55548  89076611.63046  21753410.7894   21753415.3134
        48.3004         36.0004
 115888835.98248  90303037.13345  22052899.5704   22052904.1214
        48.6004         35.7004
 10  5 10  1  5 30.0000000  0 11G03G28G19G24G11G16G07G23G08G13G06
 109160052.51648  85059839.29346  20772454.0004   20772458.2114
        50.7004         40.0004
 129628036.23246 101008920.55343  24667403.3284   24667408.0554
        40.4004         21.8004
 106984818.34748  83364937.84547  20358543.7734   20358545.9494
        49.1004         43.6004
 130907629.63147 102005980.10244  24910893.3914   24910900.8364
        45.9004         24.4004
 129099645.13847 100597191.09044  24566851.8134   24566858.1484
        43.0004         24.2004
 130549508.40346 101726964.15043  24842744.1094   24842747.2504
        38.4004         21.8004
 108360918.88748  84437056.31847  20620376.2734   20620380.0664
        49.7004         42.0004
 121728666.18147  94853516.12145  23164194.5314   23164197.5274
        45.9004         31.0004
 121609245.55947  94760415.47745  23141455.1254   23141460.7854
        46.1004         31.8004
 114399626.37748  89142640.28846  21769536.0634   21769540.5124
        48.5004         36.9004
 115965637.26547  90362882.27745  22067514.4454   22067518.9694
        47.1004         35.4004
 10  5 10  1  6  0.0000000  0 11G03G28G19G24G11G16G07G23G08G13G06
 109222837.65548  85108762.78246  20784401.7344   20784405.8984
        51.6004         40.0004
 129553577.74746 100950900.98743  24653234.0554   24653239.5164
        40.4004         22.2004
 106982742.80848  83363320.54447  20358148.8134   20358150.9344
        48.7004         43.5004
 130945305.13247 102035337.60043  24918062.5554   24918069.7274
        44.9004         22.8004
 128993428.43147 100514425.04344  24546638.8984   24546645.0944
        43.5004         24.4004
 130637148.60946 101795255.15743  24859420.7814   24859424.6804
        41.8004         22.3004
 108314025.98048  84400516.41647  20611452.8674   20611456.2974
        50.2004         43.0004
 121838795.77447  94939331.34745  23185151.3134   23185155.2344
        46.5004         30.4004
 121511879.49647  94684545.85945  23122927.2194   23122932.4734
        44.9004         31.9004
 114484769.54247  89208985.57146  21785738.0784   21785742.8484
        47.9004         36.6004
 116042755.83747  90422974.66345  22082189.6174   22082194.2504
        47.1004         35.1004
 10  5 10  1  6 30.0000000  0 11G03G28G19G24G11G16G07G23G08G13G06
 109286085.62348  85158046.91446  20796437.3364   20796441.5084
        51.7004         39.7004
 129479198.20646 100892942.95043  24639080.3444   24639085.2854
        41.2004         22.8004
 106981265.68548  83362169.55947  20357867.7424   20357869.6334
        49.7004         43.4004
 130983475.44747 102065080.73043  24925326.5084   24925332.8714
        44.5004         22.6004
 128887162.34147 100431620.51144  24526416.9614   24526423.5704
        43.3004         25.6004
 130724770.97246 101863532.31843  24876095.4304   24876099.4884
        41.3004         22.9004
 108267512.45748  84364272.12347  20602601.5164   20602605.3164
        49.5004         42.2004
 121949071.83747  95025260.65745  23206136.2034   23206140.6094
        44.8004         30.1004
 121414596.82747  94608741.22045  23104414.8674   23104420.0314
        46.5004         32.1004
 114570315.13648  89275644.42146  21802017.1644   21802021.6414
        49.2004         36.0004
 116120188.61647  90483311.89145  22096924.7584   22096929.1174
        47.2004         35.5004
 10  5 10  1  7  0.0000000  0 11G03G28G19G24G11G16G07G23G08G13G06
 109349795.54748  85207691.00546  20808561.4064   20808565.5044
        50.8004         39.6004
 129404899.30247 100835047.73943  24624941.0004   24624946.6174
        42.4004         23.9004
 106980387.89948  83361485.58347  20357700.4844   20357702.6914
        48.1004         43.9004
 131022141.02947 102095209.73943  24932684.1484   24932690.4534
        44.2004         22.8004
 128780850.76147 100348780.52643  24506186.0704   24506192.9774
        42.8004         22.6004
 130812376.42746 101931796.25343  24892765.6174   24892771.0434
        40.4004         21.8004
 108221381.41448  84328325.87647  20593823.1254   20593827.0234
        50.5004         42.2004
 122059492.10047  95111302.35344  23227148.2114   23227152.6484
        44.6004         29.3004
 121317401.25247  94533004.43845  23085918.7344   23085924.3134
        46.2004         31.7004
 114656261.84948  89342615.84946  21818371.9694   21818376.9804
        48.5004         36.5004
 116197934.60247  90543893.16745  22111719.0004   22111724.2504
        47.0004         34.6004
 10  5 10  1  7 30.0000000  0 11G03G28G19G24G11G16G07G23G08G13G06
 109413963.94248  85257692.36246  20820771.9064   20820775.5664
        51.1004         39.2004
 129330679.71146 100777214.28943  24610817.7504   24610823.2934
        40.1004         22.6004
 106980107.88248  83361267.39247  20357647.3284   20357649.6764
        49.6004         43.2004
 131061299.60147 102125722.92843  24940135.9844   24940141.8594
        44.6004         22.3004
 128674495.22846 100265906.24243  24485947.8594   24485953.4964
        41.7004         22.8004
 130899963.45046 102000045.87543  24909433.1484   24909438.1414
        40.3004         23.0004
 108175633.67048  84292678.30447  20585117.0084   20585121.2854
        50.5004         42.0004
 122170052.65047  95197453.35444  23248187.2114   23248191.3404
        45.3004         29.7004
 121220293.07947  94457335.76945  23067439.6724   23067445.2154
        46.3004         32.1004
 114742605.38948  89409896.47346  21834802.7894   21834807.9024
        48.8004         36.2004
 116275990.02347  90604715.56245  22126572.8284   22126577.9224
        46.4004         35.1004
 10  5 10  1  8  0.0000000  0 11G03G28G19G24G11G16G07G23G08G13G06
 109478589.85748  85308050.22146  20833069.9844   20833074.0394
        51.4004         39.8004
 129256541.58446 100719444.33343  24596709.6254   24596714.5634
        41.3004         22.2004
 106980427.20748  83361516.23947  20357707.9534   20357710.4144
        48.2004         43.4004
 131100952.04547 102156620.93243  24947680.6334   24947687.6294
        44.1004         22.8004
 128568099.90946 100183000.98143  24465700.6414   24465707.8794
        38.9004         21.5004
 130987533.44246 102068282.18643  24926097.4924   24926102.1094
        40.4004         22.8004
 108130273.30448  84257332.58547  20576485.7584   20576489.5594
        49.8004         42.2004
 122280752.48347  95283712.91244  23269252.3204   23269256.8524
        43.7004         27.4004
 121123276.13447  94381738.18645  23048977.7894   23048983.3874
        46.3004         32.4004
 114829344.31248  89477485.19446  21851308.7814   21851313.5204
        48.9004         36.2004
 116354354.59147  90665778.86645  22141484.8284   22141489.9454
        46.7004         33.7004
 10  5 10  1  8 30.0000000  0 11G03G28G19G24G11G16G07G23G08G13G06
 109543669.93648  85358761.97846  20845453.9534   20845458.1684
        50.9004         39.5004
 129182483.33946 100661736.62243  24582617.2894   24582622.4024
        40.8004         22.3004
 106981343.45048  83362230.20047  20357882.6644   20357884.7894
        49.2004         43.0004
 131141095.76147 102187901.74543  24955320.6414   24955327.3284
        43.0004         23.4004
 128461666.50046 100100066.01743  24445446.9774   24445453.7344
        39.9004         19.3004
 131075085.03147 102136504.18443  24942757.7424   24942762.4304
        42.6004         22.9004
 108085300.86948  84222289.14047  20567927.8754   20567931.5514
        50.3004         42.4004
 122391586.99147  95370077.34744  23290343.6094   23290348.8714
        43.2004         28.0004
 121026351.23047  94306212.31045  23030533.8134   23030538.9344
        46.9004         32.1004
 114916475.04648  89545379.22145  21867889.2504   21867893.5824
        49.1004         35.7004
 116433024.77147  90727080.30145  22156455.1884   22156460.5204
        46.4004         34.5004
 10  5 10  1  9  0.0000000  0 11G03G28G19G24G11G16G07G23G08G13G06
 109609201.24348  85409825.33246  20857924.1094   20857928.2274
        50.0004         39.4004
 129108505.23746 100604091.38943  24568539.3594   24568544.7304
        40.9004         22.6004
 106982855.91548  83363408.76147  20358170.2664   20358172.3444
        48.5004         43.4004
 131181729.54847 102219564.44543  24963052.8674   24963059.4694
        42.6004         20.6004
 128355197.52846 100017103.29343  24425186.6024   24425192.3714
        39.6004         20.1004
 131162617.26946 102204711.12643  24959414.8834   24959419.3244
        41.3004         22.6004
 108040718.07648  84187549.31747  20559443.8754   20559447.8794
        50.4004         42.5004
 122502552.96447  95456544.25144  23311459.8054   23311464.7504
        43.3004         28.6004
 120929520.20347  94230759.60545  23012107.6644   23012112.5744
        47.0004         33.0004
 115003993.98348  89613575.74445  21884543.9224   21884547.7424
        48.9004         35.8004
 116511997.81247  90788617.73745  22171483.2894   22171488.6414
        45.7004         34.0004
 10  5 10  1  9 30.0000000  0 11G03G28G19G24G11G16G07G23G08G13G06
 109675181.09948  85461238.20546  20870479.6954   20870483.8984
        50.9004         39.0004
 129034606.65346 100546508.13343  24554476.6254   24554482.2894
        41.1004         22.3004
 106984964.27548  83365051.65547  20358571.3834   20358573.7774
        50.5004         43.2004
 131222852.55046 102251608.32843  24970877.6954   24970885.9614
        41.8004         19.6004
 128248695.60946  99934114.89043  24404920.0634   24404925.7074
        38.9004         18.6004
 131250129.90846 102272902.75943  24976067.1954   24976071.7114
        40.4004         21.8004
 107996526.73948  84153114.52047  20551034.6644   20551038.6024
        50.6004         43.0004
 122613646.92647  95543110.90544  23332600.9064   23332605.5704
        44.9004         29.6004
 120832785.11047  94155381.63745  22993699.5944   22993704.4264
        47.9004         33.3004
 115091898.21048  89682072.50645  21901271.3674   21901275.8834
        49.5004         35.5004
 116591271.49247  90850389.43645  22186568.6024   22186573.4614
        45.9004         33.7004
 10  5 10  1 10  0.0000000  0 11G03G28G19G24G11G16G07G23G08G13G06
 109741606.93048  85512998.59046  20883119.7194   20883124.4264
        50.4004         38.3004
 128960787.39046 100488986.65543  24540429.0634   24540435.1804
        41.3004         22.0004
 106987667.28548  83367157.90347  20359085.7894   20359087.8364
        50.2004         43.2004
 131264462.86847 102284031.94542  24978795.8754   24978802.9844
        42.8004         17.8004
 128142162.66346  99851102.27143  24384647.3594   24384653.3484
        38.7004         19.3004
 131337622.40746 102341078.69943  24992716.4144   24992720.9964
        38.0004         21.5004
 107952728.65848  84118986.16147  20542700.3444   20542704.0784
        51.1004         42.9004
 122724865.61647  95629774.75744  23353764.7894   23353769.2114
        45.0004         28.5004
 120736147.36947  94080079.52845  22975309.8594   22975315.0354
        47.4004         33.4004
 115180184.29148  89750866.81545  21918071.8674   21918075.9924
        49.6004         35.3004
 116670843.00447  90912393.19045  22201710.8834   22201714.7974
        45.0004         32.4004
 10  5 10  1 10 30.0000000  0 11G03G28G19G24G11G16G07G23G08G13G06
 109808478.01448  85565105.92946  20895844.9304   20895849.5004
        50.8004         38.4004
 128887049.16446 100431528.32043  24526398.1804   24526402.9024
        41.5004         22.2004
 106990965.72348  83369728.13147  20359713.5314   20359715.6054
        50.0004         43.3004
 131306561.13047 102316835.84343  24986807.2974   24986814.0634
        43.4004         19.0004
 128035603.21146  99768068.96943  24364370.3524   24364375.8094
        39.3004         21.3004
 131425095.44346 102409239.50843  25009362.6174   25009366.1454
        40.9004         21.5004
 107909327.13448  84085166.80347  20534441.1884   20534445.2464
        50.2004         43.1004
 122836207.70847  95716534.77045  23374953.4064   23374957.3874
        46.0004         30.5004
 120639610.68247  94004856.17045  22956939.5474   22956945.2774
        47.5004         33.6004
 115268850.86348  89819957.61145  21934944.5944   21934948.8874
        49.7004         34.9004
 116750711.42547  90974628.32345  22216908.8594   22216913.6414
        45.4004         32.1004
 10  5 10  1 11  0.0000000  0 11G03G28G19G24G11G16G07G23G08G13G06
 109875791.01748  85617557.61846  20908654.5474   20908658.8324
        49.9004         38.1004
 128813391.29246 100374132.62643  24512381.3284   24512386.7274
        39.4004         22.0004
 106994858.55548  83372761.52347  20360454.3674   20360456.3914
        50.9004         43.4004
 131349145.60446 102350018.49942  24994912.0004   24994917.1054
        41.6004         17.8004
 127929019.21946  99685016.51443  24344087.7504   24344093.2464
        41.6004         20.6004
 131512548.20246 102477384.51343  25026004.0864   25026008.5164
        41.7004         22.2004
 107866323.45948  84051657.46247  20526257.9774   20526261.8794
        50.7004         43.2004
 122947669.17947  95803387.80045  23396164.2814   23396167.7034
        46.5004         31.4004
 120543176.43847  93929712.64245  22938588.9304   22938594.2384
        47.3004         33.8004
 115357894.22648  89889342.01945  21951888.7974   21951893.2464
        50.1004         35.2004
 116830873.91547  91037092.58545  22232163.0314   22232168.0824
        45.3004         31.0004
 10  5 10  1 11 30.0000000  0 11G03G28G19G24G11G16G07G23G08G13G06
 109943542.27648  85670350.80546  20921547.1484   20921551.3794
        50.0004         38.7004
 128739812.65446 100316798.64343  24498379.3054   24498385.1524
        39.9004         22.3004
 106999343.99448  83376256.68347  20361307.7894   20361309.4774
        50.7004         43.4004
 131392214.10546 102383578.32442  25003106.3594   25003112.5204
        40.4004         16.9004
 127822412.54546  99601946.37643  24323801.3204   24323806.9414
        41.8004         22.3004
 131599979.57546 102545512.84043  25042641.6484   25042647.1374
        41.8004         22.9004
 107823718.60848  84018458.88947  20518150.0944   20518154.4804
        50.6004         43.6004
 123059246.31247  95890330.96445  23417396.2114   23417400.3204
        46.8004         31.0004
 120446845.22147  93854649.39745  22920257.2424   22920262.9774
        47.1004         33.6004
 115447310.40348  89959016.91345  21968903.9844   21968908.4654
        49.8004         34.8004
 116911327.12547  91099783.37445  22247473.8594   22247478.3594
        45.6004         31.9004
 10  5 10  1 12  0.0000000  0 11G03G28G19G24G11G16G07G23G08G13G06
 110011730.24048  85723484.29046  20934522.7504   20934527.4024
        49.0004         38.7004
 128666314.27746 100259527.20343  24484393.0864   24484398.4614
        39.5004         20.6004
 107004422.31348  83380213.83847  20362273.9384   20362275.9454
        50.1004         43.3004
 131435766.18846 102417515.08442  25011394.2814   25011400.2274
        39.9004         16.9004
 127715786.57147  99518861.16943  24303511.1884   24303515.9654
        44.7004         22.3004
 131687389.93346 102613624.78743  25059275.8524   25059280.2234
        40.5004         22.3004
 107781515.79148  83985573.59047  20510119.1884   20510123.4104
        49.5004         43.7004
 123170936.78747  95977362.42445  23438650.8674   23438654.5634
        46.6004         31.8004
 120350620.58547  93779669.19545  22901946.6804   22901951.7624
        46.1004         33.5004
 115537097.16748  90028980.57645  21985990.0474   21985994.2194
        48.1004         35.0004
 116992069.43447  91162699.45945  22262837.9384   22262842.8914
        44.5004         31.4004
 10  5 10  1 12 30.0000000  0 11G03G28G19G24G11G16G07G23G08G13G06
 110080352.13848  85776955.89446  20947581.0004   20947585.2584
        49.0004         38.2004
 128592896.25946 100202318.40043  24470421.9844   24470427.5434
        41.7004         22.2004
 107010092.57448  83384632.23547  20363353.1644   20363354.8674
        50.6004         43.6004
 131479800.75246 102451827.72542  25019774.1094   25019780.1134
        40.4004         17.4004
 127609144.15747  99435763.16444  24283218.0164   24283222.5944
        45.3004         24.4004
 131774778.86947 102681720.06343  25075904.8674   25075909.5634
        42.8004         22.8004
 107739716.55948  83953002.77847  20502165.1024   20502169.6024
        49.5004         43.6004
 123282737.19547  96064479.54545  23459925.5004   23459929.6054
        45.4004         30.4004
 120254504.06947  93704773.25445  22883656.3444   22883661.3134
        46.6004         33.4004
 115627251.43548  90099230.61245  22003145.9304   22003150.0784
        50.2004         35.2004
 117073098.66347  91225839.10345  22278257.2584   22278262.1684
        44.7004         32.5004
 10  5 10  1 13  0.0000000  0 11G03G28G19G24G11G16G07G23G08G13G06
 110149405.64548  85830763.81746  20960721.4924   20960725.8594
        48.9004         39.0004
 128519558.15047 100145171.81943  24456466.1954   24456471.6454
        42.0004         22.2004
 107016353.69848  83389511.04547  20364544.7814   20364546.2154
        49.5004         43.4004
 131524316.03446 102486514.97142  25028245.0004   25028251.6254
        41.0004         17.8004
 127502487.41347  99352653.97943  24262921.4614   24262926.6414
        45.1004         23.0004
 131862145.54946 102749797.97443  25092529.8524   25092534.5784
        40.0004         22.3004
 107698322.63448  83920747.78947  20494288.2894   20494292.4884
        49.2004         43.5004
 123394644.42847  96151679.93944  23481220.0394   23481224.2814
        44.5004         28.9004
 120158497.44347  93629962.94245  22865386.9224   22865391.9344
        46.4004         33.6004
 115717769.71448  90169764.30145  22020370.6334   22020374.9104
        49.0004         34.2004
 117154412.17347  91289200.29245  22293730.7974   22293735.4494
        45.2004         31.9004
 10  5 10  1 13 30.0000000  0 11G03G28G19G24G11G16G07G23G08G13G06
 110218888.55948  85884906.34246  20973943.6644   20973948.1414
        48.7004         38.5004
 128446300.48446 100088087.95943  24442525.8834   24442531.1484
        41.1004         21.5004
 107023205.50048  83394850.12247  20365848.4064   20365850.2194
        50.4004         43.6004
 131569311.54546 102521576.41642  25036807.5704   25036813.6134
        40.2004         15.6004
 127395820.01847  99269536.49543  24242623.6414   24242628.4574
        42.6004         22.8004
 131949490.37346 102817858.85143  25109151.5784   25109155.6644
        41.1004         21.3004
 107657336.42348  83888810.49847  20486489.0704   20486493.0594
        49.8004         43.6004
 123506656.09646  96238961.68044  23502534.3594   23502539.9064
        41.7004         26.7004
 120062603.56047  93555240.49245  22847138.7894   22847144.4494
        46.3004         33.5004
 115808649.78848  90240579.91045  22037664.9534   22037669.4494
        48.7004         34.8004
 117236007.95447  91352781.43545  22309258.0474   22309262.4304
        45.7004         33.2004
 10  5 10  1 14  0.0000000  0 11G03G28G19G24G11G16G07G23G08G13G06
 110288798.01648  85939381.23646  20987247.3524   20987251.3244
        49.3004         39.2004
 128373123.42446 100031066.88843  24428600.4614   24428606.0084
        41.1004         22.8004
 107030647.14448  83400648.82947  20367264.6884   20367266.2504
        50.8004         43.7004
 131614785.74546 102557010.93842  25045460.0004   25045466.7704
        40.0004         14.8004
 127289144.26546  99186412.54943  24222323.6174   24222329.3634
        41.1004         22.3004
 132036813.28646 102885902.69543  25125768.3674   25125772.8364
        41.3004         20.1004
 107616759.81848  83857192.38047  20478767.2424   20478771.7734
        49.5004         43.9004
 123618768.96346  96326322.26644  23523868.7664   23523874.4104
        39.9004         25.8004
 119966824.07847  93480607.18145  22828912.0084   22828918.1954
        46.0004         33.3004
 115899888.52048  90311674.95145  22055026.4774   22055032.3244
        48.7004         34.4004
 117317883.92647  91416580.88345  22324838.2734   22324843.0314
        46.0004         32.2004
 10  5 10  1 14 30.0000000  0 11G03G28G19G24G11G16G07G23G08G13G06
 110359130.45848  85994185.72946  21000630.9144   21000635.2934
        49.3004         39.3004
 128300025.45047  99974107.49643  24414690.8594   24414695.9144
        42.3004         22.8004
 107038676.66548  83406905.61447  20368792.5864   20368794.3794
        50.3004         43.7004
 131660735.97746 102592816.32342  25054204.2814   25054210.5744
        39.8004         13.9004
 127182461.85446  99103283.38643  24202022.6644   24202028.4694
        40.4004         22.3004
 132124112.42446 102953927.98743  25142380.8134   25142386.3324
        41.9004         20.6004
 107576593.40148  83825893.88747  20471123.9384   20471128.4534
        50.6004         44.2004
 123730978.76246  96413758.37344  23545222.7814   23545227.0744
        41.6004         25.3004
 119871160.28747  93406064.02145  22810707.7274   22810713.8874
        46.8004         32.6004
 115991481.33248  90383045.92845  22072456.2584   22072461.4104
        48.7004         34.3004
 117400036.08447  91480595.54045  22340471.5634   22340475.3484
        46.3004         31.8004
 10  5 10  1 15  0.0000000  0 11G03G28G19G24G11G16G07G23G08G13G06
 110429885.90848  86049319.84746  21014095.3834   21014099.4614
        49.7004         39.7004
 128227008.78047  99917211.42943  24400796.2344   24400801.0634
        43.3004         22.9004
 107047295.34148  83413621.47847  20370432.4694   20370434.1214
        50.5004         43.6004
 131707163.30846 102628993.48242  25063039.1804   25063045.8444
        39.9004         16.3004
 127075777.96146  99020153.10743  24181721.3284   24181727.2584
        36.8004         21.3004
 132211389.74546 103021936.26843  25158989.3444   25158994.7584
        41.7004         20.4004
 107536841.72248  83794918.57447  20463559.5704   20463563.5784
        50.0004         44.2004
 123843284.74447  96501269.45144  23566593.8674   23566597.9884
        42.9004         25.0004
 119775616.69047  93331614.52145  22792526.4304   22792532.3874
        47.2004         33.1004
 116083427.58848  90454692.30745  22089953.7194   22089958.4694
        48.5004         34.6004
 117482464.63947  91544825.58845  22356156.7034   22356161.2894
        44.7004         32.5004
 10  5 10  1 15 30.0000000  0 11G03G28G19G24G11G16G07G23G08G13G06
 110501059.19148  86104779.54546  21027639.2114   21027643.7274
        49.8004         39.2004
 128154071.20447  99860376.98043  24386916.5784   24386921.6644
        42.0004         22.2004
 107056499.66848  83420793.68847  20372184.4304   20372186.0864
        49.6004         43.2004
 131754064.19646 102665539.71042  25071965.0554   25071970.3914
        40.5004         17.4004
 126969092.76046  98937021.82943  24161419.3444   24161425.9494
        37.2004         20.9004
 132298642.46746 103089925.41943  25175593.2424   25175598.4064
        41.1004         19.0004
 107497503.82448  83764265.67547  20456073.5314   20456077.7974
        50.3004         43.9004
 123955681.36447  96588851.19044  23587982.6254   23587986.3754
        44.0004         27.4004
 119680192.63447  93257258.15745  22774367.8054   22774373.0234
        46.6004         33.0004
 116175721.86748  90526609.88545  22107516.2274   22107521.4224
        48.7004         34.9004
 117565164.74347  91609267.21345  22371894.6254   22371898.7274
        46.8004         32.4004
 10  5 10  1 16  0.0000000  0 11G03G28G19G24G11G16G07G23G08G13G06
 110572648.65948  86160563.54046  21041262.3834   21041266.7274
        49.0004         39.9004
 128081213.56447  99803604.79943  24373052.1644   24373056.6414
        43.8004         22.5004
 107066289.57748  83428422.21347  20374046.7114   20374049.1254
        49.7004         43.7004
 131801438.14646 102702454.49942  25080979.0704   25080986.1294
        38.7004         17.8004
 126862410.04446  98853892.46243  24141118.7734   24141124.1214
        38.4004         21.7004
 132385871.15646 103157895.82442  25192192.1484   25192197.0394
        39.9004         17.8004
 107458582.56048  83733937.44147  20448667.0784   20448671.1174
        50.7004         43.7004
 124068166.47247  96676501.89644  23609388.2344   23609390.8444
        44.0004         27.2004
 119584890.95547  93182997.16145  22756232.4064   22756238.2464
        46.6004         33.6004
 116268362.08948  90598797.02245  22125145.7504   22125150.2344
        48.7004         34.3004
 117648134.93247  91673919.31945  22387682.9694   22387687.5904
        46.1004         33.1004
 10  5 10  1 16 30.0000000  0 11G03G28G19G24G11G16G07G23G08G13G06
 110644651.31648  86216669.50546  21054963.9694   21054968.1954
        49.4004         39.7004
 128008435.78847  99746894.87844  24359202.9614   24359207.9924
        44.1004         24.5004
 107076664.52848  83436506.60747  20376021.5704   20376023.0434
        49.3004         43.1004
 131849283.79846 102739736.77342  25090083.6334   25090091.3284
        38.9004         16.3004
 126755732.32346  98770766.99143  24120818.8444   24120824.4414
        40.7004         21.5004
 132473075.73046 103225847.45842  25208785.6954   25208791.2384
        38.0004         16.3004
 107420080.19148  83703935.60847  20441340.2424   20441344.2034
        48.9004         43.8004
 124180736.84947  96764219.02044  23630809.4694   23630812.6374
        46.0004         28.1004
 119489714.28947  93108833.57845  22738120.8834   22738126.4224
        45.3004         33.6004
 116361344.76548  90671251.01445  22142839.7424   22142844.1374
        48.9004         35.4004
 117731372.99647  91738780.13245  22403523.0474   22403527.0744
        46.1004         33.7004
 10  5 10  1 17  0.0000000  0 11G03G28G19G24G11G16G07G23G08G13G06
 110717064.76548  86273095.56546  21068744.0704   21068748.1564
        50.1004         39.7004
 127935738.21347  99690247.43544  24345368.8834   24345373.6024
        43.6004         25.1004
 107087623.34548  83445045.95647  20378106.8444   20378108.4574
        50.4004         43.0004
 131897599.88146 102777385.72342  25099278.4224   25099284.8554
        40.7004         14.8004
 126649062.48847  98687647.65643  24100520.0084   24100525.2194
        42.9004         21.7004
 132560255.76846 103293779.95242  25225375.7664   25225380.9694
        37.9004         17.4004
 107381997.92448  83674261.13047  20434093.1174   20434097.5594
        49.5004         43.3004
 124293389.77347  96852000.47844  23652247.1174   23652250.2974
        46.3004         29.2004
 119394664.32647  93034768.71745  22720034.0944   22720039.2734
        45.8004         34.0004
 116454666.76448  90743969.41845  22160598.1484   22160602.7344
        50.0004         35.4004
 117814876.39947  91803847.72945  22419412.8284   22419417.6454
        46.4004         33.5004
 10  5 10  1 17 30.0000000  0 11G03G28G19G24G11G16G07G23G08G13G06
 110789886.58948  86329839.84046  21082601.2734   21082605.9024
        50.5004         40.4004
 127863120.31847  99633662.10744  24331550.4454   24331555.5864
        43.8004         24.2004
 107099165.03248  83454039.50447  20380302.9774   20380304.5394
        51.0004         43.1004
 131946384.79646 102815399.93742  25108561.7424   25108568.2734
        40.4004         15.6004
 126542403.29547  98604536.58843  24080223.8364   24080228.3754
        44.3004         22.5004
 132647410.98245 103361693.14642  25241961.1174   25241965.1374
        35.9004         16.3004
 107344338.31848  83644916.00447  20426927.0084   20426931.2814
        50.1004         44.0004
 124406122.22347  96939843.92144  23673698.9924   23673702.0594
        46.9004         29.6004
 119299743.32547  92960804.35945  22701971.0004   22701976.0864
        46.3004         34.2004
 116548325.39348  90816950.12345  22178421.2734   22178425.6524
        49.2004         35.2004
 117898642.83047  91869120.24645  22435353.3754   22435357.2854
        46.4004         33.0004
 10  5 10  1 18  0.0000000  0 11G03G28G19G24G11G16G07G23G08G13G06
 110863114.43848  86386900.49546  21096536.0704   21096540.7424
        49.8004         40.3004
 127790582.34247  99577139.01844  24317746.9304   24317752.4224
        42.7004         25.8004
 107111288.81348  83463486.62247  20382610.3204   20382611.8204
        50.3004         42.9004
 131995636.96046 102853778.26742  25117933.7664   25117941.3714
        38.8004         15.6004
 126435757.40647  98521435.93843  24059929.9064   24059934.3204
        45.4004         23.9004
 132734540.93546 103429586.53842  25258540.8364   25258545.5394
        36.6004         14.8004
 107307102.82548  83615901.35047  20419841.4304   20419845.5204
        50.6004         43.3004
 124518930.75047  97027746.60744  23695166.0394   23695170.0434
        45.5004         29.8004
 119204953.68447  92886942.35245  22683933.1254   22683938.5594
        46.3004         34.9004
 116642317.18648  90890190.44145  22196306.9844   22196311.4804
        49.7004         34.8004
 117982670.08847  91934596.03045  22451342.9304   22451347.4064
        46.3004         32.6004
 10  5 10  1 18 30.0000000  0 11G03G28G19G24G11G16G07G23G08G13G06
 110936745.90848  86444275.66546  21110547.6954   21110552.1954
        50.8004         40.3004
 127718124.14647  99520678.12544  24303958.7274   24303963.4384
        42.4004         25.6004
 107123993.54648  83473386.43347  20385027.7734   20385029.8554
        50.2004         43.0004
 132045355.13546 102892519.76442  25127394.6804   25127403.3714
        37.5004         14.8004
 126329127.53447  98438347.74443  24039638.9454   24039643.6484
        43.8004         22.5004
 132821645.56346 103497460.24942  25275116.9144   25275121.7194
        36.1004         16.9004
 107270293.44548  83587218.72547  20412836.8364   20412840.8984
        50.9004         43.4004
 124631812.69047  97115706.54144  23716646.2034   23716649.9694
        43.7004         25.7004
 119110297.66247  92813184.47045  22665920.3674   22665925.8444
        47.0004         34.5004
 116736639.29548  90963688.15245  22214255.4614   22214259.7074
        49.0004         34.6004
 118066955.72247  92000273.13845  22467382.3754   22467386.6294
        46.3004         33.0004
 10  5 10  1 19  0.0000000  0 11G03G28G19G24G11G16G07G23G08G13G06
 111010778.12348  86501963.09646  21124635.7274   21124640.3984
        50.1004         40.5004
 127645745.94747  99464279.57444  24290185.0634   24290190.3674
        42.3004         24.7004
 107137278.07648  83483738.02647  20387555.2194   20387557.3324
        50.8004         43.4004
 132095537.69845                  25136944.9304
        35.8004
 126222516.98547  98355274.65143  24019351.3524   24019356.4224
        43.4004         22.8004
 132908724.45045                  25291687.3444
        33.9004
 107233912.00648  83558869.57047  20405913.7424   20405917.5744
        50.3004         43.3004
 124744765.03946  97203721.26444  23738140.0234   23738144.5904
        41.4004         24.7004
 119015776.50847  92739531.68345  22647934.0164   22647938.9384
        47.2004         35.8004
 116831288.61748  91037440.83545  22232267.2344   22232272.1094
        48.8004         34.0004
 118151497.59347  92066149.90745  22483470.2194   22483474.3714
        46.4004         32.8004
 10  5 10  1 19 30.0000000  0 11G03G28G19G24G11G16G07G23G08G13G06
 111085208.08148  86559960.47446  21138798.9534   21138803.3484
        51.1004         40.2004
 127573447.32747  99407943.03444  24276427.2424   24276432.5124
        42.7004         26.0004
 107151141.70448  83494540.87247  20390193.6254   20390195.8054
        50.2004         43.0004
 132146183.39146                  25146582.2734
        36.4004
 126115928.19047  98272218.48343  23999067.6254   23999073.0704
        42.0004         22.3004
 132995777.13445                  25308253.5864
        32.0004
 107197960.37048  83530855.31947  20399072.5394   20399075.6414
        49.8004         43.3004
 124857784.76246  97291788.48244  23759647.0084   23759652.0944
        40.4004         27.8004
 118921393.11947  92665986.22945  22629973.1884   22629978.7504
        47.3004         35.5004
 116926261.74748  91111445.83645  22250340.5164   22250344.6564
        49.2004         34.0004
 118236293.04347  92132224.27045  22499605.9614   22499609.9844
        45.9004         32.5004
 10  5 10  1 20  0.0000000  0 11G03G28G19G24G11G16G07G23G08G13G06
 111160033.61348  86618266.07646  21153037.7194   21153042.6254
        51.1004         39.7004
 127501228.82247  99351668.94844  24262684.1804   24262689.1524
        42.3004         25.5004
 107165582.80548  83505793.69847  20392941.7894   20392943.5904
        51.0004         43.2004
 132197290.40046                  25156308.3594
        36.0004
 126009363.93246  98189181.49643  23978789.0164   23978794.6954
        40.0004         23.3004
 133082803.44245                  25324813.8984
        31.6004
 107162440.34248  83503177.39047  20392313.1564   20392316.4414
        49.8004         43.2004
 124970868.84046  97379905.85944  23781166.4774   23781170.5514
        41.1004         25.1004
 118827149.58448  92592549.75145  22612038.9384   22612044.9344
        48.6004         34.7004
 117021555.76748  91185700.88245  22268473.7664   22268478.0634
        48.3004         32.4004
 118321340.08047  92198494.67845  22515790.2194   22515793.6134
        46.6004         32.7004
 10  5 10  1 20 30.0000000  0 11G03G28G19G24G11G16G07G23G08G13G06
 111235252.34748  86676878.07446  21167351.5944   21167356.0984
        50.2004         39.8004
 127429090.69346  99295457.45844  24248956.8674   24248962.1524
        41.7004         25.2004
 107180600.94248  83517496.15747  20395799.3444   20395801.5274
        50.8004         43.3004
 132248857.85645                  25166120.3594
        35.3004
 125902827.43246  98106166.15743  23958515.6414   23958521.5314
        39.3004         21.1004
 133169803.66845                  25341370.4774
        31.8004
 107127354.34348  83475837.67847  20385636.3054   20385639.7544
        49.9004         43.2004
 125084014.51746  97468071.20644  23802697.1334   23802702.1684
        40.4004         24.2004
 118733048.66548  92519224.39645  22594132.3674   22594137.3984
        48.0004         35.5004
 117117167.77648  91260203.70445  22286667.4454   22286672.6994
        48.0004         32.3004
 118406636.70747  92264959.58045  22532021.0634   22532025.4574
        46.4004         32.7004
 10  5 10  1 21  0.0000000  0 11G03G28G19G24G11G16G07G23G08G13G06
 111310860.81648  86735793.76746  21181739.1884   21181744.0904
        50.7004         39.5004
 127357031.71946  99239307.65344  24235244.8134   24235249.9694
        41.6004         25.8004
 107196193.91248  83529646.53347  20398766.8674   20398768.5984
        50.0004         43.0004
 132300883.37845                  25176021.3834
        35.1004
 125796320.50646  98023173.84843  23938247.9064   23938253.4804
        39.6004         23.0004
 133256776.49845                  25357918.6174
        30.1004
 107092702.95148  83448836.60647  20379042.2974   20379045.6054
        50.8004         43.1004
 125197217.89346  97556281.62744  23824239.1564   23824243.1724
        41.1004         25.0004
 118639091.38748  92446010.95545  22576252.6024   22576257.7894
        48.9004         35.7004
 117213093.46447  91334950.93445  22304922.1174   22304926.5594
        47.9004         32.3004
 118492179.44847  92331616.24045  22548299.4224   22548303.4264
        45.6004         32.4004
 10  5 10  1 21 30.0000000  0 11G03G28G19G24G11G16G07G23G08G13G06
 111386857.56448  86795012.00146  21196200.7814   21196205.1844
        49.7004         39.0004
 127285053.12247  99183220.46044  24221547.1484   24221553.0944
        42.1004         24.9004
 107212361.63848  83542244.77447  20401843.2424   20401845.3284
        49.8004         43.0004
 132353366.44145                  25186007.3754
        35.2004
 125689847.13446  97940207.76743  23917986.6174   23917992.5664
        40.2004         22.9004
                                  25374465.2814
        30.5004
 107058489.41848  83422176.73047  20372531.8134   20372535.4104
        49.7004         43.5004
 125310477.27847  97644535.68344  23845792.6094   23845796.5204
        43.9004         28.0004
 118545281.11048  92372912.06846  22558401.2894   22558406.3244
        49.3004         36.3004
 117309331.08648  91409941.23945  22323235.4844   22323239.9964
        48.3004         32.2004
 118577967.38747  92398463.97745  22564624.2814   22564628.8014
        45.2004         32.5004
 10  5 10  1 22  0.0000000  0 11G03G28G19G24G11G16G07G23G08G13G06
 111463239.31148  86854530.24146  21210735.6024   21210739.9734
        49.6004         38.5004
 127213153.98347  99127195.18344  24207865.0164   24207870.8134
        42.3004         26.8004
 107229102.38948  83555289.52947  20405028.8364   20405031.2234
        50.7004         42.9004
 132406304.62145                  25196080.9144
        32.8004
 125583409.29846  97857269.33443  23897732.2424   23897737.9884
        40.6004         22.6004
 133430641.88745                  25391005.0314
        30.7004
 107024714.33948  83395858.50047  20366104.5084   20366107.9574
        49.5004         43.5004
 125423788.84547  97732830.40744  23867355.1414   23867358.2424
        46.0004         27.2004
 118451619.29948  92299928.87845  22540578.3594   22540583.5984
        48.3004         34.9004
 117405876.85048  91485171.65745  22341607.7504   22341611.7854
        48.8004         32.7004
 118663997.09447  92465500.10745  22580994.9454   22580999.7194
        43.4004         31.0004
 10  5 10  1 22 30.0000000  0 10G03G28G19G24G11G07G23G08G13G06
 111540005.00548  86914347.66246  21225344.0394   21225348.1564
        50.0004         39.0004
 127141335.66347  99071232.89744  24194198.8914   24194204.2424
        43.0004         26.2004
 107246416.44448  83568781.01547  20408323.8984   20408325.8984
        50.3004         43.1004
 132459697.91045                  25206240.7894
        32.0004
 125477011.24946  97774361.93544  23877485.1484   23877490.7234
        41.6004         24.9004
 106991381.36548  83369884.76747  20359761.9614   20359764.7384
        50.7004         43.8004
 125537150.67647  97821164.24744  23888926.2274   23888930.7624
        45.6004         27.1004
 118358109.79948  92227064.36245  22522783.9224   22522789.2074
        48.3004         35.4004
 117502728.86448  91560640.71445  22360038.1024   22360042.3284
        49.1004         33.4004
 118750267.88947  92532724.08345  22597412.6484   22597416.3404
        45.5004         32.4004
 10  5 10  1 23  0.0000000  0 10G03G28G19G24G11G07G23G08G13G06
 111617150.10048  86974460.71946  21240024.1094   21240028.7624
        49.5004         38.7004
 127069596.90047  99015332.61044  24180547.0474   24180552.5704
        42.5004         25.7004
 107264301.22148  83582717.21747  20411727.1644   20411728.7704
        49.5004         43.0004
 132513543.24145                  25216487.9924
        31.2004
 125370654.45747  97691486.64544  23857246.5704   23857251.6214
        43.9004         25.5004
 106958490.53448  83344255.56147  20353502.6804   20353505.8984
        50.2004         44.0004
 125650558.39147  97909533.95644  23910507.5704   23910511.0664
        46.8004         27.2004
 118264753.03347  92154318.86645  22505018.5474   22505023.4454
        47.9004         35.4004
 117599882.37448  91636344.68545  22378526.0164   22378530.4144
        48.8004         33.4004
 118836775.88547  92600132.88545  22613873.7034   22613878.3324
        43.4004         30.2004
 10  5 10  1 23 30.0000000  0 10G03G28G19G24G11G07G23G08G13G06
 111694671.99448  87034867.39746  21254776.3054   21254780.6214
        50.1004         38.4004
 126997937.31147  98959493.99244  24166910.7894   24166916.2304
        43.9004         25.0004
 107282754.58548  83597096.47747  20415238.3674   20415240.5164
        50.0004         42.8004
 132567838.28444                  25226819.6804
        27.6004
 125264341.52947  97608645.55344  23837015.4144   23837020.5944
        45.5004         26.4004
 106926043.15748  83318971.91647  20347328.1254   20347331.3594
        50.2004         43.9004
 125764008.63247  97997936.71443  23932096.5784   23932099.9844
        44.1004         23.0004
 118171551.07347  92081694.00045  22487282.6484   22487288.0984
        47.8004         35.1004
 117697333.85548  91712280.84845  22397070.3524   22397074.8834
        49.0004         33.6004
 118923518.35647  92667724.40845  22630380.6174   22630385.2384
        44.4004         31.6004
 10  5 10  1 24  0.0000000  0  9G03G28G19G11G07G23G08G13G06
 111772568.75948  87095566.18146  21269599.2424   21269603.4024
        50.2004         38.4004
 126926358.04447  98903717.95544  24153290.1884   24153294.5394
        43.6004         24.2004
 107301776.55748  83611918.79947  20418858.1484   20418860.7854
        48.8004         42.8004
 125158075.93447  97525841.37244  23816794.0944   23816799.1844
        46.3004         27.9004
 106894042.33348  83294036.22647  20341238.5864   20341242.0864
        50.7004         44.1004
 125877499.87247  98086371.47344  23953692.0944   23953697.0474
        42.7004         24.2004
 118078507.39847  92009192.47145  22469577.1644   22469582.7544
        47.8004         35.3004
 117795081.22648  91788447.59145  22415671.2344   22415675.7774
        49.3004         33.4004
 119010494.18647  92735497.76045  22646931.5234   22646936.0354
        43.6004         30.9004
 10  5 10  1 24 30.0000000  0  9G03G28G19G11G07G23G08G13G06
 111850838.28448  87156555.41946  21284493.5784   21284497.9884
        49.7004         37.3004
 126854858.87247  98848004.34743  24139683.7584   24139689.1254
        43.4004         23.9004
 107321366.27048  83627183.51547  20422585.8754   20422588.5474
        50.0004         42.6004
 125051860.79947  97443076.48844  23796581.7344   23796586.2814
        46.3004         26.9004
 106862489.84248  83269449.88147  20335234.6334   20335237.8404
        50.1004         44.2004
 125991029.18346  98174835.81443  23975297.1024   23975301.2234
        41.7004         23.3004
 117985624.01947  91936815.84845  22451901.6724   22451907.3794
        47.9004         35.7004
 117893121.38048  91864842.45945  22434327.5944   22434332.3594
        49.3004         33.6004
 119097701.19147  92803451.25145  22663526.7034   22663530.7424
        42.9004         30.9004
 10  5 10  1 25  0.0000000  0  9G03G28G19G11G07G23G08G13G06
 111929477.25748  87217832.53046  21299458.2664   21299462.3094
        50.0004         37.4004
 126783439.34547  98792352.82344  24126093.4614   24126098.3754
        43.0004         25.8004
 107341521.35948  83642888.78747  20426421.4454   20426423.5904
        48.9004         42.8004
 124945698.41247  97360352.70544  23776379.8054   23776383.9734
        46.6004         25.2004
 106831386.86948  83245213.81447  20329315.7344   20329319.4384
        49.7004         44.2004
 126104592.85046  98263326.85744  23996907.6644   23996912.2344
        39.5004         24.9004
 117892902.66547  91864565.47045  22434257.7274   22434262.6724
        47.4004         35.7004
 117991450.35048  91941462.38745  22453039.1024   22453043.9144
        49.3004         33.0004
 119185136.35847  92871582.53244  22680165.0474   22680169.0594
        43.2004         29.9004
 10  5 10  1 25 30.0000000  0  9G03G28G19G11G07G23G08G13G06
 112008482.52848  87279395.07146  21314492.0394   21314496.6994
        50.0004         37.4004
 126712099.07347  98736763.04444  24112517.4144   24112522.9884
        44.1004         26.2004
 107362240.72148  83659033.76147  20430364.3914   20430366.5044
        49.2004         42.9004
 124839591.40447  97277672.04843  23756187.9774   23756192.5314
        44.3004         22.6004
 106800734.57348  83221328.92147  20323482.6484   20323486.2704
        48.8004         44.6004
 126218187.45746  98351842.05343  24018523.0704   24018528.0314
        39.2004         22.6004
 117800345.46247  91792442.98645  22416644.3834   22416649.1994
        46.6004         35.0004
 118090065.08748  92018305.00145  22471804.9534   22471809.1764
        49.0004         33.1004
 119272797.32447  92939889.75845  22696846.2344   22696850.7274
        43.3004         31.1004
 10  5 10  1 26  0.0000000  0  9G03G28G19G11G07G23G08G13G06
 112087852.45248  87341241.76846  21329595.6954   21329600.2734
        49.3004         36.4004
 126640838.75947  98681235.56644  24098957.2584   24098962.7274
        43.3004         26.7004
 107383523.27048  83675617.56747  20434414.3834   20434416.4614
        48.7004         42.8004
 124733542.98847  97195037.07243  23736006.7034   23736012.0124
        43.4004         22.5004
 106770535.62648  83197797.29247  20317735.9064   20317739.9614
        49.5004         44.4004
 126331810.85447  98440379.69544  24040146.4384   24040150.1254
        42.5004         26.2004
 117707954.95347  91720450.40345  22399063.2034   22399068.3054
        46.0004         34.4004
 118188962.91147  92095368.19445  22490624.0394   22490629.2154
        47.9004         32.3004
 119360682.07547  93008371.35845  22713570.0004   22713574.8524
        43.9004         31.4004
 10  5 10  1 26 30.0000000  0  9G03G28G19G11G07G23G08G13G06
 112167583.86448  87403370.14746  21344768.1414   21344772.5704
        48.9004         37.1004
 126569657.98947  98625770.07044  24085411.8834   24085416.9184
        44.3004         26.9004
 107405367.29848  83692638.89847  20438571.1884   20438572.9654
        49.5004         43.1004
 124627555.92847  97112449.92543  23715838.0474   23715843.6214
        43.1004         22.5004
 106740791.43848  83174620.00947  20312075.7034   20312079.8164
        50.2004         44.6004
 126445459.72947  98528937.18744  24061772.1094   24061776.9924
        44.1004         25.3004
 117615733.26047  91648589.37445  22381513.5704   22381518.8094
        46.3004         33.4004
 118288139.86948  92172648.88445  22509496.5004   22509502.0984
        48.4004         32.6004
 119448788.22147  93077025.49244  22730335.8674   22730340.7424
        42.8004         29.6004
 10  5 10  1 27  0.0000000  0  9G03G28G19G11G07G23G08G13G06
 112247674.13748  87465778.15246  21360008.6564   21360013.2074
        48.0004         37.3004
 126498556.29647  98570366.19444  24071881.9614   24071886.7114
        44.0004         28.1004
 107427771.41348  83710096.66047  20442834.4064   20442836.8364
        49.6004         43.0004
 124521632.75046  97029912.56543  23695680.9614   23695686.4224
        39.9004         21.3004
 106711503.46148  83151798.22847  20306502.2734   20306506.8324
        50.0004         44.8004
 126559130.89347  98617512.12544  24083403.6174   24083407.3794
        45.6004         28.5004
 117523682.98347  91576861.90045  22363997.2814   22364002.4224
        45.7004         33.6004
 118387592.93847  92250144.72945  22528421.8594   22528427.0474
        47.0004         31.2004
 119537113.12147  93145850.08145  22747143.8834   22747148.3834
        44.0004         31.5004
 10  5 10  1 27 30.0000000  0  9G03G28G19G11G07G23G08G13G06
 112328120.36047  87528463.51945  21375317.1094   21375321.6254
        47.6004         35.9004
 126427534.06947  98515024.23344  24058366.6644   24058371.6844
        44.8004         28.0004
 107450734.20448  83727989.75147  20447204.2424   20447206.2304
        49.7004         43.2004
 124415776.65046  96947427.47143  23675537.2424   23675542.8554
        41.8004         21.5004
 106682673.53348  83129333.35447  20301016.3204   20301020.4964
        50.0004         44.7004
 126672821.50647  98706102.10444  24105038.2114   24105042.2854
        46.1004         26.8004
 117431806.18747  91505269.62445  22346512.8204   22346518.6374
        46.5004         33.7004
 118487319.06047  92327853.32945  22547399.2664   22547404.2704
        47.5004         30.6004
 119625654.75347  93214843.53845  22763993.0634   22763998.0434
        43.9004         31.2004
 10  5 10  1 28  0.0000000  0  9G03G28G19G11G07G23G08G13G06
 112408920.35647  87591424.54645  21390692.6884   21390697.1214
        47.8004         35.7004
 126356591.61047  98459744.42244  24044867.0164   24044871.3834
        44.6004         26.6004
 107474254.58148  83746317.33347  20451679.8674   20451682.0004
        49.5004         43.2004
 124309990.68547  96864997.03444  23655406.4924   23655412.9224
        42.7004         25.2004
 106654303.18048  83107226.60347  20295617.5704   20295621.5664
        50.7004         44.7004
 126786528.72947  98794705.19944  24126675.9534   24126679.6254
        44.2004         25.4004
 117340105.21947  91433814.35345  22329063.3754   22329068.3554
        46.6004         34.7004
 118587315.15947  92405772.32345  22566427.9144   22566433.2704
        46.1004         30.7004
 119714410.98247  93284004.23345  22780882.6804   22780887.1454
        44.7004         30.9004
 10  5 10  1 28 30.0000000  0  9G03G28G19G11G07G23G08G13G06
 112490071.40147  87654659.13246  21406135.8364   21406139.6134
        46.6004         36.0004
 126285728.60847  98404526.52144  24031382.1804   24031386.7814
        45.3004         26.2004
 107498330.73248  83765077.97847  20456261.2734   20456263.5634
        50.0004         43.4004
 124204277.45747  96782623.27644  23635290.2504   23635295.9024
        43.0004         27.2004
 106626394.29148  83085479.42947  20290306.9694   20290310.4384
        49.8004         44.4004
 126900249.89547  98883318.98644  24148316.4614   24148321.2274
        43.9004         25.7004
 117248582.41547  91362497.91645  22311646.9454   22311652.4884
        46.0004         35.6004
 118687577.79447  92483898.98845  22585507.4924   22585512.5984
        47.6004         30.7004
 119803379.23947  93353330.11045  22797812.7974   22797817.9384
        43.9004         31.5004
 10  5 10  1 29  0.0000000  0  9G03G28G19G11G07G23G08G13G06
 112571571.53648  87718165.72746  21421644.7034   21421648.2234
        49.1004         36.0004
 126214945.53447  98349370.92844  24017912.4384   24017917.1914
        44.8004         27.8004
 107522962.05348  83784271.22847  20460948.8054   20460951.1214
        49.6004         43.8004
 124098640.54847  96700308.98344  23615187.9844   23615193.9574
        44.9004         27.8004
 106598949.16348  83064093.62647  20285084.2274   20285087.8594
        50.2004         44.3004
 127013982.31746  98971941.66843  24169958.0394   24169962.3594
        40.9004         21.3004
 117157241.00847  91291322.82446  22294265.4224   22294270.9144
        47.2004         36.5004
 118788104.09648  92562231.12945  22604637.6024   22604642.0004
        48.5004         31.8004
 119892558.11947  93422820.15745  22814783.0944   22814787.8134
        45.4004         32.3004
 10  5 10  1 29 30.0000000  0  9G03G28G19G11G07G23G08G13G06
 112653417.10248  87781941.50346  21437219.0474   21437223.3284
        49.3004         36.0004
 126144241.52347  98294276.93544  24004457.5234   24004462.5594
        44.8004         27.1004
 107548146.31348  83803895.33747  20465741.2344   20465742.9654
        49.3004         43.2004
 123993081.96547  96618055.68544  23595101.5474   23595106.5864
        45.3004         28.1004
 106571968.37148  83043069.63947  20279949.6254   20279953.2194
        50.1004         44.1004
 127127722.34946  99060570.20243  24191602.2664   24191606.8404
        41.5004         22.0004
 117066082.10247  91220289.94846  22276918.3284   22276923.8554
        47.3004         36.4004
 118888890.51048  92640765.94945  22623816.2974   22623821.5124
        48.1004         32.0004
 119981944.16147  93492471.59445  22831792.8204   22831797.5864
        45.1004         31.3004
 10  5 10  1 30  0.0000000  0  9G03G28G19G11G07G23G08G13G06
 112735605.64248  87845984.51746  21452859.2344   21452863.2504
        49.6004         36.6004
 126073616.43947  98239244.45744  23991018.4774   23991023.0704
        43.9004         26.2004
 107573881.37948  83823948.64647  20470638.0944   20470640.0084
        49.4004         43.1004
 123887604.20047  96535865.40144  23575029.6954   23575034.5864
        45.1004         28.3004
 106545453.78648  83022408.94247  20274904.5474   20274907.7344
        50.9004         43.9004
 127241466.89746  99149202.29443  24213247.9534   24213251.4574
        40.8004         20.4004
 116975108.19047  91149401.22146  22259606.9144   22259611.8054
        47.6004         36.4004
 118989933.43148  92719500.63145  22643044.4144   22643049.4694
        48.1004         32.1004
 120071535.28447  93562282.87045  22848841.2114   22848845.7814
        46.4004         31.8004
 10  5 10  1 30 30.0000000  0  9G03G28G19G11G07G23G08G13G06
 112818134.42948  87910292.66546  21468564.0084   21468568.3164
        49.5004         37.1004
 126003070.49547  98184273.63144  23977593.7274   23977598.8244
        44.1004         26.9004
 107600166.12948  83844430.28347  20475640.3204   20475642.0704
        48.2004         43.2004
 123782210.52847  96453740.60144  23554973.7504   23554978.6294
        45.4004         28.3004
 106519406.68948  83002112.51747  20269947.5634   20269951.0394
        50.8004         44.1004
 127355212.97546  99237835.58243  24234891.1804   24234897.3554
        39.3004         21.3004
 116884321.88448  91078658.68545  22242330.3054   22242335.7384
        48.8004         35.8004
 119091229.49548  92798432.58445  22662320.1884   22662325.0594
        48.6004         32.3004
 120161329.16047  93632252.11345  22865928.6414   22865933.1884
        45.9004         31.0004
 10  5 10  1 31  0.0000000  0  9G03G28G19G11G07G23G08G13G06
 112901001.73548  87974864.58546  21484333.2114   21484337.5044
        50.1004         37.0004
 125932604.44447  98129365.09044  23964184.7814   23964189.0944
        43.6004         26.9004
 107627000.00447  83865339.80747  20480746.4064   20480748.2974
        47.9004         43.0004
 123676904.77147  96371684.32344  23534934.8674   23534939.3094
        45.6004         28.5004
 106493829.94348  82982182.60147  20265080.4304   20265083.8444
        50.7004         44.5004
 127468958.94247  99326468.74543  24256538.2504   24256542.4804
        42.7004         22.3004
 116793726.24848  91008064.72246  22225090.8054   22225095.8754
        48.2004         36.7004
 119192776.69648  92877560.21745  22681644.0234   22681649.8164
        48.1004         32.9004
 120251324.50247  93702378.36245  22883054.1414   22883059.1764
        45.3004         30.9004
 10  5 10  1 31 30.0000000  0  9G03G28G19G11G07G23G08G13G06
 112984204.36348  88039697.81146  21500165.8674   21500170.2034
        49.9004         36.4004
 125862218.00647  98074518.55444  23950790.3674   23950795.2854
        44.5004         27.5004
 107654381.10447  83886675.73847  20485956.7584   20485959.0634
        47.9004         43.3004
 123571689.49047  96289698.55744  23514912.5944   23514917.5004
        44.3004         25.4004
 106468724.65848  82962620.06847  20260303.0704   20260306.6724
        50.5004         44.3004
 127582701.29447  99415099.14343  24278181.9144   24278186.8094
        42.4004         22.8004
 116703323.27947  90937620.88746  22207887.4924   22207892.7774
        47.9004         36.5004
 119294571.73748  92956880.98045  22701015.1024   22701020.1054
        48.2004         32.3004
 120341518.61947  93772659.50545  22900217.2584   22900221.8834
        46.6004         32.2004
 10  5 10  1 32  0.0000000  0  9G03G28G19G11G07G23G08G13G06
 113067738.59048  88104789.41546  21516061.9774   21516066.6914
        50.2004         36.7004
 125791909.93447  98019733.11744  23937410.6644   23937415.8404
        44.2004         27.7004
 107682306.72248  83908435.97647  20491270.7664   20491273.1134
        48.3004         43.3004
 123466566.35247  96207784.55944  23494908.3914   23494912.8954
        43.1004         25.6004
 106444091.33348  82943425.28447  20255615.3444   20255619.0704
        51.3004         44.4004
 127696436.16847  99503723.69344  24299825.4774   24299829.7814
        44.8004         25.5004
 116613114.11848  90867328.06846  22190721.7194   22190726.7894
        48.3004         36.3004
 119396609.52348  93036390.90745  22720431.7344   22720437.7584
        48.0004         31.9004
 120431908.30847  93843093.03044  22917417.9384   22917422.5784
        46.1004         29.9004
 10  5 10  1 32 30.0000000  0  9G03G28G19G11G07G23G08G13G06
 113151603.88648  88170139.00846  21532021.1414   21532025.1174
        50.0004         37.5004
 125721682.04747  97965010.15244  23924046.5704   23924052.1214
        44.7004         26.5004
 107710777.17447  83930620.74447  20496688.5864   20496690.9024
        47.9004         42.8004
 123361540.05547  96125946.01844  23474922.3834   23474926.3204
        43.4004         24.7004
 106419933.34048  82924600.89047  20251018.2194   20251022.0204
        50.5004         44.0004
 127810162.42147  99592341.55844  24321466.9774   24321471.3204
        46.1004         26.3004
 116523102.71248  90797189.35346  22173593.1334   22173597.6254
        48.5004         36.3004
 119498889.20447  93116089.30245  22739895.3914   22739900.6374
        46.2004         31.1004
 120522492.90447  93913678.44145  22934655.1884   22934660.2114
        45.5004         31.4004
 10  5 10  1 33  0.0000000  0  9G03G28G19G11G07G23G08G13G06
 113235796.80948  88235743.87546  21548042.2504   21548046.5634
        49.2004         36.3004
 125651533.55347  97910349.04144  23910698.1724   23910702.7154
        44.5004         26.7004
 107739789.87148  83953228.04047  20502209.7504   20502211.3204
        48.9004         43.4004
 123256612.56047  96044184.47744  23454954.6254   23454959.6994
        42.5004         24.0004
 106396251.47048  82906147.50147  20246512.0314   20246515.4344
        50.9004         44.1004
 127923876.31247  99680949.78244  24343106.5704   24343110.2624
        45.8004         27.3004
 116433290.86948  90727206.13646  22156502.6024   22156507.3164
        48.6004         36.6004
 119601406.73647  93195973.02945  22759403.5234   22759409.0634
        46.8004         30.7004
 120613269.63747  93984413.54244  22951929.7894   22951934.7424
        45.0004         29.7004
 10  5 10  1 33 30.0000000  0  9G03G28G19G11G07G23G08G13G06
 113320314.08948  88301601.49646  21564125.5394   21564129.8554
        49.9004         37.2004
 125581464.11847  97855749.54344  23897364.1414   23897368.8984
        45.0004         27.2004
 107769342.48248  83976256.06947  20507833.1254   20507835.2624
        49.9004         43.0004
 123151786.61547  95962502.04544  23435006.3284   23435011.2114
        42.5004         25.3004
 106373046.95448  82888066.07647  20242096.0314   20242099.5274
        51.0004         44.1004
 128037574.31347  99769545.62244  24364742.7734   24364746.6484
        46.0004         27.9004
 116343680.55048  90657379.94246  22139449.8134   22139454.6764
        49.4004         37.1004
 119704158.33647  93276039.17545  22778956.0784   22778962.3834
        46.1004         30.4004
 120704235.67747  94055296.18944  22969239.8444   22969244.1764
        44.7004         29.1004
 10  5 10  1 34  0.0000000  0  9G03G28G19G11G07G23G08G13G06
 113405153.98648  88367710.49746  21580270.0864   21580274.1644
        50.0004         37.3004
 125511473.92647  97801211.79944  23884045.5084   23884049.9844
        43.9004         27.5004
 107799434.48448  83999704.39147  20513559.4694   20513561.5554
        49.6004         43.0004
 123047065.66747  95880901.43244  23415079.1254   23415083.6214
        42.2004         25.2004
 106350321.97048  82870358.31147  20237771.7734   20237775.1914
        50.5004         43.9004
 128151254.63447  99858127.75143  24386374.5314   24386379.3794
        42.5004         23.6004
 116254275.34448  90587713.60146  22122436.7814   22122441.5864
        49.5004         37.1004
 119807141.32847  93356285.59444  22798553.9614   22798558.8364
        46.6004         29.8004
 120795389.31747  94126324.99244  22986586.1254   22986590.5984
        45.4004         29.9004
 10  5 10  1 34 30.0000000  0  9G03G28G19G11G07G23G08G13G06
 113490312.94448  88434068.14046  21596475.0864   21596478.8874
        50.7004         37.6004
 125441562.36247  97746735.31644  23870742.2584   23870746.7034
        44.6004         26.9004
 107830063.34248  84023571.04047  20519388.0084   20519389.4264
        49.4004         43.0004
 122942452.12347  95799384.50143  23395171.7664   23395175.8834
        43.5004         22.8004
 106328077.22548  82853024.75747  20233538.5784   20233542.2774
        51.5004         44.0004
 128264913.71346  99946693.24343  24408002.4844   24408007.8134
        41.5004         22.9004
 116165076.48048  90518208.02646  22105462.7274   22105467.6094
        49.4004         36.8004
 119910351.50547  93436709.06145  22818193.8594   22818199.3484
        46.7004         30.8004
 120886727.60747  94197497.67344  23003966.9924   23003971.3524
        44.5004         29.1004
 10  5 10  1 35  0.0000000  0  9G03G28G19G11G07G23G08G13G06
 113575788.51748  88500672.46946  21612740.5634   21612745.0784
        49.2004         36.9004
 125371729.97047  97692320.51844  23857453.1954   23857457.6994
        44.7004         27.4004
 107861227.43248  84047854.75547  20525317.9844   20525320.4454
        50.2004         42.9004
 122837949.40947  95717953.88944  23375285.9064   23375290.1414
        43.9004         25.1004
 106306314.36748  82836066.70547  20229397.3204   20229401.1254
        51.3004         44.1004
 128378548.55146 100035239.83543  24429627.1724   24429632.3054
        40.3004         22.5004
 116076086.29848  90448865.07246  22088528.2894   22088533.6054
        48.7004         37.1004
 120013786.02547  93517307.34344  22837877.2504   22837882.3794
        47.3004         29.7004
 120978248.65247  94268812.80844  23021382.5474   23021387.1174
        44.8004         28.2004
 10  5 10  1 35 30.0000000  0  9G03G28G19G11G07G23G08G13G06
 113661579.87448  88567522.88146  21629066.2734   21629070.5984
        49.5004         36.4004
 125301978.03747  97637968.41744  23844179.6954   23844184.7664
        44.6004         27.6004
 107892926.96248  84072555.70247  20531350.4534   20531352.7154
        50.2004         43.1004
 122733561.14347  95636612.50944  23355421.1254   23355426.2384
        44.1004         26.9004
 106285036.78648  82819486.79147  20225348.1174   20225352.0434
        50.8004         44.2004
 128492158.12946 100123766.71143  24451245.7274   24451250.8324
        40.0004         20.1004
 115987309.42548  90379688.33946  22071634.5784   22071639.5514
        48.2004         36.6004
 120117443.39647  93598079.29745  22857602.6254   22857607.6564
        47.8004         30.7004
 121069951.84947  94340269.83744  23038833.5004   23038838.0634
        44.5004         27.4004
 10  5 10  1 36  0.0000000  0  9G03G28G19G11G07G23G08G13G06
 113747682.74348  88634616.02746  21645451.4774   21645455.6414
        49.6004         37.2004
 125232305.16547  97583677.90944  23830921.4144   23830926.4694
        45.3004         26.9004
 107925158.70748  84097671.35547  20537484.1644   20537486.3244
        49.4004         43.2004
 122629289.08047  95555361.65044  23335579.0084   23335583.9774
        45.2004         28.3004
 106264244.57148  82803285.07747  20221391.7194   20221395.3364
        50.8004         44.0004
 128605737.78546 100212270.32843  24472859.4304   24472864.5204
        39.9004         22.9004
 115898746.54748  90310678.34946  22054781.4384   22054786.4224
        48.1004         36.6004
 120221318.88547  93679021.19945  22877369.9774   22877374.6334
        46.7004         31.5004
 121161833.45947  94411865.89444  23056318.1174   23056322.7424
        44.6004         27.5004
 10  5 10  1 36 30.0000000  0  9G03G28G19G11G07G23G08G13G06
 113834095.17548  88701950.38846  21661894.7894   21661898.9924
        49.3004         36.5004
 125162711.86147  97529449.41944  23817678.0784   23817683.1134
        45.0004         28.0004
 107957921.44748  84123200.77547  20543718.5474   20543720.7894
        50.3004         43.1004
 122525136.94647  95474204.24944  23315759.1484   23315764.4844
        45.1004         29.3004
 106243939.13948  82787462.67747  20217527.4454   20217531.2544
        50.4004         44.2004
 128719285.87646 100300749.31543  24494467.2194   24494472.4884
        41.4004         22.3004
 115810401.03048  90241837.74846  22037969.8524   22037975.1054
        48.1004         36.9004
 120325409.92447  93760131.06445  22897177.4694   22897182.7934
        47.5004         30.5004
 121253891.94647  94483599.78944  23073835.9384   23073840.5514
        43.0004         27.6004
 10  5 10  1 37  0.0000000  0  9G03G28G19G11G07G23G08G13G06
 113920813.92548  88769523.43346  21678396.6024   21678401.0274
        49.0004         36.4004
 125093197.07147  97475282.11144  23804450.3914   23804455.0354
        44.6004         27.3004
 107991212.40948  84149141.79547  20550053.3594   20550055.3524
        50.2004         43.1004
 122421106.88847  95393141.97644  23295962.9844   23295967.6564
        45.6004         29.5004
 106224121.48248  82772020.35747  20213756.3984   20213759.8284
        50.6004         44.0004
 128832798.21747 100389200.49943  24516068.1804   24516072.2854
        43.3004         21.8004
 115722273.90748  90173167.30446  22021199.7974   22021204.9964
        48.6004         36.6004
 120429712.06447  93841405.45445  22917025.5314   22917030.8284
        46.7004         30.2004
 121346124.02447  94555468.95144  23091387.2114   23091391.5204
        42.9004         27.9004
 10  5 10  1 37 30.0000000  0  9G03G28G19G11G07G23G08G13G06
 114007835.86948  88837332.72646  21694956.4064   21694960.8754
        48.7004         36.5004
 125023760.81747  97421175.99844  23791236.4844   23791241.5904
        44.3004         26.7004
 108025029.60948  84175492.86547  20556488.3754   20556490.6724
        48.8004         42.7004
 122317201.56947  95312176.88844  23276190.0554   23276194.8794
        46.0004         29.3004
 106204793.04848  82756959.25947  20210078.0704   20210081.7974
        50.7004         44.1004
 128946271.80547 100477621.47843  24537661.5084   24537665.5314
        43.3004         21.8004
 115634367.55747  90104668.89146  22004471.4924   22004476.3954
        47.5004         36.3004
 120534221.99047  93922841.72944  22936912.7424   22936918.5474
        45.2004         29.9004
 121438527.40346  94627471.59244  23108970.6644   23108975.4654
        40.8004         25.8004
 10  5 10  1 38  0.0000000  0  9G03G28G19G11G07G23G08G13G06
 114095160.66248  88905378.01245  21711574.2584   21711578.1914
        49.0004         35.8004
 124954405.11647  97367132.64244  23778038.2734   23778043.5004
        43.6004         28.0004
 108059373.45748  84202254.32547  20563024.3914   20563026.2854
        49.5004         42.9004
 122213426.17747  95231313.05444  23256442.5634   23256446.9654
        45.0004         29.3004
 106185957.28948  82742282.05747  20206493.7814   20206497.4964
        50.3004         43.9004
 129059705.96647 100566011.72443  24559247.2114   24559250.8674
        44.1004         22.2004
 115546686.41348  90036345.95646  21987786.5394   21987791.6024
        48.0004         36.3004
 120638938.69347  94004439.13145  22956840.0394   22956845.4144
        46.0004         31.2004
 121531102.01246  94699607.65844  23126587.1804   23126591.9774
        41.7004         27.9004
 10  5 10  1 38 30.0000000  0  9G03G28G19G11G07G23G08G13G06
 114182783.65348  88973655.67345  21728247.7814   21728252.1644
        48.4004         35.4004
 124885128.07147  97313150.58944  23764856.0314   23764860.1374
        43.2004         26.7004
 108094240.66848  84229423.58647  20569658.9614   20569661.2154
        49.5004         42.6004
 122109781.51047  95150551.10644  23236719.3834   23236724.8164
        44.5004         29.7004
 106167613.62348  82727988.30347  20203003.1724   20203006.8714
        50.3004         44.3004
 129173096.09047 100654367.67643  24580825.2734   24580828.7734
        45.5004         22.2004
 115459231.58547  89968199.37646  21971144.2344   21971149.0314
        47.7004         36.8004
 120743857.09247  94086193.69945  22976805.1334   22976811.0394
        44.9004         30.9004
 121623843.63546  94771873.85344  23144235.5314   23144239.8954
        41.8004         25.3004
 10  5 10  1 39  0.0000000  0  9G03G28G19G11G07G23G08G13G06
 114270702.74647  89042164.05345  21744978.0864   21744982.8914
        47.8004         35.6004
 124815930.02847  97259230.08744  23751687.0084   23751692.4494
        43.7004         27.0004
 108129629.30548  84256999.15747  20576393.1644   20576395.3324
        49.7004         42.5004
 122006270.87047  95069893.56544  23217021.4304   23217026.5124
        45.0004         28.3004
 106149763.98848  82714079.51147  20199606.5314   20199609.9804
        49.8004         44.8004
 129286439.63047 100742687.28843  24602393.2974   24602397.2734
        44.4004         22.5004
 115372005.44148  89900230.99446  21954545.8524   21954550.5594
        48.0004         36.0004
 120848974.02847  94168102.94145  22996808.3134   22996814.4494
        45.0004         31.0004
 121716750.63947  94844268.93644  23161914.5554   23161920.9414
        42.1004         27.8004
 10  5 10  1 39 30.0000000  0  9G03G28G19G11G07G23G08G13G06
 114358915.47348  89110901.25045  21761764.6484   21761768.8364
        48.6004         35.7004
 124746811.58747  97205371.62744  23738534.1644   23738539.6054
        43.9004         27.7004
 108165538.15848  84284980.08747  20583226.4694   20583228.3554
        49.7004         42.4004
 121902898.04647  94989343.40544  23197350.2814   23197354.6254
        44.1004         27.5004
 106132410.60048  82700557.41547  20196304.0234   20196307.9414
        48.9004         44.0004
 129399734.44247 100830968.94444  24623952.7734   24623956.7544
        45.4004         25.0004
 115285010.99548  89832443.16046  21937991.0634   21937995.9694
        48.4004         36.1004
 120954287.01147  94250164.96845  23016848.8914   23016854.2624
        44.7004         31.2004
 121809821.42147  94916791.58444  23179625.5704   23179631.0234
        42.3004         27.8004
 10  5 10  1 40  0.0000000  0  9G03G28G19G11G07G23G08G13G06
 114447419.33548  89179865.30345  21778606.5704   21778610.7854
        48.1004         35.1004
 124677772.23647  97151574.77944  23725396.9534   23725401.7704
        43.7004         27.9004
 108201965.13548  84313364.74947  20590158.6094   20590160.4024
        49.5004         42.2004
 121799665.33947  94908902.45144  23177705.5784   23177710.5704
        42.9004         27.0004
 106115553.58248  82687422.08847  20193096.6644   20193100.2074
        50.0004         44.3004
 129512977.08647 100919209.91344  24645502.1724   24645506.1564
        44.9004         25.6004
 115198250.39648  89764837.53646  21921481.0944   21921486.2734
        49.6004         37.0004
 121059792.30847  94332376.84045  23036925.3754   23036931.1414
        44.4004         30.0004
 121903053.13047  94989439.69644  23197366.9304   23197371.9224
        42.8004         27.3004
 10  5 10  1 40 30.0000000  0  9G03G28G19G11G07G23G08G13G06
 114536211.90847  89249054.30145  21795503.0784   21795507.0784
        47.8004         34.4004
 124608811.72547  97097839.36844  23712274.1334   23712278.7074
        43.7004         26.4004
 108238908.17848  84342151.54647  20597188.4844   20597190.3094
        50.0004         42.1004
 121696575.64147  94828572.89744  23158088.6724   23158093.1454
        43.5004         26.9004
 106099194.52048  82674674.77747  20189983.5864   20189987.5554
        50.1004         44.1004
 129626164.99147 101007408.18943  24667041.0314   24667045.5904
        42.6004         22.5004
 115111726.34748  89697416.24146  21905016.2424   21905020.8714
        49.0004         36.4004
 121165486.69147  94414736.06244  23057038.6804   23057044.0164
        44.7004         28.9004
 121996443.68447  95062211.53545  23215139.4614   23215144.1214
        44.1004         30.2004
 10  5 10  1 41  0.0000000  0  9G03G28G19G11G07G23G08G13G06
 114625289.95747  89318465.78445  21812453.7194   21812458.1684
        47.0004         33.5004
 124539930.06447  97044165.41344  23699165.9304   23699171.0904
        43.6004         27.0004
 108276365.64448  84371339.19347  20604316.3204   20604317.9844
        50.2004         42.0004
 121593631.71247  94748356.93544  23138499.0864   23138503.1804
        42.8004         26.0004
 106083335.22448  82662316.90247  20186965.3754   20186968.9654
        50.2004         44.5004
 129739295.34847 101095561.64843  24688569.0004   24688573.7384
        42.5004         22.0004
 115025441.23948  89630181.12346  21888596.8284   21888601.6604
        49.0004         36.6004
 121271366.84747  94497240.04745  23077187.0704   23077192.5704
        46.0004         30.4004
 122089990.95847  95135105.50044  23232940.5004   23232944.9654
        44.0004         27.9004
 10  5 10  1 41 30.0000000  0  9G03G28G19G11G07G23G08G13G06
 114714651.44547  89388098.09145  21829459.3284   21829462.9454
        47.7004         33.2004
 124471127.70247  96990553.25544  23686073.6564   23686078.5044
        45.1004         28.7004
 108314335.24548  84400925.91246  20611541.3834   20611543.4304
        50.1004         41.7004
 121490836.96747  94668257.22744  23118937.2344   23118942.1644
        43.9004         27.2004
 106067977.12648  82650349.56947  20184042.8834   20184046.5984
        50.8004         44.1004
 129852365.38946 101183668.14543  24710085.3594   24710090.2934
        40.5004         21.5004
 114939397.74048  89563134.25946  21872223.7664   21872228.1214
        49.8004         36.3004
 121377429.25747  94579886.01544  23097370.3984   23097375.7894
        45.6004         29.1004
 122183692.82047  95208119.97644  23250771.1174   23250776.0434
        43.8004         29.2004
 10  5 10  1 42  0.0000000  0  9G03G28G19G11G07G23G08G13G06
 114804294.02747  89457949.46245  21846517.5314   21846521.0514
        47.9004         32.8004
 124402404.80947  96937003.00244  23672995.9614   23673000.8954
        44.7004         27.7004
 108352815.99048  84430910.90446  20618864.2504   20618866.0864
        50.3004         41.8004
 121388194.86747  94588276.43144  23099405.0634   23099410.3874
        44.1004         27.6004
 106053121.95048  82638774.12447  20181215.8674   20181219.6484
        50.2004         44.4004
 129965373.08246 101271725.95443  24731590.1024   24731595.1564
        38.4004         20.6004
 114853598.53548  89496277.76546  21855896.2424   21855900.7894
        49.5004         36.5004
 121483671.58547  94662672.21744  23117587.4694   23117592.9534
        47.0004         29.6004
 122277547.89647  95281253.79044  23268631.5634   23268636.2664
        44.0004         29.2004
 10  5 10  1 42 30.0000000  0  9G03G28G19G11G07G23G08G13G06
 114894214.92047  89528017.68045  21863629.1484   21863632.1884
        47.6004         32.7004
 124333761.31947  96883514.64144  23659933.7664   23659938.1724
        44.5004         28.2004
 108391806.06148  84461292.78746  20626283.5784   20626285.7934
        50.7004         41.6004
 121285707.99647  94508416.59344  23079902.7664   23079906.4494
        42.2004         27.1004
 106038770.47448  82627591.16847  20178485.1024   20178488.6174
        50.5004         44.6004
 130078315.31446 101359732.79443  24753082.3444   24753087.2704
        41.3004         21.1004
 114768046.23148  89429613.65045  21839616.1174   21839620.5664
        49.5004         35.8004
 121590091.02347  94745596.44745  23137838.3914   23137843.6684
        46.7004         30.0004
 122371553.52447  95354504.92445  23286519.9384   23286524.6454
        43.8004         30.0004
 10  5 10  1 43  0.0000000  0  9G03G28G19G11G07G23G08G13G06
 114984410.93647  89598300.30445  21880792.8754   21880796.9924
        47.4004         33.4004
 124265196.32547  96830087.44144  23646886.2344   23646890.6214
        44.6004         28.6004
 108431302.86948  84492069.52747  20633799.6884   20633801.7344
        51.0004         42.2004
 121183378.79147  94428679.61944  23060430.3444   23060434.3284
        44.7004         28.5004
 106024923.70248  82616801.49047  20175850.1484   20175854.0904
        50.9004         45.0004
 130191188.53747 101447685.88543  24774562.1804   24774566.2384
        42.2004         20.1004
 114682742.75948  89363143.44046  21823383.5474   21823387.8054
        49.6004         36.7004
 121696683.00047  94828655.11044  23158122.3674   23158127.5084
        47.8004         28.9004
 122465706.94647  95427871.24244  23304437.1414   23304441.5044
        44.0004         27.6004
 10  5 10  1 43 30.0000000  0  9G03G28G19G11G07G23G08G13G06
 115074880.25347  89668795.89045  21898008.3134   21898011.9884
        47.6004         33.2004
 124196710.89247  96776722.21344  23633853.5554   23633858.1524
        44.1004         28.1004
 108471304.75148  84523239.83846  20641411.5704   20641413.6334
        51.2004         41.8004
 121081210.93947  94349068.36244  23040988.0394   23040992.6724
        45.1004         28.9004
 106011583.73148  82606406.71747  20173311.6024   20173315.5474
        51.1004         44.9004
 130303991.09847 101535583.91643  24796027.5474   24796031.8444
        44.8004         21.8004
 114597690.92848  89296869.32046  21807198.5864   21807203.0314
        49.3004         36.5004
 121803444.67747  94911846.02144  23178438.5474   23178443.5124
        46.8004         29.7004
 122560007.03447  95501351.81845  23322381.5314   23322386.8364
        44.9004         30.5004
 10  5 10  1 44  0.0000000  0  9G03G28G19G11G07G23G08G13G06
 115165619.21348  89739501.57845  21915275.5474   21915280.1294
        48.0004         34.4004
 124128303.91347  96723418.12644  23620836.2504   23620841.0434
        43.6004         27.7004
 108511808.51148  84554801.21446  20649119.3284   20649121.2854
        50.5004         41.3004
 120979206.23947  94269584.24944  23021577.5164   23021581.6414
        44.9004         29.7004
 105998750.45348  82596406.77047  20170869.7274   20170873.2544
        51.4004         44.9004
 130416718.98647 101623423.85843  24817478.5314   24817483.1684
        45.3004         20.6004
 114512892.83248  89230792.91446  21791062.1414   21791066.3134
        50.0004         36.9004
 121910372.50247  94995166.39644  23198785.8754   23198790.8794
        46.6004         28.5004
 122654450.39047  95574944.04744  23340353.4924   23340357.9144
        44.9004         28.9004
 10  5 10  1 44 30.0000000  0  9G03G28G19G11G07G23G08G13G06
 115256627.22848  89810416.92645  21932593.5474   21932597.6764
        48.8004         33.4004
 124059977.02947  96670176.45044  23607833.9614   23607838.9844
        43.9004         28.5004
 108552814.33248  84586753.80746  20656922.5394   20656924.5704
        50.5004         41.1004
 120877369.76347  94190231.22345  23002198.4144   23002203.0354
        45.6004         30.5004
 105986427.09748  82586804.17447  20168524.5234   20168528.3134
        51.2004         44.9004
 130529371.21747 101711204.84543  24838915.8984   24838919.9924
        46.0004         19.6004
 114428352.49748  89164917.36846  21774974.4614   21774978.7114
        50.0004         37.3004
 122017464.51347  95078614.68944  23219164.8204   23219170.0864
        44.2004         27.8004
 122749036.66747  95648647.65544  23358352.6884   23358357.8794
        45.0004         29.3004
 10  5 10  1 45  0.0000000  0  9G03G28G19G11G07G23G08G13G06
 115347900.28848  89881538.80645  21949962.2894   21949966.5904
        48.3004         34.2004
 123991728.70347  96616995.99544  23594846.1954   23594851.5704
        42.9004         26.4004
 108594318.90848  84619095.04246  20664820.4924   20664822.4144
        50.5004         41.4004
 120775702.93247  94111010.36944  22982851.8984   22982856.0124
        45.1004         29.3004
 105974613.75548  82577598.98347  20166277.0634   20166280.1214
        51.0004         45.0004
 130641943.92247 101798923.94542  24860338.2274   24860340.5704
        45.4004         17.8004
 114344071.38648  89099243.81046  21758936.2504   21758940.9344
        49.9004         36.9004
 122124716.16547  95162187.37444  23239574.4534   23239579.3134
        43.9004         27.4004
 122843762.30547  95722459.83244  23376378.0004   23376383.3554
        43.5004         29.4004
 10  5 10  1 45 30.0000000  0  9G03G28G19G11G07G23G08G13G06
 115439436.24048  89952865.52745  21967381.0234   21967385.5864
        48.2004         34.6004
 123923559.59347  96563877.25944  23581874.3364   23581879.4804
        42.2004         27.5004
 108636320.76648  84651823.77046  20672813.0944   20672815.3094
        50.8004         41.2004
 120674209.17347  94031924.41644  22963537.5554   22963542.4694
        44.6004         29.3004
 105963311.68148  82568792.18547  20164126.1724   20164129.3834
        50.8004         45.2004
 130754434.80047 101886579.20743  24881743.8134   24881747.2704
        43.2004         20.6004
 114260051.74948  89033774.00046  21742947.9614   21742952.6564
        50.1004         37.7004
 122232124.75747  95245882.37344  23260013.1884   23260018.1054
        43.6004         28.3004
 122938625.76347  95796379.41144  23394430.3984   23394435.0084
        44.7004         28.1004
 10  5 10  1 46  0.0000000  0  9G03G28G19G11G07G23G08G13G06
 115531232.38548  90024395.01745  21984849.2114   21984853.0314
        48.5004         34.3004
 123855469.99247  96510820.48544  23568917.4774   23568922.0124
        43.3004         27.0004
 108678817.77948  84684938.34246  20680900.1024   20680902.1954
        50.5004         41.9004
 120572891.41647  93952975.59544  22944257.5234   22944262.0044
        45.6004         29.3004
 105952522.38148  82560384.94747  20162072.6174   20162076.1054
        50.8004         45.4004
 130866841.08946 101974168.54843  24903134.2584   24903137.7274
        40.9004         20.4004
 114176296.70648  88968510.36246  21727009.8134   21727014.0354
        50.2004         37.3004
 122339687.28447  95329697.27444  23280481.7664   23280487.3594
        42.6004         27.9004
 123033625.16947  95870404.93744  23412507.8444   23412512.6414
        43.6004         28.8004
 10  5 10  1 46 30.0000000  0  9G03G28G19G11G07G23G08G13G06
 115623286.56048  90096125.52345  22002366.4774   22002371.1994
        48.5004         34.0004
 123787459.98547  96457825.73944  23555975.5554   23555980.2034
        42.6004         28.2004
 108721808.12448  84718437.31046  20689080.8364   20689083.0044
        50.8004         41.8004
 120471753.04647  93874166.56444  22925011.4454   22925016.3014
        45.0004         29.6004
 105942247.18148  82552378.30547  20160117.2274   20160121.1094
        50.8004         44.9004
 130979160.44646 102061690.15743  24924507.8754   24924512.1254
        38.8004         21.1004
 114092808.79748  88903454.89246  21711122.3834   21711127.2704
        49.5004         37.6004
 122447400.41147  95413629.55444  23300978.6334   23300984.4304
        42.7004         26.1004
 123128758.38147  95944534.68344  23430611.2194   23430616.1764
        44.3004         27.4004
 10  5 10  1 47  0.0000000  0  9G03G28G19G11G07G23G08G13G06
 115715595.36848  90168054.46145  22019932.3524   22019936.8874
        48.6004         34.3004
 123719528.75047  96404892.37044  23543049.0084   23543053.0704
        42.7004         28.2004
 108765289.16748  84752318.64946  20697355.4774   20697357.2194
        51.2004         41.6004
 120370796.36947  93795499.11344  22905799.7974   22905804.4774
        43.8004         29.1004
 105932486.62548  82544772.69947  20158260.1094   20158263.1454
        49.9004         44.8004
 131091389.14846 102149141.11343  24945864.3524   24945868.2504
        36.7004         20.1004
 114009590.24648  88838609.29946  21695286.3674   21695291.0394
        50.7004         38.2004
 122555260.53347  95497676.40044  23321504.4614   23321509.0984
        44.1004         26.6004
 123224022.81947  96018766.70944  23448738.7974   23448744.2894
        43.6004         27.3004
 10  5 10  1 47 30.0000000  0  9G03G28G19G11G07G23G08G13G06
 115808157.33048  90240180.69745  22037546.1484   22037550.4224
        49.1004         34.8004
 123651676.90847  96352020.86844  23530136.9304   23530141.6414
        43.8004         28.4004
 108809259.82048  84786581.50846  20705722.6414   20705724.6414
        51.0004         41.4004
 120270025.04947  93716976.08644  22886623.7114   22886628.1914
        44.9004         29.8004
 105923243.13448  82537569.99447  20156500.6954   20156504.6994
        50.3004         45.1004
 131203525.87646 102236520.41343  24967202.3524   24967207.6564
        38.5004         19.6004
 113926644.52348  88773976.30846  21679502.5634   21679506.9264
        49.8004         37.7004
 122663265.31447  95581835.94944  23342056.7814   23342062.4884
        43.5004         28.3004
 123319417.20647  96093099.98944  23466892.5474   23466896.9924
        42.9004         27.9004
 10  5 10  1 48  0.0000000  0  8G03G28G19G11G07G08G13G06
 115900971.11848  90312503.11745  22055208.2274   22055212.6604
        48.0004         35.4004
 123583906.43347  96299212.74544  23517240.2584   23517244.6884
        45.3004         29.0004
 108853719.43948  84821225.37546  20714183.0554   20714184.6174
        51.5004         41.8004
 120169443.59647  93638600.99644  22867484.4924   22867488.6214
        45.0004         29.5004
 105914518.75548  82530771.77647  20154840.6254   20154844.1054
        50.2004         44.9004
 113843975.36548  88709558.81646  21663771.0554   21663775.7544
        50.8004         38.2004
 122771412.62647  95666106.54044  23362636.2424   23362642.2344
        43.7004         28.5004
 123414940.79246  96167533.91944  23485069.7424   23485074.4964
        40.5004         26.9004
 10  5 10  1 48 30.0000000  0  8G03G28G19G11G07G08G13G06
 115994033.01948  90385018.90445  22072917.3754   22072921.4304
        49.7004         34.5004
 123516215.68147  96246466.75344  23504359.5164   23504363.6684
        44.8004         27.4004
 108898664.22548  84856247.29746  20722735.3674   20722737.3554
        50.7004         41.7004
 120069053.41347  93560374.93445  22848380.8914   22848384.9344
        44.1004         30.0004
 105906313.31148  82524377.94247  20153279.2974   20153282.8794
        50.0004         44.9004
 113761583.85648  88645357.68746  21648092.5314   21648096.8164
        50.5004         38.1004
 122879698.10447  95750484.82144  23383242.4064   23383247.5084
        44.2004         28.1004
 123510590.18047  96242065.91044  23503270.7664   23503275.2504
        43.2004         24.7004
 10  5 10  1 49  0.0000000  0  8G03G28G19G11G07G08G13G06
 116087339.31448  90457725.11045  22090673.2274   22090677.3094
        48.1004         35.2004
 123448603.53347  96193781.99544  23491492.9924   23491497.6134
        45.0004         28.9004
 108944091.20548  84891644.95146  20731380.1254   20731381.5904
        50.7004         41.7004
 119968856.50847  93482299.49845  22829313.6174   22829317.7274
        44.7004         30.9004
 105898626.56048  82518388.27347  20151816.6644   20151820.0204
        51.2004         45.1004
 113679471.54048  88581374.10146  21632466.9144   21632471.3714
        50.5004         39.0004
 122988117.34947  95834967.31644  23403874.0634   23403879.6294
        42.9004         27.3004
 123606362.15447  96316693.41544  23521496.2344   23521500.8404
        42.8004         26.6004
 10  5 10  1 49 30.0000000  0  8G03G28G19G11G07G08G13G06
 116180887.56948  90530619.84945  22108474.9224   22108478.9184
        48.8004         35.0004
 123381069.96047  96141158.47044  23478642.1024   23478646.8364
        45.7004         28.7004
 108989998.39148  84927416.78946  20740116.0704   20740117.7894
        50.7004         41.6004
 119868855.87647  93404376.99144  22810284.2664   22810287.8134
        45.5004         29.1004
 105891459.64748  82512803.67947  20150452.6174   20150456.1994
        50.3004         45.0004
 113597641.28748  88517610.31046  21616895.1954   21616899.5554
        50.5004         38.5004
 123096667.25747  95919551.62144  23424530.2974   23424535.9774
        43.4004         25.6004
 123702254.71047  96391414.88844  23539743.8984   23539747.9844
        43.0004         26.2004
 10  5 10  1 50  0.0000000  0  8G03G28G19G11G07G08G13G06
 116274676.35347  90603702.00545  22126322.1804   22126326.6484
        47.6004         34.1004
 123313616.15347  96088597.09744  23465805.9224   23465810.2424
        44.6004         28.4004
 109036384.97748  84963562.19846  20748942.9534   20748944.8914
        50.9004         41.8004
 119769055.69647  93326610.67644  22791292.7194   22791296.7854
        45.0004         29.0004
 105884815.41348  82507626.36947  20149188.4064   20149192.0124
        50.6004         44.9004
 113516096.45448  88454068.91646  21601377.6254   21601382.3674
        51.0004         38.6004
 123205345.76147  96004236.11744  23445211.1954   23445216.5004
        42.7004         26.9004
 123798267.04447  96466229.65944  23558014.4774   23558019.0084
        42.6004         25.9004
 10  5 10  1 50 30.0000000  0  8G03G28G19G11G07G08G13G06
 116368702.49147  90676969.12145  22144214.5084   22144219.1454
        47.0004         33.5004
 123246241.81347  96036097.65144  23452985.0864   23452989.4774
        44.1004         28.9004
 109083248.05948  85000078.89546  20757860.7584   20757862.9454
        50.1004         41.6004
 119669458.40647  93249002.44244  22772339.5004   22772344.0394
        43.5004         29.3004
 105878694.38648  82502856.73847  20148023.7584   20148027.0084
        51.0004         45.1004
 113434839.13048  88390751.55246  21585914.6254   21585919.3634
        51.0004         38.4004
 123314148.90047  96089017.76444  23465916.3594   23465921.5394
        42.4004         26.7004
 123894396.32347  96541135.60844  23576307.4534   23576311.5004
        43.5004         25.3004
 10  5 10  1 51  0.0000000  0  8G03G28G19G11G07G08G13G06
 116462963.61547  90750419.35945  22162151.3754   22162156.5904
        47.5004         34.2004
 123178946.74447  95983659.98444  23440179.2584   23440183.3554
        42.9004         29.8004
 109130585.49448  85036965.22146  20766868.7424   20766870.6524
        49.7004         41.6004
 119570067.07747  93171554.72044  22753425.8914   22753430.4414
        44.2004         29.6004
 105873097.13748  82498495.26247  20146958.5004   20146961.8524
        49.8004         44.7004
 113353872.32848  88327660.57846  21570507.3284   21570511.6054
        51.0004         38.8004
 123423073.65247  96173894.16244  23486643.0164   23486649.0474
        43.0004         26.4004
 123990640.93347  96616131.38644  23594622.2814   23594626.2154
        42.1004         24.0004
 10  5 10  1 51 30.0000000  0  8G03G28G19G11G07G08G13G06
 116557456.91547  90824050.49345  22180133.1174   22180138.0164
        44.5004         33.8004
 123111730.33947  95931283.59744  23427388.4614   23427392.4344
        43.8004         29.2004
 109178394.70948  85074219.16446  20775966.1724   20775968.2774
        49.8004         41.5004
 119470884.32447  93094269.53845  22734552.2894   22734556.5234
        45.5004         30.7004
 105868024.15248  82494542.30047  20145993.0234   20145996.5124
        49.2004         44.7004
 113273197.46748  88264797.08546  21555155.5004   21555159.8444
        50.2004         37.9004
 123532116.44247  96258862.50644  23507394.1414   23507399.2624
        42.6004         24.8004
 124086998.27947  96691215.02344  23612959.0474   23612962.4024
        43.6004         28.1004
 10  5 10  1 52  0.0000000  0  8G03G28G19G11G07G08G13G06
 116652181.02147  90897861.48545  22198158.4144   22198163.8404
        46.3004         33.6004
 123044594.74747  95878970.19244  23414613.0554   23414617.3134
        43.7004         29.3004
 109226675.40548  85111840.50046  20785153.9614   20785156.0124
        49.6004         41.4004
 119371914.42147  93017150.17745  22715719.0314   22715723.1954
        44.7004         30.2004
 105863478.36448  82491000.14647  20145127.8524   20145131.4184
        50.2004         45.0004
 113192819.30548  88202164.78246  21539860.1174   21539864.5164
        50.5004         38.1004
 123641275.57747  96343921.52444  23528165.6564   23528171.9064
        42.2004         26.8004
 124183467.47647  96766385.87044  23631316.4144   23631320.1214
        43.8004         24.5004
 10  5 10  1 52 30.0000000  0  8G03G28G19G11G07G08G13G06
 116747132.99047  90971850.01045  22216227.3984   22216233.3674
        46.6004         34.5004
 122977538.50947  95826718.62144  23401852.2664   23401856.6024
        45.1004         29.8004
 109275424.19748  85149826.57046  20794430.6804   20794432.3364
        49.9004         41.1004
 119273159.45947  92940198.32045  22696925.4144   22696930.7934
        44.8004         30.9004
 105859459.68848  82487868.72047  20144363.4384   20144367.0904
        51.7004         45.2004
 113112739.58248  88139765.03846  21524621.1254   21524625.7034
        50.6004         38.8004
 123750546.77247  96429067.89744  23548960.2504   23548965.5164
        43.8004         26.5004
 124280045.76547  96841641.64943  23649693.8284   23649698.5554
        42.6004         22.9004
 10  5 10  1 53  0.0000000  0  8G03G28G19G11G07G08G13G06
 116842309.64847  91046013.67045  22234338.5704   22234343.4884
        44.7004         34.2004
 122910561.53447  95774528.81845  23389107.0704   23389111.1954
        45.0004         30.2004
 109324638.64548  85188175.50146  20803796.1024   20803797.6764
        49.8004         41.2004
 119174622.27947  92863416.19845  22678175.4614   22678179.6994
        45.7004         32.0004
 105855968.79948  82485148.54647  20143699.3444   20143702.0274
        51.5004         45.0004
 113032960.52948  88077599.56846  21509439.7734   21509443.8754
        51.0004         38.6004
 123859926.76947  96514299.07744  23569773.7734   23569779.1254
        43.6004         25.2004
 124376730.96947  96916980.79144  23668093.0634   23668097.6524
        44.3004         25.9004
 10  5 10  1 53 30.0000000  0  8G03G28G19G11G07G08G13G06
 116937709.44147  91120351.13945  22252492.8674   22252498.1054
        46.6004         33.6004
 122843664.36247  95722401.19345  23376377.0554   23376381.5704
        45.7004         30.6004
 109374317.17348  85226886.05446  20813249.6174   20813250.8954
        49.6004         40.9004
 119076306.09947  92786806.24545  22659466.3204   22659470.3244
        46.1004         32.6004
 105853007.51148  82482841.05247  20143135.8754   20143139.0784
        51.8004         45.3004
 112953484.93048  88015670.57946  21494316.0164   21494320.5824
        51.1004         38.5004
 123969412.86647  96599612.87743  23590608.5784   23590613.3364
        42.8004         22.9004
 124473521.62947  96992402.08843  23686510.3914   23686515.5824
        43.2004         22.6004
 10  5 10  1 54  0.0000000  0  8G03G28G19G11G07G08G13G06
 117033329.57947  91194860.35245  22270688.6804   22270693.8874
        44.8004         32.1004
 122776846.87547  95670335.65845  23363662.2894   23363665.9964
        45.7004         30.8004
 109424457.46448  85265956.41846  20822791.1174   20822792.5744
        49.6004         41.7004
 118978213.75447  92710370.72645  22640799.9694   22640804.6484
        44.1004         32.4004
 105850576.03348  82480946.41047  20142672.9384   20142675.9064
        50.5004         45.3004
 112874315.45448  87953980.11446  21479250.5394   21479255.4964
        51.2004         38.9004
 124079001.42547  96685006.53344  23611462.6724   23611468.4534
        44.7004         27.1004
 124570415.34247  97067903.66544  23704950.4844   23704954.3634
        44.9004         24.8004
 10  5 10  1 54 30.0000000  0  8G03G28G19G11G07G08G13G06
 117129167.85947  91269539.51845  22288926.2664   22288931.0204
        43.6004         33.0004
 122710109.42647  95618332.49945  23350962.2344   23350966.3954
        45.9004         30.8004
 109475057.80248  85305385.26346  20832419.8524   20832421.4024
        49.7004         41.3004
 118880348.91547  92634112.49745  22622176.9224   22622181.4534
        46.1004         33.6004
 105848676.00048  82479465.87747  20142311.3054   20142314.4884
        51.8004         45.5004
 112795455.03948  87892530.47446  21464243.6954   21464249.0124
        50.9004         38.2004
 124188689.83247  96770477.99744  23632335.8364   23632340.8404
        43.3004         27.6004
 124667410.77447  97143484.53344  23723407.6804   23723412.3444
        43.8004         25.0004
 10  5 10  1 55  0.0000000  0  8G03G28G19G11G07G08G13G06
 117225221.49547  91344386.49345  22307204.2974   22307209.1954
        44.5004         31.6004
 122643451.95347  95566391.66045  23338277.7194   23338281.7154
        45.7004         30.9004
 109526115.59448  85345170.56346  20842135.3984   20842137.3204
        49.8004         41.6004
 118782714.10847  92558033.49645  22603597.7344   22603601.8874
        46.5004         32.4004
 105847308.01148  82478399.92247  20142051.1644   20142054.3834
        51.6004         45.5004
 112716906.20948  87831323.64246  21449296.6254   21449301.2544
        50.7004         38.2004
 124298474.77047  96856024.66444  23653227.1484   23653232.5744
        43.7004         27.2004
 124764505.88047  97219143.06644  23741884.0634   23741888.2274
        43.9004         24.6004
 10  5 10  1 55 30.0000000  0  8G03G28G19G11G07G08G13G06
 117321487.38847  91419398.87845  22325523.6724   22325528.4844
        46.0004         32.8004
 122576873.67747  95514512.53645  23325608.7194   23325612.5514
        45.6004         30.8004
 109577627.92148  85385310.05446  20851938.0394   20851939.5204
        49.1004         41.3004
 118685311.50447  92482135.43745  22585062.3444   22585066.1954
        47.3004         33.1004
 105846472.13148  82477748.60347  20141892.0314   20141895.3054
        51.5004         45.3004
 112638671.02748  87770361.19046  21434408.7584   21434413.3714
        50.7004         38.2004
 124408352.32647  96941643.52744  23674136.4694   23674141.3834
        43.4004         27.1004
 124861697.62947  97294876.89944  23760379.0314   23760384.0204
        45.4004         26.3004
 10  5 10  1 56  0.0000000  0  8G03G28G19G11G07G08G13G06
 117417964.57047  91494575.87845  22343882.6954   22343886.9064
        45.1004         32.4004
 122510376.02047  95462696.22545  23312954.1414   23312958.4614
        45.3004         30.7004
 109629594.01148  85425803.11846  20861827.0394   20861828.6914
        49.9004         41.5004
 118588145.86248  92406421.98245  22566572.6724   22566576.5044
        48.4004         33.4004
 105846170.84248  82477513.83947  20141834.6954   20141837.8324
        52.3004         45.8004
 112560753.44948  87709646.22946  21419581.6174   21419586.1844
        50.5004         38.6004
 124518320.82747  97027333.26544  23695062.1254   23695067.9694
        42.6004         27.8004
 124958985.79147  97370685.86144  23778892.7034   23778897.2154
        44.9004         27.2004
 10  5 10  1 56 30.0000000  0  8G03G28G19G11G07G08G13G06
 117514649.63747  91569914.94145  22362280.7034   22362285.5204
        44.7004         32.6004
 122443958.38947  95410942.27745  23300315.1954   23300319.2114
        45.5004         30.6004
 109682010.30848  85466647.00046  20871801.5474   20871802.9344
        50.6004         41.6004
 118491218.94847  92330894.59545  22548127.3444   22548132.0084
        46.5004         32.4004
 105846404.14448  82477695.64447  20141879.0634   20141882.4264
        52.1004         45.5004
 112483154.64948  87649179.67146  21404814.4304   21404819.4654
        49.6004         37.8004
 124628375.93047  97113090.46644  23716005.5314   23716011.4184
        42.8004         26.1004
 125056367.10147  97446567.41544  23797422.7814   23797427.5744
        43.7004         25.0004
 10  5 10  1 57  0.0000000  0  8G03G28G19G11G07G08G13G06
 117611540.70347  91645414.43645  22380718.9774   22380723.5234
        45.6004         32.4004
 122377621.17747  95359250.99645  23287691.3284   23287695.4924
        46.2004         30.4004
 109734875.80448  85507840.90147  20881861.6804   20881863.4184
        50.5004         42.2004
 118394534.34347  92255556.03445  22529729.3364   22529733.6524
        47.3004         32.4004
 105847173.24448  82478294.95647  20142025.2894   20142029.0204
        51.6004         45.4004
 112405878.32348  87588964.39846  21390109.5394   21390114.1724
        50.4004         38.5004
 124738515.00646  97198913.08744  23736963.9304   23736970.1524
        40.9004         26.6004
 125153840.32547  97522520.56644  23815971.7664   23815976.3094
        43.3004         26.2004
 10  5 10  1 57 30.0000000  0  8G03G28G19G11G07G08G13G06
 117708635.06747  91721072.39045  22399194.8594   22399199.9304
        45.5004         32.6004
 122311363.79347  95307621.91945  23275083.0394   23275087.2814
        45.9004         30.6004
 109788187.55348  85549382.54746  20892006.5784   20892008.0314
        50.8004         41.6004
 118298094.61947  92180408.24945  22511377.1254   22511380.7664
        47.9004         31.8004
 105848478.56148  82479312.09247  20142273.4224   20142276.6994
        51.0004         45.8004
 112328926.35248  87529001.87446  21375465.9614   21375470.8404
        50.2004         38.7004
 124848734.63146  97284798.46344  23757938.7274   23757944.2424
        41.1004         24.7004
 125251402.94247  97598543.38044  23834537.7114   23834541.7664
        43.9004         24.7004
 10  5 10  1 58  0.0000000  0  8G03G28G19G11G07G08G13G06
 117805930.94147  91796887.36645  22417710.3134   22417714.7974
        46.6004         32.6004
 122245187.20347  95256055.78645  23262489.9384   23262494.1454
        46.0004         30.3004
 109841943.83248  85591270.56447  20902235.7274   20902237.4774
        50.8004         42.4004
 118201903.40247  92105454.10345  22493073.0784   22493076.6454
        46.3004         31.8004
 105850321.41648  82480748.09647  20142624.2974   20142627.5314
        51.0004         45.1004
 112252302.23548  87469294.80346  21360885.2114   21360889.2774
        50.8004         38.6004
 124959032.32446  97370744.68943  23778926.8984   23778932.4184
        40.9004         22.2004
 125349054.11547  97674635.18644  23853119.5084   23853123.8674
        43.2004         25.6004
 10  5 10  1 58 30.0000000  0  8G03G28G19G11G07G08G13G06
 117903424.87947  91872856.65345  22436262.6094   22436266.8244
        46.7004         32.4004
 122179090.26647  95204551.72745  23249912.3594   23249916.6054
        45.8004         30.9004
 109896141.21248  85633502.30346  20912549.5234   20912550.7114
        51.2004         41.3004
 118105962.61747  92030695.11845  22474815.5554   22474819.3954
        46.8004         31.5004
 105852701.83348  82482602.97547  20143077.5474   20143080.4344
        50.0004         45.1004
 112176007.53548  87409844.42746  21346366.9694   21346371.3244
        51.2004         38.6004
 125069403.87947  97456748.48143  23799930.0784   23799935.2734
        42.0004         23.3004
 125446790.57247  97750793.43544  23871719.1884   23871722.2584
        43.9004         25.5004
 10  5 10  1 59  0.0000000  0  8G03G28G19G11G07G08G13G06
 118001115.34948  91948979.11445  22454852.1094   22454857.3834
        48.1004         33.0004
 122113074.39647  95153110.84145  23237349.5164   23237353.7504
        45.8004         31.2004
 109950778.79048  85676077.04746  20922946.3284   20922948.0634
        50.8004         41.1004
 118010276.43647  91956134.52445  22456607.3984   22456610.5474
        46.6004         31.6004
 105855621.51348  82484878.06947  20143632.8984   20143636.2194
        49.7004         45.1004
 112100046.04448  87350653.69746  21331911.4694   21331916.0044
        50.9004         38.4004
 125179847.29347  97542808.27843  23820946.8054   23820951.3754
        42.7004         23.6004
 125544611.34747  97827017.43444  23890333.3834   23890336.6174
        42.7004         24.4004
 10  5 10  1 59 30.0000000  0  8G03G28G19G11G07G08G13G06
 118098998.63048  92025251.79345  22473479.1334   22473483.7934
        48.6004         32.8004
 122047138.53347  95101732.29445  23224802.7584   23224807.4144
        45.2004         30.4004
 110005853.03448  85718992.06546  20933426.3594   20933428.3674
        50.3004         41.5004
 117914846.53847  91881773.62545  22438447.4774   22438450.5904
        47.2004         31.0004
 105859080.08348  82487573.06247  20144290.9224   20144294.6294
        51.9004         45.2004
 112024418.77748  87291723.37846  21317520.1724   21317524.5984
        50.8004         38.6004
 125290358.06447  97628920.50943  23841976.8364   23841981.5704
        44.1004         22.6004
 125642513.49447  97903304.84844  23908963.1414   23908966.7344
        42.7004         26.9004
                            4  1
RINEX FILE SPLICE; other post-header comments skipped       COMMENT
 10  5 10  2  0  0.0000000  0  8G03G28G19G11G07G08G13G06
 118197074.83048  92101674.82745  22492142.2894   22492146.3834
        48.8004         33.7004
 121981283.85247  95050417.00845  23212270.9614   23212275.0554
        45.3004         31.2004
 110061363.51848  85762246.99346  20943990.3834   20943991.5984
        50.1004         41.5004
 117819677.68847  91807616.14345  22420337.8364   22420340.8054
        46.2004         32.2004
 105863080.29448  82490690.12347  20145052.5314   20145055.3164
        51.6004         45.1004
 111949130.92048  87233057.55046  21303193.1804   21303197.6414
        50.7004         39.1004
 125400935.15547  97715084.43044  23863018.8674   23863023.6684
        45.6004         26.0004
 125740497.23746  97979655.80144  23927609.1174   23927613.2274
        41.5004         24.7004
 10  5 10  2  0 30.0000000  0  8G03G28G19G11G07G08G13G06
 118295339.53747  92178244.74545  22510841.5634   22510845.2194
        47.4004         32.5004
 121915509.42847  94999164.24745  23199754.6724   23199758.4964
        44.3004         31.3004
 110117306.41448  85805838.88146  20954635.5634   20954637.0594
        50.8004         41.5004
 117724771.26447  91733663.16245  22402277.6024   22402281.1684
        47.9004         33.1004
 105867620.84848  82494228.22547  20145916.3594   20145919.3554
        51.2004         45.4004
 111874183.08948  87174656.69446  21288930.9384   21288935.8714
        51.2004         38.8004
 125511573.65047  97801296.22844  23884072.6804   23884077.1374
        44.9004         24.5004
 125838558.76946  98056067.39444  23946269.2814   23946273.4844
        40.6004         25.1004
 10  5 10  2  1  0.0000000  0  8G03G28G19G11G07G08G13G06
 118393790.84447  92254960.04845  22529576.4384   22529580.3914
        47.3004         32.4004
 121849815.95747  94947974.57545  23187253.6414   23187257.0744
        45.0004         31.0004
 110173679.67748  85849766.10546  20965363.1094   20965364.7934
        50.6004         41.4004
 117630130.66247  91659917.29445  22384267.7424   22384270.6214
        47.4004         32.9004
 105872703.02948  82498188.38047  20146883.5864   20146886.5984
        50.9004         45.6004
 111799578.52248  87116523.30046  21274734.4844   21274739.0634
        51.5004         39.1004
 125622270.90747  97887553.80844  23905137.9534   23905142.4804
        44.8004         25.9004
 125936696.55546  98132538.38344  23964944.3524   23964948.7384
        38.6004         26.0004
 10  5 10  2  1 30.0000000  0  8G03G28G19G11G07G08G13G06
 118492426.78547  92331819.22745  22548345.8754   22548349.2854
        47.6004         32.5004
 121784203.39847  94896847.95345  23174767.6954   23174772.0514
        45.5004         31.4004
 110230481.23748  85894027.06946  20976172.1484   20976173.7854
        49.6004         41.5004
 117535759.20748  91586381.15145  22366309.7504   22366312.7894
        48.4004         34.0004
 105878327.68048  82502571.22847  20147953.8444   20147957.5634
        49.6004         45.4004
 111725320.05148  87058659.59446  21260603.6484   21260608.0744
        51.6004         39.9004
 125733024.13647  97973855.00944  23926212.9844   23926218.5514
        45.0004         25.8004
 126034909.28746  98209067.78444  23983633.3364   23983638.6054
        40.0004         25.6004
 10  5 10  2  2  0.0000000  0  8G03G28G19G11G07G08G13G06
 118591244.52547  92408820.06445  22567150.6484   22567153.8984
        46.0004         30.5004
 121718671.53347  94845784.21845  23162296.9534   23162301.2464
        46.3004         31.2004
 110287708.92448  85938620.09346  20987061.9694   20987064.0784
        49.9004         41.2004
 117441659.64448  91513056.88645  22348403.0004   22348406.9184
        48.3004         34.5004
 105884495.53048  82507377.35547  20149127.4534   20149130.8244
        49.8004         45.1004
 111651410.36248  87001067.66446  21246539.1024   21246543.2034
        51.6004         39.2004
 125843830.19747  98060197.37044  23947298.5864   23947304.5434
        43.2004         24.1004
 126133194.63546  98285653.76844  24002336.6724   24002341.7114
        40.2004         26.0004
 10  5 10  2  2 30.0000000  0  8G03G28G19G11G07G08G13G06
 118690242.54147  92485961.40045  22585989.1174   22585992.4304
        46.4004         31.2004
 121653221.53947  94794784.26545  23149842.4384   23149846.3164
        44.6004         30.5004
 110345360.92548  85983543.73646  20998032.8134   20998034.7974
        49.4004         41.5004
 117347835.43347  91439947.18245  22330548.5634   22330552.7384
        46.8004         35.3004
 105891208.05748  82512607.91747  20150404.7034   20150407.9064
        49.2004         45.2004
 111577852.88848  86943750.17846  21232541.6174   21232545.8834
        51.4004         39.2004
 125954686.41746  98146578.78444  23968394.0474   23968400.0434
        41.7004         25.4004
 126231551.72146  98362295.66744  24021052.9534   24021058.6134
        40.8004         27.0004
 10  5 10  2  3  0.0000000  0  8G03G28G19G11G07G08G13G06
 118789417.24147  92563240.35345  22604861.5004   22604865.0594
        46.1004         31.6004
 121587852.23347  94743847.18145  23137402.8204   23137406.7234
        45.1004         30.2004
 110403433.70048  86028795.25246  21009083.7344   21009085.5744
        49.5004         41.3004
 117254288.78747  91367053.75245  22312747.3204   22312750.9574
        47.0004         34.6004
 105898464.03348  82518261.93647  20151785.4844   20151788.7154
        50.0004         45.0004
 111504648.52448  86886707.84646  21218611.2814   21218615.4384
        51.2004         39.3004
 126065588.65746  98232996.07544  23989497.8674   23989504.3134
        41.1004         24.8004
 126329977.35747  98438990.97944  24039782.8914   24039788.6644
        42.9004         28.0004
 10  5 10  2  3 30.0000000  0  8G03G28G19G11G07G08G13G06
 118888767.06747  92640655.81445  22623767.3914   22623770.2034
        46.3004         30.5004
 121522564.00847  94692973.25745  23124979.1254   23124982.8204
        45.3004         30.4004
 110461925.63748  86074373.39946  21020214.2664   21020215.7814
        50.5004         41.3004
 117161023.09447  91294379.24845  22294999.4534   22295002.8794
        47.8004         35.1004
 105906265.21248  82524340.78647  20153269.8984   20153273.1764
        50.7004         44.9004
 111431800.69348  86829943.32846  21204748.5704   21204753.2194
        52.1004         39.9004
 126176534.56347  98319447.39543  24010610.7114   24010616.2344
        42.0004         23.6004
 126428470.42846  98515738.80344  24058524.7424   24058531.1214
        41.8004         25.6004
 10  5 10  2  4  0.0000000  0  8G03G28G19G11G07G08G13G06
 118988289.16347  92718205.50044  22642705.1174   22642708.7154
        46.6004         29.5004
 121457356.76747  94642162.44344  23112571.0554   23112574.2774
        46.7004         29.7004
 110520833.74748  86120275.83646  21031424.0634   21031425.7734
        50.5004         41.2004
 117068040.72948  91221925.51445  22277305.2974   22277309.1484
        48.1004         35.0004
 105914611.68448  82530844.53847  20154858.2114   20154861.3554
        50.9004         45.0004
 111359311.83048  86773458.53346  21190954.3054   21190958.7274
        51.3004         39.5004
 126287520.23146  98405929.70243  24031730.0004   24031735.4304
        41.4004         21.7004
 126527028.63846  98592537.38244  24077280.3284   24077285.7154
        40.5004         24.4004
 10  5 10  2  4 30.0000000  0  8G03G28G19G11G07G08G13G06
 119087981.82847  92795888.10744  22661676.3054   22661679.7854
        46.0004         27.7004
 121392231.35347  94591415.39344  23100177.4384   23100181.5004
        46.7004         29.7004
 110580156.61748  86166501.45246  21042712.7584   21042714.2934
        49.4004         41.1004
 116975345.34647  91149695.41845  22259666.2114   22259669.8324
        47.0004         34.3004
 105923504.53848  82537774.04947  20156550.5634   20156553.6724
        51.4004         45.2004
 111287185.61148  86717256.31746  21177229.2584   21177233.7114
        51.7004         39.8004
 126398543.48647  98492441.29643  24052856.9534   24052862.6454
        42.1004         22.8004
 126625650.57946  98669385.68244  24096047.2894   24096053.1914
        41.1004         24.7004
 10  5 10  2  5  0.0000000  0  8G03G28G19G11G07G08G13G06
 119187842.84247  92873701.90444  22680679.1334   22680682.8714
        47.0004         29.0004
 121327187.59547  94540731.97545  23087800.3444   23087803.9264
        45.8004         30.6004
 110639891.96748  86213048.48346  21054080.0164   21054082.1024
        49.6004         41.3004
 116882940.00947  91077691.32145  22242081.3284   22242085.0634
        46.4004         33.6004
 105932944.28148  82545129.70747  20158346.7974   20158350.1604
        51.0004         44.9004
 111215423.73548  86661337.99846  21163573.3914   21163577.4804
        51.5004         39.6004
 126509601.52047  98578980.01843  24073991.2034   24073996.6884
        43.9004         22.9004
 126724334.59846  98746282.27744  24114827.6644   24114832.1884
        40.7004         25.7004
 10  5 10  2  5 30.0000000  0  8G03G28G19G11G07G08G13G06
 119287869.88347  92951645.03544  22699713.8054   22699717.5664
        45.3004         27.9004
 121262225.87447  94490112.48845  23075438.2664   23075442.1724
        46.6004         30.4004
 110700037.31848  86259914.98246  21065525.1954   21065527.1954
        49.9004         41.1004
 116790827.54147  91005915.42745  22224553.3054   22224557.1214
        47.1004         33.0004
 105942931.55648  82552912.00547  20160247.4384   20160251.0084
        51.4004         45.1004
 111144029.32648  86605706.01446  21149986.9844   21149991.4144
        50.4004         39.4004
 126620690.72747  98665543.04744  24095131.0084   24095136.4964
        44.5004         25.2004
 126823079.05546  98823225.99643  24133617.2584   24133622.4924
        39.2004         22.6004
 10  5 10  2  6  0.0000000  0  8G03G28G19G11G07G08G13G06
 119388060.55147  93029715.70944  22718779.1484   22718783.3054
        44.1004         28.7004
 121197346.35947  94439557.06345  23063092.4614   23063095.8284
        47.2004         31.7004
 110760590.44448  86307099.24246  21077048.1484   21077050.0744
        50.0004         41.5004
 116699010.87347  90934370.03445  22207080.3754   22207084.5824
        45.9004         33.0004
 105953467.10648  82561121.52547  20162252.1024   20162255.6844
        51.2004         45.0004
 111073004.96348  86550362.38546  21136471.6724   21136476.5784
        51.6004         40.6004
 126731808.36147  98752128.21944  24116276.2114   24116281.3484
        44.6004         25.8004
 126921882.22546  98900215.50943  24152419.8204   24152422.9844
        37.3004         22.5004
 10  5 10  2  6 30.0000000  0  8G03G28G19G11G07G08G13G06
 119488411.79847  93107911.47844  22737875.0084   22737880.5314
        43.9004         28.3004
 121132548.09047  94389064.94245  23050761.7664   23050765.1374
        47.2004         31.0004
 110821547.80848  86354598.49046  21088647.9774   21088649.7934
        49.7004         41.3004
 116607491.85647  90863056.57545  22189665.4064   22189669.2274
        46.2004         33.2004
 105964549.99548  82569757.55047  20164361.3674   20164364.4534
        51.4004         45.1004
 111002352.46548  86495308.51646  21123027.0314   21123031.8594
        51.3004         40.3004
 126842950.32147  98838732.35343  24137425.6484   24137430.6454
        43.9004         22.6004
 127020741.14746  98977248.45843  24171231.6414   24171235.9064
        38.9004         22.5004
 10  5 10  2  7  0.0000000  0  8G03G28G19G11G07G08G13G06
 119588922.21947  93186231.29044  22757001.2814   22757006.6994
        42.9004         27.8004
 121067832.30447  94338637.09845  23038446.1724   23038450.3594
        47.5004         31.4004
 110882908.10548  86402411.70246  21100324.3914   21100326.5474
        49.8004         41.3004
 116516274.73747  90791978.34745  22172306.8524   22172310.8754
        46.3004         33.1004
 105976181.74948  82578821.26347  20166574.7114   20166578.1094
        50.7004         45.1004
 110932075.86348  86440547.55646  21109653.8984   21109658.3444
        51.2004         40.1004
 126954114.79846  98925354.06643  24158578.6954   24158584.1024
        41.8004         20.6004
 127119654.95246  99054324.14843  24190053.0234   24190058.6684
        37.9004         22.3004
 10  5 10  2  7 30.0000000  0  8G03G28G19G11G07G08G13G06
 119689589.41946  93264673.26644  22776157.7584   22776163.3014
        41.1004         27.2004
 121003198.62248  94288273.21745  23026147.2894   23026151.2734
        48.1004         32.0004
 110944668.71348  86450536.85446  21112077.0784   21112078.8444
        48.2004         41.5004
 116425362.09447  90721137.36745  22155007.2194   22155010.5234
        47.9004         34.4004
 105988362.70848  82588312.92947  20168892.4774   20168895.9454
        50.0004         45.1004
 110862177.30448  86386081.17146  21096352.7114   21096357.3554
        51.4004         40.2004
 127065298.33146  99011990.55343  24179736.4454   24179741.9614
        41.6004         20.9004
 127218621.60146  99131441.00843  24208884.6884   24208890.8054
        38.5004         21.1004
 10  5 10  2  8  0.0000000  0  8G03G28G19G11G07G08G13G06
 119790411.31346  93343235.74344  22795343.7974   22795349.2854
        41.8004         27.6004
 120938647.80847  94237973.92245  23013863.0234   23013867.6564
        47.9004         31.9004
 111006827.95848  86498972.62646  21123905.2734   21123907.8364
        49.5004         41.7004
 116334757.33047  90650536.30145  22137765.7664   22137769.6054
        47.5004         35.0004
 106001093.95348  82598233.38147  20171315.2034   20171318.4344
        51.0004         44.7004
 110792659.62048  86331911.58446  21083123.7734   21083128.3484
        52.2004         40.6004
 127176498.26347  99098639.87543  24200896.9614   24200902.8984
        42.1004         22.0004
 127317640.09046  99208598.22643  24227728.2274   24227733.2814
        41.2004         21.8004
 10  5 10  2  8 30.0000000  0  8G03G28G19G11G07G08G13G06
 119891384.94147  93421916.51844  22814558.8754   22814562.8554
        42.2004         28.1004
 120874179.29548  94187738.76545  23001595.5314   23001598.9064
        48.8004         32.3004
 111069382.27048  86547716.25546  21135809.0474   21135811.2774
        49.5004         41.1004
 116244462.34747  90580176.62345  22120583.1644   22120586.6214
        47.5004         34.2004
 106014374.64648  82608581.98847  20173842.5314   20173846.0984
        50.6004         44.8004
 110723524.59748  86278040.16946  21069967.7734   21069972.2584
        51.5004         40.6004
 127287710.77246  99185298.90543  24222060.8984   24222065.9574
        41.6004         22.5004
 127416707.35846  99285793.45243  24246580.2114   24246585.2974
        41.4004         20.6004
 10  5 10  2  9  0.0000000  0  8G03G28G19G11G07G08G13G06
 119992509.51247  93500714.86544  22833802.3444   22833806.3874
        44.1004         28.0004
 120809794.13748  94137568.55245  22989343.0314   22989347.1334
        48.2004         32.5004
 111132330.62248  86596766.91646  21147788.0394   21147789.7504
        49.2004         41.3004
 116154481.34048  90510061.58645  22103460.2584   22103463.4184
        48.4004         35.2004
 106028206.44148  82619360.01647  20176474.5944   20176477.8874
        50.2004         45.1004
 110654776.61448  86224470.34746  21056885.4144   21056889.7704
        52.0004         40.5004
 127398933.98346  99271966.30243  24243225.3204   24243230.8714
        41.7004         23.4004
 127515823.37047  99363026.68343  24265442.3204   24265446.8554
        43.5004         20.1004
 10  5 10  2  9 30.0000000  0  8G03G28G19G11G07G08G13G06
 120093781.23647  93579627.90244  22853073.1484   22853077.7304
        43.8004         28.6004
 120745491.33547  94087462.52045  22977106.9064   22977110.7664
        47.5004         32.2004
 111195669.18448  86646121.63446  21159841.0704   21159842.5634
        49.1004         41.1004
 116064815.94248  90440192.48745  22086397.3524   22086401.1094
        48.2004         35.0004
 106042588.61048  82630566.90847  20179211.1484   20179214.9494
        50.7004         44.8004
 110586416.37648  86171202.64846  21043876.8674   21043881.1844
        51.2004         40.8004
 127510163.79346  99358638.82243  24264391.5474   24264397.2584
        41.7004         22.3004
 127614984.82947  99440295.35943  24284312.6644   24284316.6994
        44.3004         21.3004
 10  5 10  2 10  0.0000000  0  8G03G28G19G11G07G08G13G06
 120195198.48747  93658654.32244  22872372.4534   22872376.8164
        44.3004         27.7004
 120681271.25748  94037420.95145  22964886.0784   22964890.1724
        48.1004         32.4004
 111259396.30048  86695779.13046  21171968.1334   21171969.7274
        50.2004         41.3004
 115975469.65448  90370572.04845  22069395.4924   22069399.1294
        48.2004         35.6004
 106057521.86848  82642203.22347  20182052.9454   20182056.7664
        50.7004         44.6004
 110518447.31348  86118239.77646  21030943.3054   21030947.4104
        52.3004         40.9004
 127621397.66647  99445314.54243  24285559.0234   24285564.6914
        42.6004         22.2004
 127714190.77647  99517598.66944  24303190.5944   24303195.7584
        43.9004         24.0004
 10  5 10  2 10 30.0000000  0  8G03G28G19G11G07G08G13G06
 120296759.58247  93737792.82744  22891699.7894   22891702.9924
        46.1004         29.6004
 120617135.44148  93987445.03345  22952681.3284   22952685.3794
        48.8004         32.1004
 111323510.60948  86745738.33746  21184168.2894   21184170.4024
        50.7004         41.1004
 115886446.40647  90301203.32945  22052454.6724   22052458.5514
        47.9004         35.1004
 106073007.55048  82654270.00247  20184999.8674   20185003.5514
        51.0004         45.0004
 110450873.17848  86065584.62746  21018084.3054   21018088.4924
        51.9004         40.8004
 127732633.45147  99531991.75443  24306727.0554   24306732.3554
        43.6004         22.9004
 127813439.96947  99594935.65843  24322078.3524   24322083.1684
        44.9004         23.0004
 10  5 10  2 11  0.0000000  0  8G03G28G19G11G07G08G13G06
 120398460.39147  93817040.22645  22911052.1884   22911056.0784
        46.0004         30.7004
 120553081.29547  93937532.76745  22940491.9694   22940495.7384
        47.7004         32.0004
 111388007.03548  86795995.29246  21196441.8594   21196443.4574
        50.3004         41.3004
 115797746.37248  90232086.47445  22035575.3754   22035579.2854
        48.3004         35.4004
 106089043.33048  82666765.42147  20188051.2344   20188055.0204
        51.1004         44.8004
 110383694.02148  86013237.25846  21005300.4694   21005304.7584
        51.3004         41.1004
 127843865.67347  99618666.26043  24327893.5474   24327898.5314
        44.2004         23.0004
 127912728.50247  99672303.36343  24340972.3444   24340977.2274
        44.1004         22.2004
 10  5 10  2 11 30.0000000  0  8G03G28G19G11G07G08G13G06
 120500300.77147  93896396.35845  22930432.3914   22930435.8094
        47.1004         30.7004
 120489111.18047  93887685.97445  22928319.2344   22928322.8054
        47.5004         33.6004
 111452885.52748  86846549.96846  21208787.7664   21208789.5904
        50.5004         41.3004
 115709374.88248  90163225.62445  22018759.1174   22018763.2384
        48.2004         34.5004
 106105631.94448  82679691.62147  20191207.8834   20191211.9694
        50.5004         44.8004
 110316914.47048  85961201.27246  20992592.2974   20992596.5634
        51.4004         40.7004
 127955093.68447  99705337.48943  24349059.4534   24349063.5044
        43.1004         21.8004
 128012056.75947  99749702.02143  24359873.3984   24359878.3324
        42.9004         20.9004
 10  5 10  2 12  0.0000000  0  8G03G28G19G11G07G08G13G06
 120602279.17547  93975860.07944  22949837.4144   22949841.1334
        47.2004         29.6004
 120425225.64848  93837905.09145  22916162.3054   22916165.7504
        48.4004         33.1004
 111518144.11248  86897400.82146  21221206.0314   21221207.8754
        50.6004         41.1004
 115621334.70847  90094622.95345  22002005.3834   22002009.5744
        47.8004         35.5004
 106122773.94648  82693049.03247  20194469.8284   20194473.6524
        50.3004         44.6004
 110250537.65748  85909479.11446  20979961.4924   20979965.7934
        51.4004         40.9004
 128066314.78247  99792003.33143  24370224.2814   24370229.4104
        42.5004         21.1004
 128111423.72246  99827130.87043  24378781.2194   24378786.5274
        40.6004         19.3004
 10  5 10  2 12 30.0000000  0  8G03G28G19G11G07G08G13G06
 120704391.87547  94055428.43445  22969268.8284   22969273.2034
        47.5004         31.0004
 120361423.84248  93788189.45545  22904021.1094   22904024.9694
        49.0004         33.3004
 111583778.95648  86948544.86246  21233695.7974   21233697.5984
        50.5004         41.5004
 115533627.99447  90026280.12145  21985315.3834   21985319.6684
        47.3004         35.6004
 106140468.35148  82706836.89447  20197836.8364   20197841.0904
        50.5004         45.0004
 110184564.98148  85858071.85746  20967407.1484   20967411.6294
        52.0004         41.0004
 128177524.59546  99878660.34743  24391386.2894   24391391.5984
        40.2004         20.9004
 128210826.19046  99904587.27543  24397697.8594   24397702.2584
        38.3004         18.6004
 10  5 10  2 13  0.0000000  0  8G03G28G19G11G07G08G13G06
 120806636.18247  94135099.30445  22988725.5944   22988730.4574
        46.9004         30.8004
 120297705.62348  93738538.94645  22891895.6954   22891899.7664
        48.8004         33.5004
 111649787.44048  86999980.05746  21246256.7734   21246258.4844
        49.8004         41.4004
 115446257.07847  89958198.93945  21968689.3444   21968693.1134
        47.1004         35.7004
 106158714.97948  82721055.05747  20201309.1644   20201312.7894
        50.9004         44.7004
 110118999.00448  85806981.51046  20954930.2894   20954934.5274
        51.6004         41.2004
 128288719.98946  99965306.07043  24412546.0634   24412551.6564
        38.4004         19.9004
 128310262.11645  99982069.88442  24416621.0864   24416623.9734
        35.7004         17.8004
 10  5 10  2 13 30.0000000  0  8G03G28G19G11G07G08G13G06
 120909010.81647  94214871.76845  23008206.4844   23008211.0784
        46.4004         30.5004
 120234071.60448  93688954.05245  22879787.0474   22879790.4614
        48.8004         34.2004
 111716167.84248  87051705.04446  21258888.8754   21258889.9534
        50.0004         41.3004
 115359225.78747  89890382.40445  21952127.7664   21952131.3714
        47.3004         35.9004
 106177514.78648  82735704.26047  20204886.7424   20204890.5664
        50.2004         44.7004
 110053842.51348  85756210.23946  20942531.6954   20942535.7624
        51.4004         40.7004
 128399898.74346 100051938.85543  24433702.7424   24433708.2774
        40.4004         21.1004
 128409730.83846 100059578.06843  24435549.7584   24435551.6954
        37.0004         18.6004
 10  5 10  2 14  0.0000000  0  8G03G28G19G11G07G08G13G06
 121011513.97847  94294744.37145  23027712.3204   23027717.0394
        46.8004         31.1004
 120170522.28648  93639435.14545  22867693.4924   22867697.1844
        48.6004         34.2004
 111782918.18748  87103718.30746  21271590.7274   21271592.3954
        51.1004         41.1004
 115272537.04047  89822832.77946  21935631.6484   21935635.1024
        47.6004         36.0004
 106196868.23548  82750784.88047  20208569.5084   20208572.9344
        50.9004         44.8004
 109989098.76148  85705760.59246  20930211.2894   20930215.3484
        51.8004         41.3004
 128511058.25946 100138556.67743  24454855.9144   24454861.2504
        40.2004         19.9004
 128509230.65246 100137110.46543  24454480.6954   24454485.9344
        37.6004         18.3004
 10  5 10  2 14 30.0000000  0  8G03G28G19G11G07G08G13G06
 121114143.37647  94374715.32745  23047242.0164   23047246.9654
        46.7004         30.3004
 120107057.59747  93589982.19045  22855616.3754   22855620.4534
        47.9004         34.2004
 111850035.50048  87156017.52046  21284362.8524   21284364.3164
        50.6004         40.5004
 115186193.53648  89755552.19045  21919200.8204   21919204.5314
        48.5004         35.4004
 106216775.33348  82766296.91447  20212357.8054   20212361.6454
        50.9004         44.9004
 109924770.07248  85655634.36446  20917969.6254   20917974.2584
        51.9004         40.9004
 128622194.92847 100225156.68943  24476004.8364   24476010.4654
        42.1004         22.6004
 128608759.85046 100214665.65343  24473420.6414   24473424.6994
        40.4004         20.9004
 10  5 10  2 15  0.0000000  0  8G03G28G19G11G07G08G13G06
 121216897.00547  94454783.09545  23066795.2734   23066799.3014
        47.0004         30.0004
 120043678.02448  93540595.56745  22843555.7344   22843559.2034
        48.5004         33.5004
 111917518.05448  87208601.34546  21297204.3134   21297205.6524
        50.8004         40.2004
 115100198.57148  89688543.14646  21902836.5234   21902839.8484
        48.3004         36.0004
 106237236.13648  82782240.41247  20216251.3284   20216254.7274
        51.1004         44.9004
 109860859.59748  85605834.02546  20905807.9534   20905812.2114
        51.4004         40.8004
 128733306.45547 100311737.13343  24497147.8674   24497153.7774
        42.8004         22.2004
 128708317.16647 100292242.77043  24492365.4614   24492369.7074
        42.2004         21.1004
 10  5 10  2 15 30.0000000  0  9G03G28G19G11G17G07G08G13G06
 121319772.69847  94534945.97244  23086371.9614   23086376.0004
        46.3004         29.8004
 119980384.01247  93491275.61145  22831511.4774   22831515.1954
        47.9004         34.2004
 111985363.19248  87261467.69546  21310114.6414   21310116.2194
        49.2004         40.1004
 115014554.72248  89621807.71545  21886539.1174   21886542.5514
        48.3004         35.0004
 132571542.36946 103302584.55743  25227539.7344   25227546.3094
        39.5004         21.8004
 106258251.03348  82798615.66347  20220250.2344   20220254.0594
        50.7004         44.9004
 109797369.41348  85556361.19146  20893726.1724   20893730.3984
        51.1004         40.8004
 128844389.92547 100398295.69643  24518286.0944   24518292.4804
        43.4004         22.6004
 128807900.94847 100369840.48843  24511316.8364   24511319.6684
        42.8004         22.3004
 10  5 10  2 16  0.0000000  0  9G03G28G19G11G17G07G08G13G06
 121422767.69847  94615201.80144  23105971.1094   23105975.5004
        46.2004         29.3004
 119917175.07348  93442021.95345  22819482.6334   22819487.0124
        48.1004         33.3004
 112053567.85248  87314614.18846  21323093.6174   21323095.3754
        50.4004         39.9004
 114929264.44348  89555347.79345  21870309.0314   21870312.3674
        49.6004         35.9004
 132469082.77547 103222746.05043  25208041.8054   25208048.2624
        42.0004         21.8004
 106279819.89048  82815422.55647  20224354.8984   20224358.1804
        50.5004         44.8004
 109734302.03748  85507217.80846  20881724.8674   20881729.3164
        51.9004         40.9004
 128955442.01547 100484829.81843  24539419.0314   24539424.8794
        42.8004         22.8004
 128907508.94247 100447457.06943  24530271.6644   24530276.1134
        43.3004         22.6004
 10  5 10  2 16 30.0000000  0  9G03G28G19G11G17G07G08G13G06
 121525879.73247  94695548.81844  23125592.9304   23125596.7344
        45.9004         28.4004
 119854051.44247  93392834.76445  22807471.1334   22807474.9264
        47.7004         33.4004
 112122129.57648  87368038.92046  21336140.3984   21336142.1414
        50.7004         40.1004
 114844330.18848  89489165.29445  21854146.6484   21854149.7464
        49.5004         35.5004
 132366711.32746 103142976.25443  25188561.4534   25188567.5984
        41.8004         22.9004
 106301942.45548  82832660.92747  20228564.8134   20228568.5164
        51.0004         45.4004
 109671659.37148  85458405.37346  20869804.2584   20869808.6374
        51.4004         41.5004
 129066459.61747 100571337.04943  24560545.3914   24560550.7154
        42.7004         22.9004
 129007139.45947 100525091.21843  24549230.9694   24549235.3874
        43.7004         22.8004
 10  5 10  2 17  0.0000000  0  9G03G28G19G11G17G07G08G13G06
 121629107.12247  94775985.75744  23145236.2424   23145239.8364
        43.3004         26.5004
 119791013.24547  93343714.14645  22795475.3754   22795478.7624
        47.0004         33.4004
 112191046.18548  87421740.17946  21349254.6804   21349256.4924
        50.4004         39.9004
 114759755.45348  89423262.93545  21838052.2814   21838055.4574
        48.8004         35.9004
 132264429.42346 103063276.32743  25169097.2344   25169103.7034
        41.1004         21.1004
 106324618.62048  82850330.68447  20232879.9534   20232882.9734
        50.7004         45.0004
 109609444.65948  85409926.41546  20857965.1334   20857969.7934
        51.7004         41.1004
 129177439.76446 100657815.11843  24581663.7194   24581669.3594
        41.3004         22.6004
 129106790.88747 100602741.69643  24568193.6174   24568198.0434
        42.1004         21.5004
 10  5 10  2 17 30.0000000  0  9G03G28G19G11G17G07G08G13G06
 121732448.10347  94856511.17844  23164901.6954   23164905.7894
        45.4004         27.1004
 119728060.84147  93294660.38045  22783495.5004   22783499.3524
        46.9004         33.2004
 112260315.59848  87475716.35346  21362436.1094   21362438.0944
        50.3004         39.8004
 114675542.78648  89357642.70845  21822027.1884   21822030.2734
        49.0004         35.9004
 132162238.61146 102983647.27543  25149650.3914   25149656.5984
        41.6004         20.1004
 106347848.96148  82868432.25747  20237300.5234   20237303.9774
        50.0004         44.9004
 109547660.91348  85361783.26746  20846208.0784   20846212.5744
        50.6004         41.1004
 129288379.87147 100744262.00043  24602775.1954   24602780.5944
        43.0004         22.5004
 129206462.07346 100680407.55143  24587160.0704   24587164.8014
        41.2004         21.7004
 10  5 10  2 18  0.0000000  0  9G03G28G19G11G17G07G08G13G06
 121835900.51347  94937123.44744  23184587.8754   23184592.2624
        42.6004         25.0004
 119665194.50547  93245673.67845  22771532.4924   22771535.9344
        46.4004         32.9004
 112329935.33948  87529965.50846  21375684.6804   21375686.0634
        50.1004         40.0004
 114591695.09548  89292306.85946  21806071.6564   21806075.0314
        48.5004         36.4004
 132060140.06146 102904090.15643  25130221.0554   25130228.3014
        40.8004         20.6004
 106371633.27848  82886965.48747  20241826.4924   20241830.0664
        50.7004         44.8004
 109486310.03648  85313977.43046  20834533.4224   20834537.5784
        51.5004         41.3004
 129399276.78846 100830675.18343  24623877.8364   24623883.9144
        41.0004         21.5004
 129306151.16246 100758087.35543  24606130.8524   24606135.5864
        40.5004         22.0004
 10  5 10  2 18 30.0000000  0  9G03G28G19G11G17G07G08G13G06
 121939461.77346  95017820.51344  23204294.7584   23204299.5204
        40.6004         24.5004
 119602414.42447  93196754.18845  22759585.6954   22759589.7034
        45.8004         33.1004
 112399902.68348  87584485.52746  21388998.8364   21389000.7664
        50.2004         40.4004
 114508215.00847  89227257.49646  21790185.2274   21790189.4104
        47.8004         36.1004
 131958135.21946 102824606.13743  25110810.1724   25110817.3364
        37.9004         20.9004
 106395971.49748  82905930.34147  20246457.9454   20246461.2274
        50.0004         44.9004
 109425394.45448  85266510.77146  20822941.3364   20822945.7464
        51.6004         41.1004
 129510127.82846 100917052.65143  24644972.0634   24644977.4694
        39.4004         20.4004
 129405856.81846 100835780.06943  24625103.6334   24625108.9384
        38.6004         22.3004
 10  5 10  2 19  0.0000000  0  9G03G28G19G11G17G07G08G13G06
 122043129.60246  95098600.64944  23224021.8674   23224026.8284
        41.1004         24.3004
 119539720.58147  93147901.88645  22747655.6414   22747659.2424
        45.5004         33.7004
 112470215.02748  87639274.37246  21402378.9064   21402380.2704
        49.9004         40.3004
 114425105.12048  89162496.58946  21774369.9774   21774373.5864
        48.8004         36.7004
 131856225.00046 102745195.78343  25091417.8204   25091424.2344
        40.9004         19.3004
 106420863.26448  82925326.53247  20251194.7274   20251198.1994
        50.5004         45.1004
 109364916.74548  85219385.31246  20811433.1564   20811437.4144
        51.6004         41.0004
 129620929.81546 101003391.85543  24666057.0864   24666063.0634
        39.7004         18.6004
 129505576.88846 100913484.00343  24644079.3914   24644085.1134
        36.7004         22.0004
 10  5 10  2 19 30.0000000  0  9G03G28G19G11G17G07G08G13G06
 122146903.21546  95179463.21044  23243770.1414   23243773.8134
        40.0004         24.6004
 119477114.12247  93099117.69645  22735741.6414   22735745.6294
        47.0004         33.5004
 112540870.99148  87694330.97046  21415823.9774   21415825.8364
        50.3004         39.9004
 114342369.29548  89098027.17246  21758626.0474   21758629.0824
        48.8004         36.2004
 131754412.05846 102665861.01743  25072042.9694   25072049.7424
        38.0004         20.4004
 106446309.42848  82945154.72047  20256036.9454   20256040.2894
        50.8004         45.0004
 109304880.51248  85172603.85246  20800008.4454   20800012.6994
        51.5004         41.1004
 129731680.72346 101089691.31843  24687132.6724   24687137.5904
        39.9004         18.3004
 129605310.53745 100991198.55043  24663058.1954   24663063.6684
        35.4004         20.9004
 10  5 10  2 20  0.0000000  0  9G03G28G19G11G17G07G08G13G06
 122250781.10946  95260407.03144  23263537.8054   23263541.0744
        41.1004         24.6004
 119414596.05347  93050402.36545  22723844.6804   22723848.9574
        47.0004         33.8004
 112611868.87548  87749654.01746  21429334.2194   21429336.5124
        49.8004         39.8004
 114260010.93247  89033851.85746  21742953.4694   21742957.6844
        47.0004         36.1004
 131652698.29646 102586603.78843  25052687.7584   25052694.6524
        39.9004         22.6004
 106472311.20448  82965415.84647  20260984.9384   20260988.2584
        51.2004         44.6004
 109245289.78948  85126169.55946  20788668.2974   20788673.0234
        51.0004         41.0004
 129842378.63447 101175949.50143  24708198.1484   24708202.6914
        42.3004         19.0004
 129705057.40046 101068923.37243  24682039.3444   24682045.2114
        36.0004         20.1004
 10  5 10  2 20 30.0000000  0  9G03G28G19G11G17G07G08G13G06
 122354759.32647  95341429.03344  23283323.2734   23283327.2814
        43.1004         26.2004
 119352164.46747  93001754.43945  22711964.2504   22711968.5904
        46.3004         32.9004
 112683203.93248  87805239.77346  21442909.2734   21442911.1954
        49.2004         39.8004
 114178030.77247  88969971.28946  21727353.2974   21727357.2934
        47.9004         36.2004
 131551082.87546 102507422.98543  25033351.3444   25033357.3594
        40.0004         20.9004
 106498866.00448  82986107.90747  20266037.7814   20266041.3794
        50.4004         44.8004
 109186144.13648  85080082.06347  20777413.7114   20777418.0394
        50.8004         42.3004
 129953018.35647 101262162.36542  24729251.1804   24729256.4534
        43.1004         16.9004
 129804813.85645 101146655.64343  24701022.1954   24701027.7114
        35.8004         21.3004
 10  5 10  2 21  0.0000000  0  9G03G28G19G11G17G07G08G13G06
 122458836.37347  95422528.00844  23303128.8054   23303133.5084
        42.6004         24.7004
 119289820.25647  92953174.59645  22700100.4454   22700104.6254
        47.0004         32.9004
 112754874.53948  87861087.00346  21456548.0784   21456549.8484
        49.0004         39.9004
 114096432.34948  88906388.13945  21711825.4534   21711829.2194
        48.1004         35.8004
 131449567.88946 102428320.43543  25014033.1254   25014039.0664
        39.7004         21.5004
 106525974.01348  83007231.03247  20271196.4774   20271199.5434
        50.8004         44.6004
 109127446.65048  85034343.78846  20766244.0394   20766247.9494
        50.8004         41.8004
 130063597.75147 101348328.17743  24750294.2664   24750298.3984
        44.3004         18.6004
 129904578.72146 101224394.48843  24720007.5314   24720011.9184
        37.9004         20.9004
 10  5 10  2 21 30.0000000  0  9G03G28G19G11G17G07G08G13G06
 122563010.23347  95503702.46044  23322952.0084   23322956.4384
        43.4004         25.4004
 119227564.01747  92904663.29145  22688253.6174   22688257.5664
        45.9004         32.7004
 112826878.35948  87917193.88346  21470250.1024   21470251.6724
        48.8004         39.9004
 114015218.35348  88843104.54246  21696371.1724   21696374.6054
        48.6004         36.5004
 131348154.70147 102349297.21444  24994734.9454   24994741.0664
        42.2004         25.3004
 106553635.73348  83028785.62547  20276460.5004   20276463.6524
        50.5004         44.5004
 109069200.47548  84988957.17747  20755159.9844   20755164.1524
        51.6004         42.5004
 130174114.10947 101434444.94643  24771324.4144   24771329.6724
        43.9004         19.0004
 130004350.55846 101302138.68843  24738994.0474   24738997.4804
        39.2004         20.4004
 10  5 10  2 22  0.0000000  0  9G03G28G19G11G17G07G08G13G06
 122667279.12247  95584950.96644  23342793.6174   23342797.6174
        43.6004         27.0004
 119165395.72547  92856220.51745  22676423.4144   22676427.4694
        46.6004         33.2004
 112899213.19448  87973558.69846  21484013.9844   21484016.0594
        49.2004         40.2004
 113934391.33748  88780122.49146  21680990.2344   21680993.6174
        49.8004         37.7004
 131246844.85446 102270354.44743  24975456.1564   24975462.1054
        39.7004         22.6004
 106581851.11948  83050771.64747  20281829.6564   20281832.8164
        50.0004         44.4004
 109011407.96948  84943924.07946  20744162.6804   20744166.7464
        51.9004         41.8004
 130284564.67547 101520510.42443  24792342.0474   24792347.3554
        43.1004         21.1004
 130104127.88346 101379887.21843  24757981.0314   24757985.0744
        38.8004         20.1004
 10  5 10  2 22 30.0000000  0  9G03G28G19G11G17G07G08G13G06
 122771640.76547  95666271.72444  23362652.7344   23362657.2854
        43.7004         26.2004
 119103315.25547  92807846.18845  22664609.4144   22664613.9494
        46.0004         32.7004
 112971876.00148  88030179.05646  21497841.6564   21497843.8134
        49.0004         40.2004
 113853953.78948  88717443.93146  21665683.3984   21665687.4224
        49.0004         37.6004
 131145639.57346 102191493.21144  24956197.7504   24956203.6644
        40.6004         25.9004
 106610619.11548  83073188.27647  20287303.8364   20287307.4144
        49.9004         44.2004
 108954071.16848  84899246.07646  20733251.6564   20733255.8134
        51.9004         41.6004
 130394946.04847 101606521.92943  24813347.8444   24813352.6094
        44.2004         22.9004
 130203909.35146 101457638.96643  24776968.2424   24776973.3754
        39.4004         21.8004
 10  5 10  2 23  0.0000000  0  9G03G28G19G11G17G07G08G13G06
 122876092.90447  95747662.98944  23382529.2114   23382534.4384
        44.5004         27.0004
 119041323.08547  92759540.66245  22652813.2974   22652816.8984
        45.5004         33.6004
 113044864.51747  88087053.23546  21511731.2584   21511732.6134
        47.3004         40.3004
 113773908.64848  88655071.12846  21650451.2424   21650454.8484
        48.9004         38.1004
 131044539.59347 102112714.02744  24936958.8284   24936965.1214
        42.2004         26.0004
 106639939.68248  83096035.47347  20292883.7664   20292886.9064
        49.6004         44.5004
 108897192.80848  84854925.29646  20722427.9384   20722432.1214
        51.8004         41.8004
 130505256.13647 101692477.89943  24834338.4064   24834343.5164
        44.1004         22.5004
 130303693.08146 101535392.50543  24795956.1024   24795962.4694
        38.7004         21.1004
 10  5 10  2 23 30.0000000  0  9G03G28G19G11G17G07G08G13G06
 122980634.55647  95829124.01544  23402423.1334   23402427.7234
        45.1004         27.0004
 118979420.43647  92711304.88545  22641032.9844   22641036.7194
        45.1004         32.6004
 113118177.25848  88144180.05046  21525681.7974   21525683.6294
        49.6004         39.9004
 113694259.40148  88593006.81946  21635295.0084   21635298.0044
        50.3004         38.4004
 130943547.48147 102034018.85644  24917741.0944   24917747.5944
        43.7004         27.2004
 106669813.71148  83119313.94847  20298568.3284   20298571.7074
        49.0004         44.0004
 108840776.61848  84810964.65947  20711692.5004   20711696.7704
        51.4004         42.0004
 130615492.22047 101778376.22843  24855314.8914   24855320.5274
        43.1004         22.5004
 130403478.47246 101613147.31843  24814945.0704   24814951.0474
        39.0004         20.9004
 10  5 10  2 24  0.0000000  0  9G03G28G19G11G17G07G08G13G06
 123085263.47247  95910653.06944  23422333.4694   23422338.0704
        46.8004         29.1004
 118917606.91647  92663138.56045  22629270.6254   22629274.2274
        46.1004         32.6004
 113191811.23448  88201557.17646  21539693.9924   21539695.8364
        49.1004         40.3004
 113615008.36148  88531252.78946  21620213.5554   21620217.1214
        49.8004         38.7004
 130842664.12747 101955408.45544  24898542.7814   24898549.9264
        43.1004         25.0004
 106700240.55748  83143023.18547  20304358.3674   20304361.3954
        49.4004         43.6004
 108784824.14448  84767365.35347  20701044.9534   20701049.0234
        50.6004         42.1004
 130725651.10646 101864214.38243  24876278.6724   24876283.8244
        41.1004         21.5004
 130503263.57046 101690901.90143  24833932.8594   24833939.7664
        37.7004         19.3004
 10  5 10  2 24 30.0000000  0  9G03G28G19G11G17G07G08G13G06
 123189977.83147  95992248.66144  23442260.1334   23442263.9414
        46.7004         27.9004
 118855883.34447  92615042.31645  22617525.4534   22617528.8164
        46.6004         32.8004
 113265764.29848  88259182.94246  21553766.9384   21553768.8054
        49.1004         40.4004
 113536158.49348  88469811.37146  21605209.3594   21605212.6844
        49.4004         37.4004
 130741891.07347 101876883.97144  24879367.0554   24879372.7424
        43.7004         24.2004
 106731219.99348  83167163.00647  20310253.3284   20310256.9924
        48.9004         43.6004
 108729338.07448  84724129.47847  20690486.1884   20690490.2854
        51.0004         42.4004
 130835730.73746 101949990.70943  24897225.3364   24897231.0314
        38.8004         19.6004
 130603047.01746 101768655.26343  24852921.3914   24852926.8914
        38.9004         19.6004
 10  5 10  2 25  0.0000000  0  9G03G28G19G11G17G07G08G13G06
 123294775.13847  96073908.90144  23462202.7504   23462206.4774
        46.2004         26.2004
 118794249.50747  92567016.00645  22605796.5784   22605800.0124
        46.3004         33.3004
 113340033.89448  88317055.36546  21567899.6414   21567901.6094
        48.6004         40.5004
 113457712.46348  88408684.65446  21590281.3284   21590285.0164
        49.2004         37.6004
 130641229.39947 101798446.28544  24860210.8594   24860217.6604
        42.3004         24.7004
 106762751.44548  83191732.98347  20316254.0634   20316256.9224
        49.3004         43.2004
 108674320.78148  84681258.88246  20680016.7894   20680020.6414
        50.8004         41.8004
 130945727.77846 102035702.75042  24918157.8054   24918163.5164
        38.5004         17.4004
 130702827.25646 101846406.09343  24871908.0864   24871914.3364
        39.3004         20.1004
 10  5 10  2 25 30.0000000  0  9G03G28G19G11G17G07G08G13G06
 123399653.03147  96155631.95144  23482160.6884   23482164.8984
        46.5004         27.5004
 118732705.19447  92519059.45345  22594084.8914   22594088.4144
        46.8004         33.2004
 113414616.79448  88375171.90446  21582092.5164   21582094.4774
        48.7004         40.6004
 113379672.05947  88347873.97746  21575430.6804   21575433.9534
        47.8004         37.3004
 130540679.98046 101720096.07743  24841076.8754   24841083.4534
        40.9004         21.3004
 106794834.23948  83216732.57447  20322358.7664   20322362.2234
        48.2004         43.6004
 108619774.09048  84638754.98746  20669636.6334   20669640.7584
        50.4004         41.7004
 131055638.91346 102121347.80142  24939071.5864   24939077.8594
        36.5004         17.4004
 130802602.36646 101924152.92143  24890895.0554   24890900.2274
        40.5004         18.6004
 10  5 10  2 26  0.0000000  0  9G03G28G19G11G17G07G08G13G06
 123504611.49347  96237417.75044  23502132.6564   23502136.6844
        45.7004         28.6004
 118671252.18947  92471174.04045  22582390.8914   22582394.1134
        47.0004         33.1004
 113489512.37847  88433532.09946  21596344.5084   21596346.6724
        47.7004         40.4004
 113302041.27048  88287382.49046  21560658.0084   21560661.2774
        48.6004         37.5004
 130440245.63046 101641835.52643  24821965.3524   24821971.7704
        41.4004         22.2004
 106827469.73048  83242162.83847  20328569.1644   20328571.8484
        49.6004         43.2004
 108565702.39548  84596621.22346  20659347.3444   20659351.1684
        50.5004         41.8004
 131165462.96646 102206924.98442  24959971.2974   24959976.8204
        39.2004         17.8004
 130902372.33446 102001895.72042  24909881.4614   24909884.1334
        39.6004         16.9004
 10  5 10  2 26 30.0000000  0  9G03G28G19G11G17G07G08G13G06
 123609645.48547  96319262.39844  23522120.4144   23522124.0394
        43.6004         25.8004
 118609887.85247  92423357.71645  22570713.6804   22570717.1764
        47.3004         33.6004
 113564714.88048  88492131.44746  21610655.1884   21610656.8134
        48.9004         40.4004
 113224820.19548  88227210.26546  21545962.9144   21545966.5434
        48.8004         37.1004
 130339924.19646 101563663.00443  24802874.9224   24802881.1684
        41.2004         21.7004
 106860654.15448  83268020.82847  20334884.1484   20334887.2504
        49.5004         43.1004
 108512104.75648  84554856.85647  20649148.0554   20649152.3444
        50.7004         42.0004
 131275193.95147 102292429.72743  24980852.9924   24980858.1804
        42.8004         19.9004
 131002132.56946 102079630.96042  24928864.9224   24928867.3634
        39.9004         17.4004
 10  5 10  2 27  0.0000000  0  9G03G28G19G11G17G07G08G13G06
 123714755.94947  96401166.69144  23542122.2734   23542125.5984
        43.6004         25.4004
 118548615.92647  92375613.40045  22559053.9384   22559057.4184
        46.7004         33.8004
 113640225.49848  88550970.89446  21625024.8054   21625026.0354
        49.9004         40.2004
 113148014.56448  88167361.75746  21531347.2974   21531351.1374
        48.8004         37.0004
 130239720.88147 101485582.46943  24783807.3054   24783813.4184
        42.8004         22.8004
 106894390.32948  83294308.75847  20341303.6804   20341307.0274
        49.2004         43.4004
 108458986.97148  84513466.40046  20639040.0314   20639044.1564
        50.1004         41.9004
 131384832.59447 102377862.55743  25001716.2504   25001722.2234
        43.8004         18.6004
 131101885.12146 102157360.21042  24947846.8674   24947850.2114
        40.0004         16.3004
 10  5 10  2 27 30.0000000  0  9G03G28G19G11G17G07G08G13G06
 123819939.35746  96483127.81444  23562138.6804   23562141.4454
        41.2004         25.8004
 118487434.73247  92327939.79245  22547411.2584   22547415.0434
        47.5004         34.0004
 113716040.21448  88610047.29646  21639451.2584   21639452.8244
        50.2004         40.4004
 113071625.40747  88107837.80046  21516810.7274   21516814.1804
        47.7004         36.2004
 130139635.17047 101407593.62744  24764761.4534   24764768.2584
        43.4004         25.1004
 106928676.61148  83321025.34647  20347827.9224   20347831.3094
        49.3004         43.2004
 108406349.86348  84472450.49646  20629023.4534   20629027.4804
        50.4004         41.7004
 131494374.61247 102463220.07442  25022561.0394   25022566.1414
        43.4004         16.9004
 131201626.95846 102235081.05042  24966827.0864   24966831.9304
        37.9004         16.3004
 10  5 10  2 28  0.0000000  0  9G03G28G19G11G17G07G08G13G06
 123925195.11047  96565145.30844  23582166.8984   23582170.8134
        43.0004         27.1004
 118426345.56447  92280337.88845  22535786.5164   22535789.7854
        47.9004         34.2004
 113792157.19648  88669359.23646  21653936.0234   21653938.1294
        49.2004         40.1004
 112995656.15548  88048641.01146  21502354.1884   21502357.5744
        48.1004         36.8004
 130039668.98247 101329697.87444  24745738.1884   24745745.0044
        43.0004         24.7004
 106963513.35548  83348170.86847  20354457.2814   20354460.5664
        48.6004         43.2004
 108354196.80148  84431811.76846  20619099.1174   20619103.4614
        50.2004         41.6004
 131603817.88647 102548500.73942  25043386.7504   25043391.9064
        43.9004         17.8004
 131301357.17246 102312792.85042  24985805.9614   24985812.1914
        36.9004         16.3004
 10  5 10  2 28 30.0000000  0  9G03G28G19G11G17G07G08G13G06
 124030521.30247  96647217.65544  23602209.7664   23602214.1524
        42.1004         26.0004
 118365348.94748  92232808.09945  22524179.4224   22524182.6484
        48.4004         34.2004
 113868574.23848  88728904.98846  21668477.5784   21668479.3874
        48.8004         40.4004
 112920109.16848  87989773.27246  21487978.2894   21487981.7854
        49.2004         37.0004
 129939823.72247 101251896.42344  24726738.2974   24726744.7974
        42.2004         27.5004
 106998900.00448  83375744.88947  20361190.8444   20361194.4574
        48.8004         43.1004
 108302530.04848  84391551.98747  20609267.5784   20609271.3754
        50.6004         42.2004
 131713159.96447 102633702.46842  25064194.1484   25064198.4804
        43.2004         17.8004
 131401074.84046 102390494.92642  25004781.2584   25004790.8954
        37.5004         16.9004
 10  5 10  2 29  0.0000000  0  9G03G28G19G11G17G07G08G13G06
 124135914.62047  96729342.30444  23622265.0234   23622270.1024
        43.4004         25.8004
 118304443.93448  92185349.69345  22512589.4534   22512592.6914
        48.0004         34.4004
 113945287.91348  88788681.87546  21683076.0784   21683077.7704
        49.5004         40.2004
 112844986.64648  87931236.27946  21473682.5164   21473686.0744
        49.2004         37.6004
 129840099.72747 101174189.43044  24707762.0164   24707767.4614
        43.8004         26.8004
 107034835.23248  83403746.36647  20368029.3444   20368032.6024
        49.0004         42.9004
 108251351.28648  84351672.44747  20599528.4384   20599532.3554
        50.1004         42.5004
 131822396.93546 102718822.28142  25084981.4304   25084985.6524
        41.3004         17.4004
 131500777.11646 102468184.99942  25023753.2664   25023765.4884
        37.2004         17.4004
 10  5 10  2 29 30.0000000  0  9G03G28G19G11G17G07G08G13G06
 124241373.74147  96811518.24244  23642334.0944   23642338.7544
        45.0004         28.2004
 118243631.26947  92137963.24145  22501017.0004   22501020.4104
        47.9004         34.8004
 114022296.05548  88848688.23046  21697730.1334   21697731.4614
        49.1004         40.0004
 112770291.50748  87873032.32446  21459468.7344   21459472.4304
        49.3004         37.8004
 129740498.92947 101096578.50744  24688808.6804   24688814.6054
        42.7004         28.1004
 107071319.20448  83432175.44347  20374972.0084   20374975.0594
        49.9004         42.7004
 108200662.91848  84312175.04546  20589882.3054   20589886.2934
        50.3004         41.6004
 131931526.61246 102803858.46943  25105747.7894   25105752.4304
        40.2004         19.0004
 131600463.46646 102545862.71342  25042723.3284   25042736.1254
        36.4004         16.9004
 10  5 10  2 30  0.0000000  0  9G03G28G19G11G17G07G08G13G06
 124346896.68947  96893743.90344  23662415.1724   23662418.9184
        45.7004         27.3004
 118182911.39747  92090649.10445  22489462.4304   22489465.6954
        47.7004         34.4004
 114099596.36648  88908922.23746  21712439.8674   21712441.6994
        48.0004         39.7004
 112696025.74248  87815162.93846  21445336.9384   21445339.8954
        49.6004         38.0004
 129641022.05347 101019064.07544  24669879.0164   24669884.9534
        43.1004         29.8004
 107108350.96848  83461031.36147  20382018.7664   20382022.3364
        49.8004         42.7004
 108150467.68348  84273061.89847  20580330.6884   20580334.3524
        50.9004         42.1004
 132040546.07146 102888808.75443  25126493.1174   25126498.5434
        39.2004         20.6004
 131700132.18946 102623526.68942  25061689.2114   25061703.7344
        37.3004         17.8004
 10  5 10  2 30 30.0000000  0  9G03G28G19G11G17G07G08G13G06
 124452482.22947  96976018.30844  23682506.4224   23682511.3444
        43.8004         27.4004
 118122284.95548  92043407.76745  22477925.3754   22477928.7114
        48.8004         35.1004
 114177186.57948  88969382.14846  21727204.7584   21727206.3244
        48.5004         39.2004
 112622192.46848  87757630.55146  21431286.6094   21431290.2704
        50.0004         39.2004
 129541670.77047 100941647.60944  24650972.8204   24650979.0044
        43.4004         28.5004
 107145930.34048  83490313.99147  20389170.3134   20389173.0514
        49.4004         42.5004
 108100768.27848  84234335.10447  20570873.0004   20570877.1334
        51.3004         42.0004
 132149453.06446 102973671.40243  25147218.3364   25147222.9344
        36.6004         19.3004
 131799782.28546 102701176.17442  25080652.6174   25080667.8794
        38.1004         17.8004
 10  5 10  2 31  0.0000000  0  9G03G28G19G11G17G07G08G13G06
 124558128.97047  97058340.42444  23702610.9774   23702615.4104
        43.5004         27.5004
 118061752.91848  91996239.98845  22466406.8134   22466409.8834
        48.1004         35.0004
 114255065.02048  89030066.64846  21742024.7584   21742026.1564
        48.2004         38.7004
 112548794.80248  87700437.60246  21417319.6644   21417323.1294
        50.7004         39.6004
 129442447.01247 100864330.45344  24632090.9774   24632097.1844
        43.4004         29.6004
 107184057.72848  83520023.64047  20396425.7584   20396428.7304
        49.3004         42.7004
 108051567.18548  84195996.61646  20561510.7274   20561514.2384
        50.8004         41.9004
 132258245.45545 103058444.69242  25167918.7894   25167925.1764
        30.5004         16.9004
 131899412.80646 102778810.37242  25099611.9064   25099626.7934
        37.8004         14.8004
 10  5 10  2 31 30.0000000  0  8G03G28G19G11G17G07G08G06
 124663834.75846  97140708.58444  23722725.8364   23722730.0864
        41.6004         27.4004
 118001315.22148  91949145.72845  22454905.8444   22454908.8404
        48.4004         34.7004
 114333229.02648  89090973.68146  21756898.3594   21756900.3204
        49.3004         38.5004
 112475835.03848  87643585.88446  21403436.2034   21403439.3714
        50.9004         39.1004
 129343351.84746 100787113.58544  24613233.4304   24613240.0314
        41.2004         27.9004
 107222731.49648  83550159.04847  20403784.8524   20403787.8484
        49.5004         42.7004
 108002867.08648  84158048.50546  20552243.2274   20552246.8874
        51.1004         41.7004
 131999022.18046 102856428.08942  25118567.5554   25118584.3094
        38.7004         13.9004
 10  5 10  2 32  0.0000000  0  8G03G28G19G11G17G07G08G06
 124769597.83846  97223121.35344  23742852.2814   23742855.9494
        38.4004         25.3004
 117940972.15348  91902125.20345  22443422.6954   22443425.8874
        49.3004         34.3004
 114411676.11948  89152101.28946  21771826.5944   21771828.7114
        49.1004         38.6004
 112403315.70948  87587077.34046  21389635.9304   21389638.9104
        51.4004         39.2004
 129244386.57546 100709997.84844  24594401.7114   24594407.2194
        39.4004         26.2004
 107261951.44548  83580720.05447  20411248.1334   20411251.0164
        49.3004         42.8004
 107954669.75348  84120492.15946  20543071.2734   20543075.3634
        50.7004         41.8004
 132098609.12046 102934028.41942  25137518.0314   25137538.0434
        37.9004         15.6004
 10  5 10  2 32 30.0000000  0  8G03G28G19G11G17G07G08G06
 124875415.19946  97305576.44544  23762988.4924   23762991.0434
        41.2004         26.9004
 117880723.09148  91855177.93045  22431957.7894   22431961.6134
        48.2004         34.9004
 114490402.90048  89213446.83846  21786807.7114   21786809.5984
        49.8004         38.9004
 112331238.20748  87530913.09446  21375919.6724   21375922.6524
        51.0004         38.9004
 129145551.10246 100632983.32243  24575592.7504   24575599.1334
        37.9004         22.9004
 107301716.26948  83611705.63647  20418815.0944   20418818.6844
        48.9004         43.6004
 107906976.82548  84083328.85946  20533996.0004   20533999.8754
        50.1004         41.4004
 132198171.29746 103011609.36242  25156464.3204   25156486.4494
        36.1004         16.3004
 10  5 10  2 33  0.0000000  0  8G03G28G19G11G17G07G08G06
 124981286.65446  97388073.67544  23783134.9844   23783137.8834
        41.6004         27.5004
 117820570.03148  91808305.45245  22420510.9694   22420514.1764
        48.7004         35.1004
 114569408.47648  89275009.62246  21801841.9454   21801843.8554
        49.2004         38.1004
 112259606.60548  87475096.29546  21362288.7424   21362291.8954
        51.0004         38.9004
 129046848.40746 100556072.22443  24556809.7344   24556815.9414
        37.6004         23.0004
 107342026.70148  83643116.36647  20426485.6024   20426489.2814
        49.1004         43.3004
 107859791.84448  84046561.36146  20525016.6564   20525020.8164
        49.8004         41.3004
 132297708.81245 103089171.16142  25175404.2974   25175429.8444
        33.3004         14.8004
 10  5 10  2 33 30.0000000  0  8G03G28G19G11G17G07G08G06
 125087209.48047  97470610.90244  23803291.5704   23803295.1254
        43.0004         28.8004
 117760512.75548  91761507.62545  22409082.3204   22409085.4414
        48.6004         35.0004
 114648689.72248  89336787.23346  21816928.9454   21816930.6644
        49.7004         38.3004
 112188422.93048  87419628.53146  21348743.4694   21348746.0784
        51.1004         38.9004
 128948278.89046 100479264.96743  24538053.2274   24538058.5234
        39.0004         21.7004
 107382881.12248  83674950.98047  20434260.1724   20434263.6884
        50.4004         43.5004
 107813116.75248  84010191.18646  20516134.6414   20516138.8834
        50.2004         41.4004
 132397219.69645 103166712.23042  25194339.5634   25194367.3014
        31.2004         14.8004
 10  5 10  2 34  0.0000000  0  8G03G28G19G11G17G07G08G06
 125193182.04847  97553186.92044  23823457.4304   23823460.5004
        43.4004         28.1004
 117700551.50847  91714784.62145  22397672.6954   22397675.1724
        47.7004         34.9004
 114728244.33448  89398777.84646  21832066.7894   21832068.9574
        49.4004         37.3004
 112117689.44348  87364511.56046  21335282.5234   21335285.8714
        50.3004         38.7004
 128849843.91746 100402562.41443  24519321.1954   24519326.9494
        40.6004         21.1004
 107424279.04048  83707209.10347  20442138.0004   20442141.6374
        50.0004         43.3004
 107766953.94648  83974220.18846  20507350.2114   20507354.3794
        50.0004         41.9004
 132496702.64544                  25213269.6254
        28.9004
 10  5 10  2 34 30.0000000  0  7G03G28G19G11G17G07G08
 125299202.89046  97635800.53044  23843632.2814   23843636.2974
        41.5004         25.6004
 117640687.11548  91668137.07445  22386280.6094   22386283.4304
        48.9004         34.4004
 114808070.20448  89460979.82146  21847257.7034   21847259.2974
        49.4004         37.6004
 112047408.94048  87309747.56846  21321908.8754   21321911.8324
        50.4004         38.1004
 128751545.13046 100325966.03543  24500615.5554   24500621.4064
        40.7004         22.6004
 107466220.23348  83739890.55347  20450119.2344   20450122.8204
        49.1004         43.2004
 107721305.98648  83938650.37346  20498663.6024   20498667.8874
        48.9004         41.9004
 10  5 10  2 35  0.0000000  0  7G03G28G19G11G17G07G08
 125405270.27546  97718450.42944  23863817.2034   23863820.7304
        40.3004         26.5004
 117580919.54148  91621564.97745  22374907.0394   22374910.3714
        48.5004         35.3004
 114888165.23548  89523391.55246  21862499.0004   21862500.8984
        49.3004         37.5004
 111977583.60648  87255338.24946  21308621.5004   21308624.6454
        49.5004         38.1004
 128653383.27747 100249476.38844  24481936.4144   24481942.7114
        42.3004         27.2004
 107508703.72548  83772994.57447  20458203.8524   20458206.9304
        50.2004         43.4004
 107676174.36848  83903482.90346  20490074.9454   20490079.5434
        49.6004         41.4004
 10  5 10  2 35 30.0000000  0  7G03G28G19G11G17G07G08
 125511381.89746  97801134.79444  23884010.6254   23884013.4574
        38.5004         24.9004
 117521248.58748  91575068.17745  22363551.8134   22363554.9614
        48.4004         35.2004
 114968525.66248  89586010.06146  21877791.5394   21877793.4924
        48.5004         37.5004
 111908215.38248  87201285.12946  21295420.7344   21295424.1564
        49.8004         38.1004
 128555359.11347 100173093.97344  24463282.8984   24463289.5704
        44.4004         29.6004
 107551728.06148  83806520.04247  20466390.7424   20466393.8674
        49.6004         43.2004
 107631560.97348  83868719.24447  20481585.3204   20481589.6334
        49.9004         42.1004
 10  5 10  2 36  0.0000000  0  7G03G28G19G11G17G07G08
 125617536.21646  97883852.51443  23904210.7664   23904213.9344
        37.6004         23.5004
 117461675.17947  91528647.37445  22352215.3444   22352218.6254
        47.9004         35.8004
 115049149.88448  89648834.12746  21893133.6804   21893135.1884
        48.4004         36.8004
 111839306.96048  87147590.29346  21282308.0554   21282311.2934
        50.3004         38.1004
 128457474.49547 100096820.33844  24444656.4844   24444661.6684
        45.3004         28.2004
 107595293.05848  83840466.79147  20474680.9774   20474684.2504
        49.0004         43.0004
 107587468.89348  83834361.80347  20473194.9924   20473199.3324
        49.3004         42.5004
 10  5 10  2 36 30.0000000  0  7G03G28G19G11G17G07G08
 125723730.20446  97966601.12543  23924416.9384   23924421.7074
        39.4004         22.6004
 117402198.65647  91482302.06445  22340897.4064   22340900.6804
        47.6004         35.1004
 115130034.19248  89711860.87346  21908525.4224   21908526.8674
        48.8004         37.3004
 111770859.47448  87094254.63246  21269282.6644   21269286.1724
        49.7004         37.8004
 128359729.10047 100020655.17345  24426056.2194   24426061.8324
        46.5004         31.7004
 107639396.60348  83874833.18847  20483073.6724   20483077.1374
        49.6004         42.9004
 107543898.93348  83800411.20347  20464904.0634   20464908.3634
        50.2004         42.1004
 10  5 10  2 37  0.0000000  0  7G03G28G19G11G17G07G08
 125829965.21047  98049381.59444  23944632.9454   23944637.9264
        43.8004         24.1004
 117342822.29348  91436034.81045  22329598.4694   22329601.5984
        48.8004         35.3004
 115211179.61348  89775091.06446  21923967.1804   21923968.8364
        48.8004         37.4004
 111702878.74848  87041282.66546  21256346.5314   21256349.9104
        50.4004         37.6004
 128262127.22147  99944601.89745  24407482.9304   24407489.1454
        45.4004         30.4004
 107684041.30948  83909621.26847  20491569.1024   20491572.6724
        49.0004         42.8004
 107500856.44948  83766871.62547  20456713.1484   20456717.3524
        49.6004         42.5004
 10  5 10  2 37 30.0000000  0  7G03G28G19G11G17G07G08
 125936237.21647  98132190.94844  23964856.3134   23964860.2734
        45.4004         25.1004
 117283543.49148  91389843.56945  22318318.1644   22318321.4574
        48.8004         35.2004
 115292581.09048  89838520.78946  21939457.0234   21939459.0594
        48.3004         37.8004
 111635364.52048  86988674.21146  21243498.9614   21243501.6294
        50.5004         38.1004
 128164667.71747  99868659.47145  24388936.5474   24388942.7814
        44.0004         30.5004
 107729223.33648  83944828.05247  20500166.9774   20500170.1094
        48.2004         43.6004
 107458341.25948  83733742.92846  20448622.9454   20448627.1564
        49.4004         41.8004
