     2.10           OBSERVATION DATA    G (GPS)             RINEX VERSION / TYPE
teqc  2000Jul20     Gordon Adams        20040501 22:00:40UTCPGM / RUN BY / DATE
Solaris 2.7|Ultra 2|cc SC5.0|=+-|*Sparc                     COMMENT
teqc  2002Mar14     CORS-ADM Account    20031030 01:40:42UTCCOMMENT
teqc  2002Mar14     GRD/NGS/NOAA        20031030 01:40:01UTCCOMMENT
BIT 2 OF LLI FLAGS DATA COLLECTED UNDER A/S CONDITION       COMMENT
1LSU                                                        MARKER NAME
                                                            MARKER NUMBER
G. Sella            Louisiana State U                       OBSERVER / AGENCY
2200252004          ASHTECH UZ-12       CN00                REC # / TYPE / VERS
620024327           ASH701945E_M    SCIS                    ANT # / TYPE
  -113374.6359 -5504367.8492  3209407.0501                  APPROX POSITION XYZ
        0.0000        0.0000        0.0000                  ANTENNA: DELTA H/E/N
     1     1                                                WAVELENGTH FACT L1/2
     5    C1    L1    L2    P1    P2                        # / TYPES OF OBSERV
    30.0000                                                 INTERVAL
Version: Version:                                           COMMENT
Project: A__________________________252004_                 COMMENT
 SNR is mapped to RINEX snr flag value [0-9]                COMMENT
  L1 & L2: >= 48 dBHz = 9; 0 dBHz = 0; else 1 + dBHz/6      COMMENT
Forced Modulo Decimation to 30 seconds                      COMMENT
Forced Modulo Decimation to 30 seconds                      COMMENT
  2003    10    29     0     0    0.0000000     GPS         TIME OF FIRST OBS
                                                            END OF HEADER
 03 10 29  0  0  0.0000000  0 10G 7G29G11G26G 8G 4G28G20G27G 9
  20930738.1234  -19069533.54449 -14830309.45249  20930737.7184   20930744.6524
  25016253.5174   -3738808.19747  -2891607.27446  25016256.5504   25016268.2754
  23562244.2814   -7638684.48748  -5830640.50247  23562244.9684   23562251.2344
  25121682.2374     632152.57048    506855.80347  25121682.7614   25121693.9864
  21559560.2294  -19667152.38249 -15295487.20448  21559559.3434   21559567.1894
  22033213.7454  -17122967.00749 -13270126.27148  22033213.9104   22033221.8484
  20590784.0094  -25827520.86149 -20106014.08449  20590783.5754   20590788.3144
  24196653.3714   -6671940.15848  -5108728.56447  24196653.4684   24196660.1164
  23571136.0204  -10192100.12148  -7920959.95147  23571135.3644   23571146.7984
  24643870.8384   -3237819.48148  -2352736.32547  24643870.7504   24643883.5184
 03 10 29  0  0 30.0000000  0 10G 7G29G11G26G 8G 4G28G20G27G 9
  20929998.6974  -19073419.18749 -14833337.18949  20929997.8164   20930004.8604
  25026502.8334   -3684952.36847  -2849641.81846  25026502.0224   25026517.0904
  23579854.9874   -7546141.65848  -5758529.18947  23579855.4164   23579861.2014
  25131603.9464     684291.56747    547483.55146  25131604.4174   25131617.2344
  21577431.1134  -19573240.21349 -15222308.90648  21577430.5004   21577437.2454
  22014947.5084  -17218958.11749 -13344924.36948  22014947.4804   22014955.5254
  20588934.2824  -25837240.78549 -20113588.01449  20588933.8314   20588939.0074
  24188720.2704   -6713629.67648  -5141213.77847  24188719.2774   24188725.8754
  23592527.3034  -10079696.27948  -7833372.61347  23592526.6214   23592536.0384
  24626318.5994   -3330056.75948  -2424609.29847  24626317.7524   24626329.9434
 03 10 29  0  1  0.0000000  0 10G 7G29G11G26G 8G 4G28G20G27G 9
  20929291.9624  -19077131.87849 -14836230.15649  20929291.4644   20929298.0914
  25036774.9144   -3630977.43448  -2807583.61346  25036775.3744   25036790.9244
  23597508.3344   -7453379.51748  -5686246.99647  23597506.8214   23597512.8384
  25141569.6064     736659.34248    588289.49946  25141568.9874   25141584.4444
  21595367.5684  -19478981.58849 -15148860.64648  21595367.6224   21595374.6724
  21996742.1194  -17314626.30749 -13419470.83548  21996742.5254   21996750.1584
  20587140.7234  -25846665.32249 -20120931.77549  20587140.3924   20587145.4624
  24180850.6294   -6754979.72148  -5173434.44747  24180849.3844   24180857.2774
  23613931.4074   -9967212.85248  -7745723.27347  23613931.1984   23613942.8454
  24608821.3594   -3422003.48747  -2496255.93846  24608821.8414   24608832.1184
 03 10 29  0  1 30.0000000  0 10G 7G29G11G26G 8G 4G28G20G27G 9
  20928619.2204  -19080668.43349 -14838985.88349  20928618.7664   20928625.3294
  25047069.4944   -3576881.83547  -2765431.32346  25047067.7404   25047082.2824
  23615201.8814   -7360396.55648  -5613792.74147  23615201.5974   23615208.0924
  25151577.9154     789256.94247    629274.58446  25151578.0464   25151595.6584
  21613370.2594  -19384375.37249 -15075141.53648  21613370.1574   21613377.4824
  21978599.3644  -17409965.18349 -13493760.70748  21978599.7074   21978607.6174
  20585404.7714  -25855788.90149 -20128041.02049  20585404.2974   20585408.8524
  24173047.8024   -6795983.93248  -5205385.63647  24173047.4754   24173054.6124
  23635351.3064   -9854648.80348  -7658011.10747  23635350.2944   23635362.5844
  24591379.9234   -3513652.86448  -2567670.77047  24591380.8354   24591392.9704
 03 10 29  0  2  0.0000000  0 10G 7G29G11G26G 8G 4G28G20G27G 9
  20927978.3514  -19084036.50149 -14841610.31449  20927977.9674   20927984.1704
  25057384.5784    5929844.77057   4642407.46656  25057381.9924   25057399.7604
  23632935.7044   -7267201.88648  -5541173.51447  23632935.9524   23632941.5454
  25161630.3294     842075.26648    670431.61146  25161631.7924   25161642.8404
  21631437.3874  -19289431.28349 -15001159.14448  21631436.7784   21631445.0944
  21960518.8064  -17504978.55049 -13567796.94148  21960519.7054   21960527.0224
  20583724.6154  -25864616.78649 -20134919.85349  20583724.7114   20583729.1134
  24165309.2994   -6836646.35948  -5237070.51447  24165309.8024   24165316.9264
  23656784.9194   -9742013.51348  -7570243.42047  23656784.6964   23656795.4294
  24573995.0004   -3605008.85547  -2638856.97247  24573997.1074   24574004.0204
 03 10 29  0  2 30.0000000  0 10G 7G29G11G26G 8G 4G28G20G27G 9
  20927369.7904  -19087232.85449 -14844100.93449  20927369.3094   20927375.9294
  25067718.0784    5984163.75557   4684733.76956  25067720.9354   25067736.6144
  23650710.6694   -7173793.69048  -5468387.89647  23650710.0924   23650716.9084
  25171723.7794     895115.45048    711761.54446  25171724.7924   25171737.6304
  21649569.7064  -19194147.66449 -14926912.19248  21649568.8194   21649576.7044
  21942501.8054  -17599659.65049 -13641574.26948  21942502.3094   21942508.9794
  20582102.0934  -25873143.14949 -20141563.72949  20582101.7904   20582106.5234
  24157638.6684   -6876960.20148  -5268483.76547  24157638.2184   24157644.9634
  23678233.3814   -9629305.41948  -7482419.00647  23678232.0954   23678245.1124
  24556669.4224   -3696064.72848  -2709809.50047  24556669.6934   24556681.6074
 03 10 29  0  3  0.0000000  0 10G 7G29G11G26G 8G 4G28G20G27G 9
  20926794.1234  -19090257.23849 -14846457.55949  20926793.5854   20926800.3404
  25078077.9184    6038593.29347   4727146.25046  25078077.4654   25078090.6264
  23668526.1044   -7080173.50448  -5395437.07747  23668526.4574   23668530.2564
  25181858.1844     948375.90248    753263.10146  25181858.5574   25181872.0814
  21667765.7224  -19098526.79149 -14852402.43848  21667765.1564   21667772.6904
  21924548.3754  -17694004.93249 -13715089.92448  21924548.8774   21924556.2784
  20580537.1724  -25881365.79849 -20147970.94749  20580537.2304   20580541.8384
  24150033.7014   -6916921.89148  -5299622.62247  24150032.6024   24150040.4064
  23699694.7814   -9516526.39648  -7394539.30247  23699693.5364   23699705.1864
  24539397.5754   -3786816.78448  -2780525.11647  24539399.1984   24539409.3394
 03 10 29  0  3 30.0000000  0 10G 7G29G11G26G 8G 4G28G20G27G 9
  20926250.8334  -19093111.89249 -14848681.92449  20926250.2894   20926257.0674
  25088455.9314    6093129.75647   4769642.06446  25088457.0474   25088471.8054
  23686381.7164   -6986344.92548  -5322323.87847  23686380.3664   23686386.9614
  25192034.5314    1001852.65348    794933.23446  25192036.2184   25192045.7014
  21686025.3514  -19002572.55349 -14777632.92048  21686025.0894   21686032.0624
  21906659.4174  -17788012.95549 -13788342.77948  21906659.8744   21906666.4754
  20579030.3954  -25889283.95849 -20154140.90449  20579030.0584   20579034.8534
  24142495.9934   -6956530.23648  -5330486.14647  24142495.2884   24142502.1814
  23721167.5204   -9403680.51648  -7306607.53047  23721168.5954   23721179.1684
  24522188.3064   -3877263.51048  -2851002.89347  24522187.9024   24522197.7824
 03 10 29  0  4  0.0000000  0 10G 7G29G11G26G 8G 4G28G20G27G 9
  20925740.0684  -19095797.05249 -14850774.21849  20925739.5964   20925746.1854
  25098855.8364    6147770.81847   4812219.30746  25098854.3234   25098866.5444
  23704275.2024   -6892309.64848  -5249049.62947  23704274.5864   23704279.7874
  25202250.5064    1055543.51447    836770.18646  25202252.0834   25202261.8594
  21704347.8354  -18906287.34449 -14702605.51248  21704347.3424   21704355.6744
  21888834.2694  -17881680.44949 -13861330.29448  21888834.9894   21888842.8844
  20577581.9004  -25896895.75249 -20160072.12649  20577581.8964   20577586.5144
  24135026.7874   -6995781.85848  -5361071.70047  24135027.5194   24135034.2894
  23742654.0334   -9290769.92148  -7218625.30047  23742654.2354   23742666.2244
  24505033.8334   -3967401.49248  -2921240.21347  24505034.1454   24505043.9764
 03 10 29  0  4 30.0000000  0 10G 7G29G11G26G 8G 4G28G20G27G 9
  20925260.4904  -19098316.34949 -14852737.26349  20925260.0764   20925266.5424
  25109269.8674    6202510.52047   4854873.47346  25109273.3214   25109284.3644
  23722208.2664   -6798072.91248  -5175618.36647  23722206.9744   23722212.4774
  25212508.3784    1109442.86848    878769.59246  25212508.6794   25212521.7204
  21722731.4274  -18809676.96949 -14627324.70948  21722731.6504   21722739.1404
  21871074.0864  -17975007.76249 -13934052.72748  21871074.6634   21871082.8674
  20576191.6494  -25904202.66449 -20165765.77749  20576191.0944   20576196.1564
  24127625.7314   -7034677.27748  -5391379.69947  24127624.7004   24127630.6984
  23764150.9944   -9177800.15048  -7130596.97447  23764150.0354   23764163.0184
  24487939.2714   -4057231.40248  -2991237.32847  24487938.5574   24487951.1454
 03 10 29  0  5  0.0000000  0 10G 7G29G11G26G 8G 4G28G20G27G 9
  20924813.6784  -19100665.88449 -14854568.02249  20924813.1564   20924819.4554
  25119707.7904    6257351.36247   4897606.44946  25119705.5844   25119722.9424
  23740178.9384   -6703632.04348  -5102028.07447  23740179.3784   23740184.9534
  25222803.8284    1163552.88148    920933.19046  25222804.2074   25222819.6834
  21741178.6934  -18712739.17149 -14551788.78448  21741179.0224   21741185.9344
  21853381.3424  -18067987.32349 -14006504.19448  21853380.8844   21853388.4554
  20574860.2514  -25911198.15649 -20171216.77149  20574860.0064   20574864.6754
  24120292.7784   -7073209.22248  -5421404.47347  24120291.7534   24120299.1374
  23785660.6644   -9064769.27648  -7042521.04047  23785660.8814   23785672.8094
  24470905.0794   -4146745.34748  -3060988.32147  24470906.9504   24470917.5584
 03 10 29  0  5 30.0000000  0 10G 7G29G11G26G 8G 4G28G20G27G 9
  20924396.9084  -19102854.22349 -14856273.17649  20924396.5604   20924402.8124
  25130159.7084    6312282.55747   4940409.87546  25130157.4604   25130177.0374
  23758188.3054   -6608997.47748  -5028286.85347  23758188.5194   23758194.7564
  25233139.3004    1217862.95047    963252.63846  25233140.2964   25233156.1344
  21759685.5954  -18615484.89349 -14476006.25048  21759685.6884   21759692.8424
  21835752.4824  -18160624.44549 -14078688.81548  21835753.3674   21835760.8274
  20573587.1414  -25917888.59349 -20176430.05149  20573586.9044   20573591.4184
  24113029.3484   -7111382.64648  -5451149.89247  24113029.1734   24113035.3814
  23807179.2894   -8951687.56347  -6954405.48947  23807178.8814   23807191.4814
  24453930.9834   -4235948.57148  -3130497.21347  24453931.6914   24453942.1204
 03 10 29  0  6  0.0000000  0 10G 7G29G11G26G 8G 4G28G20G27G 9
  20924012.3234  -19104874.61949 -14857847.46649  20924011.9444   20924018.4204
  25140632.3404    6367309.19647   4983287.60846  25140632.3184   25140645.8454
  23776233.6384   -6514163.96848  -4954390.61547  23776233.9674   23776239.9884
  25243513.3264    1272378.18247   1005731.94746  25243510.6074   25243528.5344
  21778253.7404  -18517909.10849 -14399973.18948  21778253.0554   21778260.5314
  21818191.9204  -18252908.91549 -14150598.65248  21818191.5614   21818198.8344
  20572373.6714  -25924264.60749 -20181398.32949  20572373.5854   20572378.0334
  24105833.8434   -7149187.60548  -5480608.19847  24105835.1114   24105841.5344
  23828709.0274   -8838550.23947  -6866246.63147  23828708.9774   23828719.4424
  24437018.2774   -4324830.44248  -3199755.61047  24437018.0944   24437029.3104
 03 10 29  0  6 30.0000000  0 10G 7G29G11G26G 8G 4G28G20G27G 9
  20923659.0984  -19106731.43149 -14859294.28249  20923658.7514   20923664.8884
  25151120.0094    6422424.99547   5026234.84146  25151120.6584   25151134.4424
  23794317.0074   -6419137.26748  -4880343.80947  23794316.4614   23794324.5194
  25253924.5754    1327092.10847   1048366.17446  25253927.4524   25253941.2044
  21796881.5344  -18420018.53849 -14323694.83948  21796880.6934   21796888.5394
  21800697.4284  -18344841.36049 -14222234.18148  21800697.1774   21800704.8624
  20571219.7314  -25930328.26449 -20186123.20649  20571219.6444   20571224.2064
  24098708.9824   -7186625.15148  -5509780.22947  24098710.0994   24098716.9594
  23850246.4484   -8725363.38847  -6778049.15847  23850248.5774   23850259.5684
  24420163.0864   -4413391.78148  -3268764.29647  24420164.4374   24420173.1904
 03 10 29  0  7  0.0000000  0 10G 7G29G11G26G 8G 4G28G20G27G 9
  20923336.9444  -19108425.14949 -14860614.00649  20923336.2044   20923342.7204
  25161624.2524    6477627.64557   5069249.76156  25161626.3394   25161641.6364
  23812436.3354   -6323919.87448  -4806148.42847  23812435.6024   23812443.5474
  25264374.0794    1382002.30047   1091153.26646  25264374.4554   25264388.7104
  21815569.3224  -18321815.59849 -14247173.08648  21815568.4884   21815576.3224
  21783270.9274  -18436419.15849 -14293593.36148  21783271.0694   21783278.1584
  20570125.6824  -25936077.93249 -20190603.42149  20570125.3994   20570129.9224
  24091657.0474   -7223692.41648  -5538663.74347  24091656.3664   24091661.9644
  23871794.0794   -8612129.72547  -6689815.25347  23871793.7244   23871807.9324
  24403372.5884   -4501629.75448  -3337520.96047  24403372.0564   24403384.3944
 03 10 29  0  7 30.0000000  0 10G 7G29G11G26G 8G 4G28G20G27G 9
  20923045.0014  -19109955.37749 -14861806.34049  20923044.6414   20923051.7544
  25172145.9884    6532915.00747   5112330.62746  25172142.6744   25172160.0204
  23830592.3164   -6228512.08748  -4731804.69547  23830593.2624   23830598.3774
  25274861.0804    1437107.46747   1134092.23446  25274859.9044   25274875.4904
  21834315.8184  -18223301.96449 -14170409.23448  21834315.2354   21834322.7174
  21765912.0614  -18527638.39449 -14364673.14048  21765912.7244   21765919.2164
  20569092.0664  -25941510.40449 -20194836.47449  20569091.4564   20569096.2664
  24084674.1694   -7260385.64448  -5567255.78047  24084672.6554   24084680.7974
  23893349.4124   -8498850.53247  -6601545.83947  23893351.6474   23893365.9224
  24386644.0684   -4589540.42148  -3406022.55847  24386643.4834   24386654.3994
 03 10 29  0  8  0.0000000  0  9G 7G11G26G 8G 4G28G20G27G 9
  20922779.4394  -19111351.98049 -14862894.54849  20922778.9724   20922785.5304
  23848777.4234   -6132945.80048  -4657337.44347  23848776.7244   23848783.2394
  25285377.5794    1492375.44948   1177158.17646  25285377.2394   25285390.5894
  21853115.2504  -18124509.64449 -14093428.21948  21853114.9194   21853122.5444
  21748616.8124  -18618525.65349 -14435494.23948  21748617.1954   21748624.9814
  20568113.0134  -25946653.20049 -20198843.79849  20568112.7084   20568117.5294
  24077757.9944   -7296731.47748  -5595577.12347  24077756.5544   24077763.8794
  23914909.1374   -8385557.65147  -6513265.77947  23914909.4744   23914922.2714
  24369972.0104   -4677150.15048  -3474289.64647  24369974.2164   24369982.7514
 03 10 29  0  8 30.0000000  0  9G 7G11G26G 8G 4G28G20G27G 9
  20922549.7694  -19112557.89549 -14863834.16549  20922549.6474   20922556.1464
  23867004.2354   -6037165.37248  -4582703.32047  23867003.1854   23867009.7654
  25295936.9744    1547861.66548   1220394.10847  25295937.3824   25295950.8164
  21871978.6304  -18025383.62449 -14016187.18048  21871978.0894   21871984.7344
  21731396.0274  -18709020.32949 -14506009.43048  21731396.4694   21731403.5374
  20567200.7954  -25951447.30049 -20202579.41549  20567200.4604   20567205.2194
  24070918.4334   -7332669.58248  -5623580.77047  24070918.2724   24070926.5724
  23936483.0814   -8272195.83547  -6424932.03247  23936482.7264   23936493.9144
  24353367.7864   -4764398.43248  -3542275.13747  24353368.7754   24353379.9674
 03 10 29  0  9  0.0000000  0  9G 7G11G26G 8G 4G28G20G27G 9
  20922350.2744  -19113608.21349 -14864652.54749  20922349.7244   20922356.0344
  23885264.6814   -5941207.25648  -4507930.75347  23885263.5304   23885270.1064
  25306530.6804    1603528.97848   1263771.18947  25306530.5884   25306543.8024
  21890898.1724  -17925960.73249 -13938714.80748  21890897.5694   21890904.6124
  21714244.1774  -18799154.04749 -14576243.36348  21714244.6814   21714251.5954
  20566348.2984  -25955925.09849 -20206068.56149  20566348.1674   20566352.9344
  24064151.7264   -7368231.54948  -5651291.32747  24064150.7534   24064158.4694
  23958062.3694   -8158801.87248  -6336573.21647  23958061.9634   23958072.6664
  24336829.4484   -4851316.62748  -3610003.35147  24336828.8174   24336838.0284
 03 10 29  0  9 30.0000000  0  9G 7G11G26G 8G 4G28G20G27G 9
  20922180.3644  -19114500.75649 -14865347.98549  20922179.9124   20922186.4264
  23903557.9304   -5845071.38148  -4433019.68147  23903558.7084   23903564.1794
  25317156.6894    1659377.45648   1307289.38446  25317156.4864   25317171.2974
  21909873.9334  -17826241.63049 -13861011.63748  21909872.6024   21909880.3114
  21697161.6414  -18888921.70549 -14646192.05148  21697162.2424   21697168.8204
  20565557.4954  -25960082.50349 -20209308.05349  20565557.2194   20565561.7974
  24057457.4554   -7403412.53148  -5678705.01247  24057456.0334   24057463.8724
  23979646.1874   -8045375.85148  -6248189.43147  23979645.6364   23979657.1074
  24320353.1494   -4937899.49048  -3677470.30947  24320353.2334   24320363.8694
 03 10 29  0 10  0.0000000  0  9G 7G11G26G 8G 4G28G20G27G 9
  20922042.7894  -19115222.50149 -14865910.33749  20922042.3844   20922049.2554
  23921888.3374   -5748745.89248  -4357960.85547  23921887.8914   23921893.7604
  25327821.8774    1715418.43548   1350957.68146  25327822.5514   25327836.1664
  21928907.7994  -17726215.02949 -13783068.85248  21928907.4714   21928915.0924
  21680152.6084  -18978306.65849 -14715842.52648  21680152.3514   21680159.4764
  20564830.4224  -25963903.98449 -20212285.78149  20564829.9374   20564834.7154
  24050837.5754   -7438195.92048  -5705808.89047  24050836.8904   24050843.7854
  24001238.0534   -7931906.50548  -6159771.85047  24001237.9404   24001250.9374
  24303943.7824   -5024130.57348  -3744663.11647  24303943.8064   24303953.8894
 03 10 29  0 10 30.0000000  0  9G 7G11G26G 8G 4G28G20G27G 9
  20921933.3204  -19115798.84149 -14866359.38649  20921932.7314   20921939.4034
  23940249.1734   -5652257.66048  -4282775.21547  23940249.3664   23940255.1364
  25338517.1544    1771624.40247   1394754.44646  25338518.6514   25338529.9604
  21947995.9544  -17625908.35349 -13704907.83148  21947995.2794   21948003.2384
  21663211.1394  -19067331.01849 -14785212.03148  21663211.4934   21663218.7634
  20564162.7524  -25967412.64549 -20215019.76049  20564162.4884   20564166.9804
  24044289.7274   -7472604.11848  -5732620.42647  24044289.9244   24044296.1484
  24022834.6094   -7818421.07648  -6071341.74347  24022835.8894   24022846.6184
  24287596.5464   -5110031.59348  -3811598.75647  24287597.0394   24287607.8864
 03 10 29  0 11  0.0000000  0  9G 7G11G26G 8G 4G28G20G27G 9
  20921853.3754  -19116218.03449 -14866685.99349  20921852.8654   20921859.7144
  23958642.8134   -5555596.38948  -4207454.73047  23958642.9794   23958649.9604
  25349246.1594    1828005.37647   1438687.66046  25349247.5244   25349258.1964
  21967138.6544  -17525312.03849 -13626521.10048  21967138.2714   21967146.5014
  21646341.6444  -19155979.64649 -14854288.75048  21646342.0834   21646349.1094
  20563557.0394  -25970594.30549 -20217498.93249  20563556.8684   20563561.3514
  24037816.9784   -7506621.87148  -5759127.71847  24037816.1664   24037822.1654
  24044434.1284   -7704909.49748  -5982891.29047  24044433.7514   24044444.4004
  24271314.7014   -5195587.47248  -3878265.46547  24271315.6924   24271326.3854
 03 10 29  0 11 30.0000000  0  9G 7G11G26G 8G 4G28G20G27G 9
  20921802.9014  -19116482.62449 -14866892.12149  20921802.3214   20921808.8184
  23977069.9364   -5458766.38248  -4132002.77247  23977068.9634   23977076.1194
  25360007.2004    1884556.60247   1482753.48946  25360008.2094   25360022.5104
  21986335.7104  -17424430.73049 -13547912.30548  21986335.2804   21986342.9904
  21629544.1694  -19244251.94449 -14923072.23048  21629544.3374   21629551.3474
  20563013.9484  -25973449.47349 -20219723.69249  20563013.5394   20563017.8424
  24031417.0534   -7540248.72248  -5785330.40947  24031416.9934   24031422.6394
  24066039.1814   -7591376.41148  -5894424.01547  24066039.0474   24066051.5304
  24255101.4674   -5280797.14648  -3944662.42547  24255100.2524   24255113.1974
 03 10 29  0 12  0.0000000  0  9G 7G11G26G 8G 4G28G20G27G 9
  20921781.6624  -19116592.39749 -14866977.60849  20921781.3904   20921788.3804
  23995528.7094   -5361768.67648  -4056420.11947  23995527.7854   23995533.8184
  25370802.2854    1941276.47347   1526950.71946  25370801.4184   25370816.3864
  22005586.8624  -17323266.44849 -13469083.02148  22005585.9334   22005594.6564
  21612818.8594  -19332144.38949 -14991559.72848  21612819.3334   21612825.9574
  20562533.0644  -25975975.42149 -20221691.91749  20562532.6234   20562537.4504
  24025093.8274   -7573481.40048  -5811225.95347  24025094.1564   24025099.2314
  24087647.8324   -7477823.36748  -5805941.22447  24087647.2924   24087658.3464
  24238951.1704   -5365657.03348  -4010786.77147  24238951.4354   24238963.7674
 03 10 29  0 12 30.0000000  0  9G 7G11G26G 8G 4G28G20G27G 9
  20921789.5084  -19116551.05949 -14866945.34849  20921789.1614   20921796.0224
  24014017.4944   -5264608.45948  -3980710.85647  24014017.5044   24014021.8864
  25381624.5774    1998159.19447   1571274.89846  25381624.4594   25381642.0634
  22024889.9414  -17221825.05949 -13390037.80248  22024889.8604   22024897.5794
  21596165.4814  -19419657.28849 -15059751.46148  21596165.5674   21596172.7304
  20562114.8134  -25978173.61549 -20223404.75749  20562114.6404   20562119.1994
  24018844.8224   -7606320.22048  -5836814.58747  24018843.7404   24018850.2554
  24109259.1144   -7364255.98648  -5717447.24747  24109259.3314   24109269.7434
  24222871.3934   -5450167.45548  -4076638.86747  24222870.9734   24222881.0574
 03 10 29  0 13  0.0000000  0  9G 7G11G26G 8G 4G28G20G27G 9
  20921827.2444  -19116355.94449 -14866793.26349  20921826.5194   20921833.1494
  24032536.3944   -5167284.99548  -3904874.38247  24032537.4044   24032542.8384
  25392482.0244    2055205.40447   1615726.45446  25392480.4894   25392495.4064
  22044247.1524  -17120106.21049 -13310776.37848  22044246.4174   22044254.1624
  21579585.5524  -19506784.90349 -15127642.98148  21579585.8894   21579593.1284
  20561760.2194  -25980039.31149 -20224858.50549  20561759.7114   20561764.0074
  24012671.1124   -7638759.77648  -5862092.11047  24012670.1984   24012676.3834
  24130872.7674   -7250673.55448  -5628941.62147  24130872.8344   24130883.0324
  24206856.1964   -5534322.54848  -4142214.05247  24206855.7244   24206865.9994
 03 10 29  0 13 30.0000000  0  8G 7G11G 8G 4G28G20G27G 9
  20921892.7514  -19116009.88649 -14866523.56249  20921892.5074   20921899.0964
  24051086.8654   -5069802.42548  -3828913.91947  24051086.0814   24051093.2004
  22063655.7054  -17018114.78949 -13231302.56548  22063655.0564   22063662.6394
  21563079.2914  -19593526.77449 -15195233.91148  21563079.1014   21563085.7544
  20561467.9924  -25981572.96549 -20226053.51649  20561467.4454   20561472.1294
  24006574.9614   -7670799.56048  -5887058.13147  24006574.3894   24006579.9414
  24152489.4104   -7137080.78348  -5540427.90647  24152490.1234   24152501.9044
  24190910.0854   -5618121.64148  -4207511.88447  24190910.1154   24190920.3014
 03 10 29  0 14  0.0000000  0  9G 7G11G 8G24G 4G28G20G27G 9
  20921987.4274  -19115511.05749 -14866134.81649  20921987.0534   20921993.8854
  24069667.9844   -4972160.51748  -3752829.32047  24069668.5054   24069673.9514
  22083116.3864  -16915851.12849 -13151616.61748  22083115.1904   22083122.7934
  25001194.0704   -2790055.84348  -2169200.36046  25001191.4404   25001207.9364
  21546647.0904  -19679877.80149 -15262520.29548  21546647.0914   21546654.1654
  20561239.9844  -25982770.61849 -20226986.70649  20561239.3774   20561244.0924
  24000553.2694   -7702434.88348  -5911708.97747  24000554.6594   24000560.9414
  24174107.6124   -7023477.65847  -5451906.17347  24174107.2404   24174118.0874
  24175032.5944   -5701559.60848  -4272528.28547  24175031.2314   24175043.2104
 03 10 29  0 14 30.0000000  0  9G 7G11G 8G24G 4G28G20G27G 9
  20922110.8554  -19114862.87749 -14865629.69349  20922110.4924   20922117.0054
  24088277.6944   -4874364.15148  -3676624.36147  24088277.9644   24088284.1854
  22102626.6494  -16813320.83849 -13071722.91348  22102625.6114   22102633.1244
  24980165.8544   -2900555.62848  -2255303.61046  24980166.3884   24980181.4514
  21530289.7644  -19765838.38749 -15329502.44148  21530288.9924   21530296.0174
  20561075.7874  -25983633.41749 -20227658.97549  20561075.2394   20561079.9014
  23994610.8694   -7733665.88848  -5936044.75647  23994610.1684   23994617.7094
  24195726.7384   -6909869.60247  -5363380.58247  24195727.1004   24195738.7154
  24159221.6364   -5784636.18448  -4337263.10047  24159222.1674   24159233.8064
 03 10 29  0 15  0.0000000  0  9G 7G11G 8G24G 4G28G20G27G 9
  20922262.7214  -19114065.85149 -14865008.57749  20922262.1814   20922268.6084
  24106915.6594   -4776415.48048  -3600300.69847  24106915.2254   24106922.0854
  22122188.0614  -16710526.41349 -12991623.38148  22122186.8624   22122195.1634
  24959148.3904   -3011002.76948  -2341365.86846  24959149.9574   24959166.8764
  21514005.8454  -19851405.50249 -15396177.97348  21514006.8424   21514013.1484
  20560975.6884  -25984159.46549 -20228068.83749  20560975.2554   20560979.9664
  23988745.1944   -7764490.06848  -5960063.52747  23988746.1784   23988751.5544
  24217344.8744   -6796258.87447  -5274852.95147  24217346.4214   24217358.9774
  24143481.6194   -5867348.71848  -4401714.27847  24143482.4054   24143492.8784
 03 10 29  0 15 30.0000000  0  9G 7G11G 8G24G 4G28G20G27G 9
  20922442.4614  -19113120.83949 -14864272.14649  20922441.9264   20922448.4434
  24125582.5144   -4678316.90048  -3523860.24847  24125584.2444   24125588.6104
  22141797.9844  -16607471.30249 -12911320.72448  22141797.8284   22141805.2244
  24938142.6954   -3121394.99248  -2427385.37246  24938142.1204   24938157.0984
  21497798.4854  -19936577.30349 -15462545.47848  21497798.6784   21497805.4084
  20560939.7214  -25984347.63249 -20228215.42249  20560939.4954   20560944.3204
  23982957.0684   -7794905.56348  -5983763.82747  23982957.0744   23982963.0114
  24238966.5144   13797811.68457  10772474.50556  24238966.5114   24238976.6694
  24127813.2344   -5949694.84548  -4465879.89847  24127813.0794   24127823.1634
 03 10 29  0 16  0.0000000  0  9G 7G11G 8G24G 4G28G20G27G 9
  20922650.6264  -19112027.07249 -14863419.80549  20922649.9364   20922656.6094
  24144280.7214   -4580068.84048  -3447303.31547  24144279.6914   24144285.2824
  22161458.6254  -16504156.73249 -12830815.87948  22161458.2894   22161464.8114
  24917145.4684   -3231728.09248  -2513358.76046  24917142.8614   24917162.3504
  21481666.6344  -20021349.60549 -15528601.67548  21481666.7554   21481673.6624
  20560968.7394  -25984194.91949 -20228096.38249  20560968.3844   20560972.8384
  23977248.4094   -7824908.41748  -6007142.59247  23977247.2494   23977253.7254
  24260585.3944   13911421.11157  10861001.08056  24260585.9014   24260596.7924
  24112213.2594   -6031670.38848  -4529756.80047  24112213.4304   24112224.1634
 03 10 29  0 16 30.0000000  0  9G 7G11G 8G24G 4G28G20G27G 9
  20922886.6014  -19110789.28049 -14862455.23549  20922885.6754   20922891.9704
  24163001.8044   -4481677.85248  -3370635.01547  24163005.8334   24163009.4084
  22181167.5224  -16400589.56249 -12750114.20748  22181165.8054   22181173.9004
  24896159.1974   -3342003.69848  -2599287.27346  24896158.6334   24896176.3114
  21465610.7144  -20105723.99249 -15594347.81848  21465611.0854   21465617.5094
  20561062.3564  -25983703.84249 -20227713.68749  20561062.2984   20561066.2424
  23971616.6964   -7854500.25448  -6030201.08747  23971617.3024   23971621.9384
  24282202.2344   14025022.70447  10949521.54046  24282200.2944   24282213.8684
  24096684.9074   -6113276.62648  -4593345.88447  24096685.1264   24096694.4514
 03 10 29  0 17  0.0000000  0  9G 7G11G 8G24G 4G28G20G27G 9
  20923149.7644  -19109403.30249 -14861375.19149  20923149.2064   20923155.4634
  24181755.4464   -4383141.29248  -3293853.25347  24181754.5374   24181758.0724
  22200923.8714  -16296767.92049 -12669214.24948  22200922.0294   22200929.4224
  24875186.5014   -3452214.48048  -2685165.24546  24875188.0774   24875204.0304
  21449631.9974  -20189693.31249 -15659778.31948  21449631.9484   21449638.5294
  20561221.3734  -25982867.98849 -20227062.33049  20561220.9054   20561225.4794
  23966065.1024   -7883674.41648  -6052934.09647  23966065.1524   23966070.5194
  24303819.3754   14138618.85547  11038037.73947  24303819.0054   24303830.2234
  24081226.7804   -6194506.26948  -4656641.56447  24081226.6784   24081237.8214
 03 10 29  0 17 30.0000000  0  9G 7G11G 8G24G 4G28G20G27G 9
  20923440.8034  -19107874.49249 -14860183.85249  20923439.9744   20923446.5374
  24200531.4774   -4284466.07348  -3216963.45447  24200531.9034   24200536.0454
  22220727.0494  -16192699.49449 -12588121.99148  22220726.0144   22220734.2154
  24854226.7344   -3562362.89147  -2770994.56646  24854225.3814   24854243.9214
  21433729.2614  -20273259.80149 -15724894.92948  21433729.9154   21433736.3364
  20561445.6634  -25981690.55749 -20226144.80949  20561445.2854   20561449.4224
  23960591.9294   -7912432.66948  -6075343.05147  23960591.8664   23960598.1794
  24325433.9314   14252202.34947  11126544.14047  24325432.4824   24325445.1114
  24065840.3344   -6275361.29448  -4719645.28247  24065841.1684   24065850.0564
 03 10 29  0 18  0.0000000  0  9G 7G11G 8G24G 4G28G20G27G 9
  20923759.2244  -19106198.87949 -14858878.11949  20923758.7634   20923764.9764
  24219336.2864   -4185649.81748  -3139963.76147  24219336.2184   24219340.3974
  22240576.8984  -16088382.64149 -12506836.14948  22240576.3274   22240584.5644
  24833276.5124   -3672441.78248  -2856769.63947  24833279.3964   24833294.4794
  21417905.3464  -20356416.46949 -15789692.19848  21417905.3574   21417911.7854
  20561735.7254  -25980165.47849 -20224956.39549  20561735.1794   20561739.7294
  23955200.4334   -7940768.64148  -6097422.94747  23955200.3074   23955206.0364
  24347046.2474   14365775.05948  11215042.11147  24347046.8524   24347059.2004
  24050524.3674   -6355834.48648  -4782351.57247  24050526.3184   24050537.7534
 03 10 29  0 18 30.0000000  0  9G 7G11G 8G24G 4G28G20G27G 9
  20924104.9004  -19104379.48949 -14857460.36049  20924104.7664   20924111.3704
  24238166.9224   -4086696.89448  -3062857.57147  24238166.4734   24238171.3854
  22260474.6904  -15983822.38449 -12425360.64448  22260474.6064   22260481.3994
  24812342.2254   -3782451.24747  -2942490.68147  24812342.2924   24812358.3654
  21402158.1304  -20439163.23249 -15854170.06248  21402159.5174   21402165.4304
  20562091.7774  -25978293.65749 -20223497.79749  20562091.0944   20562095.7494
  23949889.5054   -7968682.30048  -6119173.77047  23949888.2284   23949894.4554
  24368654.6194   14479332.29948  11303528.03147  24368655.6134   24368665.3994
  24035286.3074   -6435925.80948  -4844760.16847  24035286.4094   24035295.3614
 03 10 29  0 19  0.0000000  0  9G 7G11G 8G24G 4G28G20G27G 9
  20924477.7974  -19102423.38749 -14855936.07049  20924477.1264   20924483.7014
  24257020.3264   -3987615.84948  -2985651.55047  24257021.1224   24257025.2354
  22280416.3824  -15879028.27249 -12343702.92548  22280416.1934   22280422.9994
  24791418.5264   -3892395.09247  -3028160.63747  24791419.4104   24791436.4734
  21386489.9234  -20521504.09349 -15918331.64948  21386489.7454   21386495.9084
  20562512.8584  -25976080.06049 -20221772.87949  20562512.5274   20562516.8674
  23944655.7514   -7996177.96448  -6140598.88647  23944656.0224   23944662.6724
  24390260.6354   14592864.95348  11391994.79347  24390259.1264   24390273.5464
  24020116.0874   -6515639.03348  -4906874.23947  24020116.0314   24020125.3164
 03 10 29  0 19 30.0000000  0  9G 7G11G 8G24G 4G28G20G27G 9
  20924878.1404  -19100318.78749 -14854296.06449  20924877.5714   20924884.2084
  24275900.6054   -3888396.60248  -2908337.82047  24275900.5654   24275906.2604
  22300404.6394  -15773990.57749 -12261855.39748  22300404.5404   22300411.9544
  24770513.4534   -4002258.18947  -3113767.62247  24770515.9474   24770531.4354
  21370900.6374  -20603424.15949 -15982165.33848  21370900.8044   21370907.3654
  20563001.7384  -25973510.64649 -20219770.69949  20563001.3014   20563005.9104
  23939506.1624   -8023241.09348  -6161686.97547  23939505.6884   23939512.0794
  24411863.4514   14706383.11848  11480450.28047  24411861.4794   24411872.3624
  24005022.9934   -6594959.03048  -4968681.86347  24005022.6454   24005032.4954
 03 10 29  0 20  0.0000000  0  9G 7G11G 8G24G 4G28G20G27G 9
  20925304.6204  -19098076.38449 -14852548.67949  20925304.4854   20925311.0374
  24294806.3024   -3789051.25748  -2830925.83547  24294805.8844   24294809.8904
  22320436.9184  -15668722.27349 -12179828.18248  22320436.8194   22320442.6424
  24749620.9574   -4112048.19547  -3199317.73746  24749622.6674   24749637.7984
  21355390.5554  -20684931.37049 -16045677.33348  21355390.6114   21355397.0124
  20563556.6574  -25970594.22649 -20217498.13049  20563556.3424   20563561.0334
  23934437.2094   -8049879.35648  -6182443.98747  23934436.0294   23934442.9164
  24433459.4544   14819874.13848  11568884.56647  24433459.6604   24433471.0854
  23990002.3484   -6673893.18848  -5030188.78547  23990001.1784   23990010.3554
 03 10 29  0 20 30.0000000  0  9G 7G11G 8G24G 4G28G20G27G 9
  20925758.1094  -19095694.83449 -14850692.87049  20925757.5884   20925763.9544
  24313734.4324   -3689579.93348  -2753415.66847  24313733.7064   24313738.7424
  22340512.3294  -15563224.37949 -12097622.05548  22340511.7404   22340519.7924
  24728742.6344   -4221760.55347  -3284807.33546  24728742.0984   24728761.1304
  21339959.8934  -20766021.03849 -16108863.96948  21339960.0074   21339965.7824
  20564178.2634  -25967327.20049 -20214952.35649  20564177.8704   20564182.3754
  23929448.3924   -8076088.54048  -6202866.64447  23929448.4464   23929454.8564
  24455051.1604   14933337.76148  11657297.57446  24455052.3494   24455062.0854
  23975054.7964   -6752436.81648  -5091391.47847  23975055.1904   23975065.8024
 03 10 29  0 21  0.0000000  0  9G 7G11G 8G24G 4G28G20G27G 9
  20926239.0644  -19093169.04249 -14848724.66649  20926238.6424   20926244.3104
  24332688.3134   -3589979.24748  -2675804.71647  24332687.6954   24332691.8304
  22360631.7604  -15457494.21549 -12015234.95448  22360631.8144   22360638.7184
  24707882.6534   -4331387.39547  -3370230.36647  24707882.2184   24707896.7214
  21324609.5294  -20846685.55349 -16171719.32448  21324609.7464   21324615.9934
  20564868.0994  -25963702.50049 -20212127.88549  20564867.6044   20564872.3244
  23924544.6944   -8101861.23248  -6222949.20847  23924545.1454   23924550.7164
  24476637.2844   15046776.87148  11745691.46146  24476636.9644   24476650.4094
  23960183.1794   -6830582.14648  -5152283.72847  23960184.2644   23960193.8654
 03 10 29  0 21 30.0000000  0  9G 7G11G 8G24G 4G28G20G27G 9
  20926745.4944  -19090507.28249 -14846650.51249  20926744.9804   20926751.1084
  24351663.5314   -3490259.03848  -2598100.61047  24351664.2724   24351668.1744
  22380794.5134  -15351542.00549 -11932674.82948  22380792.4624   22380802.1264
  24687036.1554   -4440933.55848  -3455590.62247  24687036.9824   24687050.6514
  21309339.6384  -20926929.77049 -16234247.17448  21309339.6494   21309346.3254
  20565624.8024  -25959726.23749 -20209029.46749  20565624.2454   20565628.8314
  23919722.4924   -8127202.49948  -6242695.59347  23919721.3844   23919727.2374
  24498217.0454   15160181.59448  11834058.52346  24498218.7184   24498229.0544
  23945387.2684   -6908333.99248  -5212869.44347  23945387.4424   23945397.4364
 03 10 29  0 22  0.0000000  0  9G 7G11G 8G24G 4G28G20G27G 9
  20927277.8414  -19087708.34149 -14844469.47249  20927277.4174   20927283.4724
  24370663.8914   -3390419.31148  -2520303.39047  24370663.1234   24370668.0364
  22400998.5834  -15245369.03649 -11849942.68148  22400997.4504   22401004.5164
  24666204.6994   -4550394.66547  -3540884.60847  24666203.8384   24666222.4364
  21294149.9744  -21006749.88749 -16296444.55648  21294150.4204   21294156.2034
  20566448.3884  -25955395.27949 -20205654.66449  20566448.4674   20566452.9894
  23914983.0474   -8152108.58148  -6262102.87647  23914981.4434   23914988.6444
  24519791.3684   15273551.14147  11922398.29646  24519792.3664   24519803.8744
  23930668.2254   -6985687.92448  -5273145.04347  23930667.8844   23930677.7814
 03 10 29  0 22 30.0000000  0  8G 7G11G 8G24G 4G28G20G 9
  20927836.8584  -19084772.05949 -14842181.40349  20927836.0144   20927842.2904
  24389684.5244   -3290461.66148  -2442414.24947  24389683.4204   24389689.3844
  22421243.3434  -15138977.33649 -11767040.10048  22421243.9834   22421250.6494
  24645391.9774   -4659767.60847  -3626109.93847  24645394.9474   24645407.7674
  21279042.2174  -21086142.69849 -16358308.97948  21279042.4914   21279048.2574
  20567340.9624  -25950707.16549 -20202001.56049  20567340.5234   20567344.9924
  23910326.8274   -8176576.56248  -6281168.78947  23910326.5024   23910333.2344
  23916024.8554   -7062640.73448  -5333108.09447  23916023.8434   23916032.8814
 03 10 29  0 23  0.0000000  0  8G 7G11G 8G24G 4G28G20G 9
  20928421.3034  -19081698.63049 -14839786.47149  20928420.5514   20928427.2354
  24408727.9424   -3190387.92348  -2364434.70047  24408728.0944   24408733.7814
  22441530.8214  -15032369.42449 -11683969.03348  22441530.5454   22441537.6474
  24624595.0534   -4769049.50448  -3711264.32347  24624596.8764   24624610.7114
  21264015.7754  -21165105.47049 -16419838.30648  21264016.0554   21264022.2804
  20568301.5054  -25945660.15749 -20198068.80249  20568300.8984   20568305.4014
  23905754.8644   -8200604.02148  -6299891.43347  23905755.4644   23905761.4464
  23901457.4984   -7139189.55648  -5392756.35947  23901456.8834   23901466.6194
 03 10 29  0 23 30.0000000  0  8G 7G11G 8G24G 4G28G20G 9
  20929031.1844  -19078491.20749 -14837287.12949  20929031.0024   20929037.4354
  24427792.9744   -3090202.41348  -2286368.02147  24427792.1764   24427798.1934
  22461857.4944  -14925550.92949 -11600733.88748  22461856.2504   22461864.9884
  24603818.2544   -4878240.34048  -3796347.76047  24603818.1814   24603832.9034
  21249071.5314  -21243638.54649 -16481032.80348  21249071.7114   21249077.6744
  20569329.7684  -25940255.41749 -20193857.28549  20569329.2994   20569333.8794
  23901266.6904   -8224191.33448  -6318271.10247  23901265.7834   23901271.7154
  23886967.1864   -7215334.30148  -5452089.73947  23886967.9344   23886976.2254
 03 10 29  0 24  0.0000000  0  8G 7G11G 8G24G 4G28G20G 9
  20929667.3224  -19075149.10349 -14834682.84249  20929666.9054   20929673.2214
  24446877.6004   -2989906.05448  -2208214.98747  24446878.2424   24446883.5324
  22482223.9164  -14818523.30849 -11517335.78248  22482223.9944   22482231.2354
  24583057.9184   -4987336.51148  -3881357.31747  24583057.4014   24583070.2874
  21234209.8274  -21321738.43549 -16541889.76248  21234209.8154   21234215.9274
  20570426.8014  -25934490.27149 -20189364.93349  20570426.5094   20570430.9024
  23896862.5344   -8247335.30748  -6336305.32247  23896861.8434   23896867.6394
  23872555.2174   -7291071.16448  -5511105.30147  23872554.8984   23872565.2164
 03 10 29  0 24 30.0000000  0  8G 7G11G 8G24G 4G28G20G 9
  20930329.4084  -19071670.50949 -14831972.20449  20930328.7314   20930335.1774
  24465985.5684   -2889498.66348  -2129975.42047  24465986.4354   24465990.3194
  22502630.2834  -14711287.16349 -11433775.19748  22502630.1784   22502636.7984
  24562317.1764   -5096332.78748  -3966289.01447  24562318.7044   24562328.9344
  21219430.4074  -21399400.36649 -16602405.44948  21219430.9284   21219437.4704
  20571593.1794  -25928360.93049 -20184588.79449  20571592.7954   20571597.4544
  23892543.9484   -8270031.36148  -6353990.51747  23892543.3254   23892548.7224
  23858221.7724   -7366395.19648  -5569799.16047  23858221.2354   23858230.2664
 03 10 29  0 25  0.0000000  0  8G 7G11G 8G24G 4G28G20G 9
  20931016.1264  -19068062.43549 -14829160.67349  20931015.2904   20931021.4524
  24485111.6384   -2788988.94848  -2051656.10647  24485111.9514   24485118.5314
  22523074.7364  -14603851.86249 -11350059.40648  22523074.4184   22523082.6194
  24541593.3644   -5205233.51248  -4051146.25347  24541594.2834   24541607.9064
  21204734.8064  -21476628.96649 -16662583.48648  21204734.5584   21204740.6574
  20572827.8214  -25921872.68749 -20179532.99449  20572827.7464   20572831.8024
  23888308.3704   -8292284.02748  -6371330.20547  23888308.2714   23888314.7124
  23843965.5664   -7441310.74648  -5628174.74947  23843964.4554   23843974.1174
 03 10 29  0 25 30.0000000  0  8G 7G11G 8G24G 4G28G20G 9
  20931728.4474  -19064318.23949 -14826243.07149  20931728.0674   20931734.2064
  24504256.9744   -2688371.57948  -1973252.94147  24504258.4384   24504262.6184
  22543557.5964  -14496213.01549 -11266185.01248  22543556.6734   22543564.1774
  24520889.6494   -5314028.78048  -4135921.29447  24520888.4894   24520902.9394
  21190122.7684  -21553414.26049 -16722416.08149  21190122.6284   21190129.3674
  20574132.4364  -25915016.55449 -20174190.51949  20574132.1054   20574136.5314
  23884160.7774   -8314084.08448  -6388317.20947  23884160.2684   23884165.7274
  23829789.0694   -7515807.76048  -5686224.19547  23829788.8464   23829799.6294
 03 10 29  0 26  0.0000000  0  8G 7G11G 8G24G 4G28G20G 9
  20932465.0404  -19060448.67249 -14823227.77449  20932464.3224   20932470.3654
  24523421.9614   -2587658.78548  -1894775.39847  24523422.1154   24523428.5524
  22564077.3334  -14388383.51449 -11182162.06848  22564075.8584   22564084.1254
  24500204.9754   -5422726.35148  -4220620.19247  24500205.1634   24500219.0734
  21175593.8424  -21629764.48849 -16781909.66949  21175593.8154   21175600.6284
  20575505.3914  -25907801.50149 -20168568.36949  20575505.3134   20575509.4244
  23880097.2584   -8335439.80648  -6404957.97247  23880095.2764   23880101.4434
  23815691.3804   -7589894.15848  -5743953.64347  23815691.2584   23815699.3934
 03 10 29  0 26 30.0000000  0  8G 7G11G 8G24G 4G28G20G 9
  20933225.7554  -19056450.34449 -14820112.15049  20933225.3394   20933231.4004
  24542606.2594   -2486848.84348  -1816222.17247  24542605.3614   24542613.9384
  22584633.0304  -14280362.70349 -11097990.04448  22584631.5964   22584639.2634
  24479540.0684   -5531319.66748  -4305237.84947  24479538.5124   24479553.6734
  21161148.5104  -21705673.64049 -16841059.56049  21161149.0604   21161154.9404
  20576947.8184  -25900222.10149 -20162662.31249  20576947.4814   20576951.6784
  23876117.9324   -8356345.21948  -6421247.86447  23876117.4944   23876123.1814
  23801671.8954   -7663563.56048  -5801358.20447  23801672.9494   23801681.9524
 03 10 29  0 27  0.0000000  0  8G 7G11G 8G24G 4G28G20G 9
  20934012.8954  -19052312.48949 -14816887.80049  20934012.5754   20934018.8294
  24561810.3084   -2385932.56648  -1737586.08447  24561811.2734   24561816.4404
  22605225.2764  -14172142.04049 -11013662.30648  22605225.9324   22605233.6264
  24458896.6084   -5639795.17948  -4389763.70047  24458896.6114   24458911.3654
  21146790.0964  -21781128.04749 -16899855.10849  21146790.0434   21146795.8184
  20578461.8894  -25892265.81649 -20156462.57649  20578461.4084   20578465.6754
  23872227.6364   -8376787.15348  -6437176.58747  23872226.1354   23872233.3954
  23787735.3694   -7736802.14248  -5858427.05747  23787733.8504   23787744.5244
 03 10 29  0 27 30.0000000  0  8G 7G11G 8G24G 4G28G20G 9
  20934824.4134  -19048048.33749 -14813565.04049  20934823.9394   20934829.9834
  24581032.9734   -2284924.66247  -1658878.59647  24581031.5434   24581034.9274
  22625855.3444  -14063737.08349 -10929190.94548  22625853.4824   22625861.6774
  24438274.5164   -5748163.03348  -4474205.69347  24438274.1104   24438288.4674
  21132515.6544  -21856138.41249 -16958304.63649  21132516.6484   21132522.6044
  20580045.4074  -25883944.01249 -20149978.01849  20580044.9364   20580049.0094
  23868424.8614   -8396776.20248  -6452752.42347  23868422.5854   23868428.5404
  23773877.2074   -7809620.13748  -5915168.15547  23773877.6894   23773887.6394
 03 10 29  0 28  0.0000000  0  8G 7G11G 8G24G 4G28G20G 9
  20935661.0254  -19043651.79049 -14810139.11549  20935660.3804   20935666.5844
  24600271.4664   -2183820.27147  -1580095.94947  24600270.5754   24600275.4794
  22646519.6734  -13955144.05249 -10844573.03848  22646519.2624   22646527.3894
  24417675.2304   -5856413.79148  -4558556.47247  24417675.2034   24417688.0944
  21118327.9544  -21930695.65549 -17016401.09449  21118328.4204   21118334.8844
  20581700.2344  -25875248.47449 -20143202.23949  20581699.9044   20581703.8464
  23864709.1794   -8416304.00448  -6467968.84247  23864708.0754   23864713.4834
  23760102.6564   -7882008.34548  -5971574.38547  23760103.5884   23760112.4814
 03 10 29  0 28 30.0000000  0  8G 7G11G 8G24G 4G28G20G 9
  20936521.7604  -19039128.63749 -14806614.53749  20936521.0014   20936527.4984
  24619526.9574   -2082626.80347  -1501243.86647  24619526.3424   24619533.3464
  22667218.6554  -13846370.97849 -10759814.85148  22667220.1164   22667225.1994
  24397096.9924   -5964550.43248  -4642818.30147  24397098.0304   24397109.4054
  21104225.4274  -22004803.15449 -17074147.09449  21104226.2574   21104231.7754
  20583424.9594  -25866183.19149 -20136138.34749  20583424.7424   20583429.0594
  23861078.9114   -8435373.80748  -6482828.39047  23861078.3924   23861085.6964
  23746408.5134   -7953969.59748  -6027647.92647  23746407.8844   23746417.5354
 03 10 29  0 29  0.0000000  0  8G 7G11G 8G24G 4G28G20G 9
  20937406.5774  -19034477.91249 -14802990.55749  20937406.2694   20937412.1564
  24638800.3474   -1981344.97548  -1422322.92947  24638800.8134   24638806.1454
  22687951.0594  -13737419.48749 -10674917.63248  22687951.7514   22687958.9644
  24376542.7564   -6072568.85048  -4726988.02147  24376541.2334   24376552.7274
  21090210.1484  -22078457.16349 -17131539.73749  21090210.2284   21090216.1924
  20585220.8904  -25856745.40549 -20128784.19549  20585220.4074   20585224.9984
  23857536.7954   -8453982.45048  -6497328.58447  23857536.6144   23857543.2264
  23732796.5454   -8025500.35848  -6083386.00747  23732796.2644   23732804.9484
 03 10 29  0 29 30.0000000  0  8G 7G11G 8G24G 4G28G20G 9
  20938316.1224  -19029697.76049 -14799265.71649  20938315.6634   20938321.7894
  24658089.6564   -1879974.17348  -1343332.66647  24658089.9014   24658096.0534
  22708717.7434  -13628290.03249 -10589881.73248  22708718.3824   22708725.1274
  24356009.2174   -6180464.56948  -4811062.10547  24356010.0854   24356023.9394
  21076280.8684  -22151653.31249 -17188575.59349  21076281.0834   21076287.1434
  20587088.3534  -25846931.43749 -20121136.91449  20587088.0414   20587092.4294
  23854084.5894   -8472125.41348  -6511465.90347  23854083.7774   23854089.6914
  23719267.7184   -8096595.67548  -6138784.80747  23719267.0024   23719276.4864
 03 10 29  0 30  0.0000000  0  8G 7G11G 8G24G 4G28G20G 9
  20939249.0224  -19024795.17349 -14795445.48149  20939248.9084   20939254.8354
  24677397.4974   -1778523.20548  -1264279.92847  24677394.4994   24677399.4054
  22729516.5254  -13518991.91349 -10504714.40448  22729516.6804   22729524.8754
  24335500.5394   -6288241.55748  -4895043.70747  24335500.2264   24335513.5744
  21062438.7234  -22224395.94349 -17245258.06149  21062439.0314   21062445.2354
  20589026.6854  -25836746.35949 -20113200.45549  20589026.1804   20589030.5554
  23850720.4014   -8489807.59648  -6525244.18047  23850719.9074   23850726.7164
  23705819.3934   -8167259.65548  -6193847.47447  23705819.8464   23705829.7264
 03 10 29  0 30 30.0000000  0  8G 7G11G 8G24G 4G28G20G 9
  20940206.1364  -19019764.64249 -14791525.54849  20940205.6344   20940211.9104
  24696717.3134   -1676988.00248  -1185161.54247  24696716.9704   24696723.4844
  22750347.6864  -13409522.18549 -10419413.37348  22750346.6754   22750357.3984
  24315013.9764   -6395891.19748  -4978926.09947  24315013.1944   24315026.2264
  21048683.7984  -22296677.17149 -17301580.99649  21048684.0014   21048689.9234
  20591036.8304  -25826183.08249 -20104969.29949  20591036.3124   20591040.7704
  23847444.3614   -8507021.23248  -6538657.35147  23847444.7044   23847450.7944
  23692456.7834   -8237484.07548  -6248567.65747  23692456.5294   23692465.0414
 03 10 29  0 31  0.0000000  0  8G 7G11G 8G24G 4G28G20G 9
  20941187.9484  -19014608.48549 -14787507.72949  20941187.0924   20941193.2114
  24716055.2584   -1575372.40348  -1105980.51747  24716054.8144   24716060.6274
  22771212.1894  -13299885.30049 -10333982.09748  22771211.1494   22771218.3134
  24294553.2024   -6503412.65848  -5062708.61147  24294553.8234   24294566.6804
  21035016.9514  -22368496.55749 -17357544.05349  21035017.1254   21035023.6424
  20593118.6914  -25815241.70849 -20096443.52349  20593118.4484   20593122.5784
  23844258.8294   -8523766.00348  -6551705.17547  23844257.6224   23844263.2714
  23679177.6714   -8307268.04948  -6302944.60647  23679178.7484   23679188.2594
 03 10 29  0 31 30.0000000  0  8G 7G11G 8G24G 4G28G20G 9
  20942191.9414  -19009331.11049 -14783395.44749  20942191.1544   20942197.2984
  24735404.9384   -1473682.35848  -1026741.47247  24735405.3904   24735412.4764
  22792105.9544  -13190088.25649 -10248426.00548  22792104.8784   22792112.0714
  24274115.5914   -6610807.68748  -5146392.61647  24274116.7164   24274128.6824
  21021437.3824  -22439856.20349 -17413148.87049  21021437.7964   21021443.5954
  20595272.0084  -25803925.25349 -20087625.47249  20595271.5874   20595276.0124
  23841161.3054   -8540044.41748  -6564389.60747  23841160.7784   23841166.2294
  23665980.8504   -8376613.50548  -6356979.85647  23665980.3564   23665991.0724
 03 10 29  0 32  0.0000000  0  8G 7G11G 8G24G 4G28G20G 9
  20943220.0354  -19003927.81949 -14779185.04549  20943219.4504   20943225.3354
  24754770.4364   -1371914.70548   -947441.94347  24754771.0894   24754774.8304
  22813029.9754  -13080128.68449 -10162743.29248  22813029.9064   22813036.1144
  24253704.8484   -6718068.42648  -5229971.97647  24253704.3694   24253717.1784
  21007947.0514  -22510748.78849 -17468389.74949  21007947.3334   21007953.1514
  20597498.1634  -25792227.13049 -20078510.02549  20597498.0514   20597501.9054
  23838153.8634   -8555849.34948  -6576705.09047  23838152.5134   23838159.2024
  23652870.9974   -8445512.79648  -6410667.46047  23652870.6034   23652878.8744
 03 10 29  0 32 30.0000000  0  8G 7G11G 8G24G 4G28G20G 9
  20944271.0404  -18998403.64749 -14774880.44949  20944270.6844   20944276.4584
  24774150.6204   -1270075.84448   -868086.97247  24774149.8694   24774153.7844
  22833984.3914  -12970014.03149 -10076939.73248  22833984.1394   22833992.1234
  24233319.4954   -6825196.88748  -5313448.25647  24233318.9844   24233330.1074
  20994545.0714  -22581176.77449 -17523268.60349  20994545.1474   20994550.9864
  20599796.0894  -25780150.65549 -20069099.75349  20599795.7994   20599800.3994
  23835234.8214   -8571183.65748  -6588653.84447  23835234.9834   23835241.6884
  23639842.8004   -8513968.20248  -6464009.18047  23639842.6544   23639851.4574
 03 10 29  0 33  0.0000000  0  8G 7G11G 8G24G 4G28G20G 9
  20945346.3154  -18992754.02749 -14770478.10449  20945345.9364   20945351.8214
  24793542.7414   -1168162.81848   -788674.14447  24793543.7524   24793547.3224
  22854967.6444  -12859742.22148  -9991013.69748  22854967.4244   22854977.6324
  24212959.2744   -6932185.65748  -5396815.70447  24212959.6264   24212971.3714
  20981232.5814  -22651133.34049 -17577780.12049  20981232.5704   20981238.6564
  20602167.4484  -25767689.55149 -20059389.77649  20602166.9804   20602171.2054
  23832407.3524   -8586040.73948  -6600230.73947  23832408.9844   23832413.5684
  23626902.3094   -8581972.36448  -6516999.26547  23626902.9474   23626910.9314
 03 10 29  0 33 30.0000000  0  8G 7G11G 8G24G 4G28G20G 9
  20946443.9244  -18986985.22149 -14765982.87849  20946443.3224   20946449.3334
  24812950.1284   -1066183.07848   -709209.35547  24812948.6274   24812954.5234
  22875979.9244  -12749321.73248  -9904971.82448  22875980.8994   22875988.2944
  24192626.0514   -7039037.74848  -5480076.60547  24192626.3194   24192638.5854
  20968009.3784  -22720621.97349 -17631927.01449  20968009.5454   20968015.2144
  20604611.0424  -25754848.20649 -20049383.50049  20604610.9064   20604614.7454
  23829670.7014   -8600424.44048  -6611438.77647  23829668.5144   23829676.1684
  23614047.7254   -8649528.65748  -6569640.35547  23614048.2024   23614056.0594
 03 10 29  0 34  0.0000000  0  8G 7G11G 8G24G 4G28G20G 9
  20947564.7784  -18981095.03149 -14761393.06749  20947564.3114   20947570.2754
  24832368.8444    -964136.23948   -629692.29247  24832369.0004   24832375.2074
  22897020.6794  -12638752.91248  -9818814.37248  22897021.7714   22897028.5894
  24172320.0944   -7145748.60348  -5563227.42547  24172319.4954   24172330.2864
  20954875.7394  -22789638.52649 -17685706.05049  20954875.8094   20954881.5734
  20607127.9194  -25741622.96249 -20039078.08649  20607127.4534   20607131.5414
  23827023.8574   -8614330.69348  -6622274.76347  23827024.9484   23827029.6864
  23601277.4044   -8716632.49648  -6621928.90847  23601277.0734   23601285.9754
 03 10 29  0 34 30.0000000  0  8G 7G11G 8G24G 4G28G20G 9
  20948708.9104  -18975082.82249 -14756708.17649  20948708.4894   20948714.3254
  24851800.1274    -862023.28348   -550123.67247  24851800.3024   24851805.5004
  22918088.9194  -12528037.54948  -9732542.71547  22918088.5884   22918097.2674
  24152040.0824   -7252314.29748  -5646265.15547  24152039.9884   24152052.1934
  20941832.6284  -22858179.73949 -17739114.69149  20941833.1614   20941838.7114
  20609717.9324  -25728011.27449 -20028471.54549  20609717.6134   20609721.3984
  23824468.6564   -8627756.49848  -6632736.38747  23824468.0384   23824474.2264
  23588595.8644   -8783280.33648  -6673862.08747  23588594.7374   23588602.9334
 03 10 29  0 35  0.0000000  0  8G 7G11G 8G24G 4G28G20G 9
  20949875.8004  -18968951.97049 -14751930.83249  20949875.0354   20949880.7914
  24871243.2944    -759848.79348   -470507.15847  24871243.5624   24871247.6824
  22939185.6944  -12417181.38049  -9646161.34247  22939183.7374   22939192.7484
  24131789.0684   -7358735.43148  -5729190.20547  24131789.1864   24131799.0424
  20928879.8304  -22926246.76949 -17792153.84649  20928879.9664   20928885.6824
  20612381.3984  -25714015.11649 -20017565.42049  20612381.0204   20612385.1944
  23822004.9084   -8640703.40448  -6642824.83647  23822005.1194   23822010.4444
  23575998.8964   -8849472.77648  -6725440.44847  23575998.5054   23576006.6674
 03 10 29  0 35 30.0000000  0  8G 7G11G 8G24G 4G28G20G 9
  20951064.3244  -18962703.34349 -14747061.72349  20951064.0204   20951070.0764
  24890698.5324    -657615.44248   -390844.69847  24890696.2624   24890701.9644
  22960306.9474  -12306187.80549  -9559672.90148  22960306.2774   22960314.2224
  24111564.5534   -7465009.97148  -5812001.02747  24111563.6384   24111576.6004
  20916017.5844  -22993838.08449 -17844822.31149  20916017.9434   20916023.4054
  20615117.8864  -25699633.63349 -20006359.04249  20615117.5004   20615121.7814
  23819632.6044   -8653170.17348  -6652539.14547  23819631.9614   23819638.8924
  23563489.2304   -8915208.21048  -6776662.70947  23563488.7794   23563497.9664
 03 10 29  0 36  0.0000000  0  8G 7G11G 8G24G 4G28G20G 9
  20952276.5984  -18956333.49549 -14742098.16149  20952275.8884   20952281.8604
  24910164.4554    -555321.08248   -311134.76447  24910164.8014   24910167.6514
  22981454.8384  -12195055.68649  -9473076.49248  22981454.4644   22981462.1204
  24091369.8954   -7571131.55048  -5894692.68047  24091368.6704   24091381.3034
  20903247.1304  -23060947.83649 -17897115.54349  20903247.4274   20903253.0314
  20617929.0024  -25684861.59449 -19994848.33549  20617928.7534   20617932.6524
  23817353.3754   -8665151.11948  -6661874.89347  23817351.3304   23817358.4594
  23551067.1764   -8980480.51648  -6827524.06247  23551067.5794   23551075.0044
 03 10 29  0 36 30.0000000  0  8G 7G11G 8G24G 4G28G20G 9
  20953510.6224  -18949848.27649 -14737044.69749  20953509.7834   20953515.8044
  24929639.5584    -452973.17647   -231383.09247  24929638.5724   24929642.3114
  23002627.5424  -12083793.45349  -9386378.70048  23002626.7964   23002634.4854
  24071202.8964   -7677103.23448  -5977267.51047  24071203.2004   24071214.6324
  20890567.3714  -23127579.67949 -17949036.37549  20890567.6364   20890573.3274
  20620813.6904  -25669703.21749 -19983036.58449  20620813.1374   20620817.1594
  23815165.0374   -8676650.44148  -6670835.34447  23815164.4124   23815169.5204
  23538734.4564   -9045292.87248  -6878027.04547  23538734.1554   23538742.9914
 03 10 29  0 37  0.0000000  0  8G 7G11G 8G24G 4G28G20G 9
  20954767.1114  -18943244.95049 -14731899.20549  20954766.8444   20954772.5774
  24949126.7164    -350570.61247   -151588.85847  24949128.0884   24949131.5364
  23023824.8114  -11972400.79249  -9299579.27447  23023825.1244   23023829.7294
  24051066.7124   -7782919.46848  -6059721.23047  24051066.7424   24051079.9624
  20877979.8834  -23193728.69549 -18000580.98549  20877980.2394   20877985.1094
  20623772.3824  -25654154.42649 -19970920.61749  20623771.8214   20623776.0534
  23813069.3034   -8687663.25748  -6679416.73047  23813069.4554   23813074.5364
  23526490.7964   -9109639.94248  -6928167.44647  23526489.9484   23526498.5024
 03 10 29  0 37 30.0000000  0  8G 7G11G 8G24G 4G28G20G 9
  20956045.9064  -18936525.02649 -14726662.85649  20956045.1504   20956050.9134
  24968623.7164    -248116.21347    -71754.20646  24968621.6974   24968626.1294
  23045045.4524  -11860881.67549  -9212681.30747  23045044.9564   23045052.6224
  24030960.0734   -7888578.95048  -6142052.82247  24030960.7114   24030971.8714
  20865483.4674  -23259394.14449 -18051748.78549  20865483.8284   20865489.8374
  20626805.4004  -25638215.13949 -19958500.36849  20626805.0684   20626809.2834
  23811067.3564   -8698189.09948  -6687618.65047  23811065.6884   23811072.5204
  23514332.7934   -9173520.79348  -6977944.56647  23514333.4994   23514340.9814
 03 10 29  0 38  0.0000000  0  8G 7G11G 8G24G 4G28G20G 9
  20957346.7434  -18929688.62249 -14721335.74549  20957346.3474   20957352.1084
  24988128.1044    -145611.28247      8119.82546  24988127.7134   24988134.7114
  23066290.2324  -11749238.58849  -9125686.73847  23066289.1734   23066297.5114
  24010884.4024   -7994078.84048  -6224260.06347  24010883.8644   24010896.3174
  20853080.1644  -23324573.88749 -18102538.11949  20853080.4064   20853086.6164
  20629913.3674  -25621883.65849 -19945774.52049  20629912.8384   20629916.9064
  23809156.7804   -8708226.22048  -6695439.73747  23809154.7854   23809161.7244
  23502265.1084   -9236932.82148  -7027356.36547  23502265.3824   23502274.8704
 03 10 29  0 38 30.0000000  0  7G 7G 8G24G 4G28G20G 9
  20958669.9074  -18922736.82349 -14715918.71749  20958669.0274   20958675.2044
  23087559.3384  -11637475.11249  -9038598.35947  23087557.0434   23087564.9994
  23990838.1534   -8099417.64648  -6306341.81747  23990838.8934   23990848.6864
  20840769.5354  -23389266.79149 -18152948.09449  20840769.6544   20840775.0404
  20633095.9254  -25605159.69449 -19932742.83649  20633095.6264   20633099.7284
  23807340.8264   -8717773.78248  -6702879.35147  23807339.0174   23807345.4014
  23490289.2644   -9299874.74448  -7076401.87347  23490289.7024   23490296.3064
 03 10 29  0 39  0.0000000  0  7G 7G 8G24G 4G28G20G 9
  20960013.8594  -18915670.98749 -14710412.82749  20960013.5724   20960019.6594
  23108848.8014  -11525594.87748  -8951419.01847  23108848.4634   23108856.0774
  23970823.4584   -8204593.37648  -6388296.50947  23970825.1294   23970834.2944
  20828551.9764  -23453472.14649 -18202978.16749  20828552.0404   20828557.7624
  20636352.6384  -25588043.17449 -19919405.27049  20636352.5784   20636357.0534
  23805615.8254   -8726831.31448  -6709937.13147  23805616.0044   23805621.3294
  23478401.9824   -9362345.26548  -7125080.02247  23478401.1324   23478409.1674
 03 10 29  0 39 30.0000000  0  7G 7G 8G24G 4G28G20G 9
  20961380.1924  -18908490.09449 -14704817.28849  20961380.0994   20961386.2154
  23130160.5814  -11413599.50348  -8864149.93747  23130160.4894   23130168.6614
  23950840.4064   -8309602.74148  -6470121.57947  23950841.2224   23950852.6274
  20816427.3904  -23517186.54949 -18252625.67149  20816427.4864   20816432.9474
  20639685.2864  -25570531.29249 -19905759.63549  20639684.9904   20639688.9244
  23803984.9214   -8735395.96448  -6716610.83647  23803985.2654   23803991.9864
  23466603.3464   -9424340.85548  -7173388.13947  23466603.4394   23466611.8954
 03 10 29  0 40  0.0000000  0  7G 7G 8G24G 4G28G20G 9
  20962768.5464  -18901194.19849 -14699132.13549  20962768.2804   20962774.4514
  23151493.7124  -11301491.52548  -8776793.14547  23151492.8204   23151501.8904
  23930890.5064   -8414442.51948  -6551814.53347  23930890.0994   23930899.7604
  20804396.4674  -23580408.29549 -18301889.28649  20804396.6994   20804402.0224
  20643093.1264  -25552622.83149 -19891804.96949  20643092.6204   20643096.9114
  23802451.2274   -8743466.07248  -6722899.18747  23802450.5484   23802456.2574
  23454897.4824   -9485859.28148  -7221324.40347  23454896.6584   23454905.5604
 03 10 29  0 40 30.0000000  0  8G 7G11G 8G24G 4G28G20G 9
  20964178.2804  -18893787.18549 -14693360.40049  20964177.7124   20964183.7864
  25085784.968     -521365.30718
  23172847.6424  -11189277.32448  -8689353.54847  23172846.0324   23172856.3784
  23910971.5764   -8519114.00548  -6633376.35347  23910971.3334   23910981.3954
  20792459.2764  -23643139.16149 -18350770.40549  20792459.4244   20792464.9514
  20646575.7774  -25534320.24849 -19877543.19849  20646575.1094   20646579.7774
  23801007.7954   -8751043.67848  -6728803.79747  23801007.6104   23801014.4614
  23443281.5124   -9546902.08248  -7268890.06547  23443282.1684   23443289.3714
 03 10 29  0 41  0.0000000  0  8G 7G11G 8G24G 4G28G20G 9
  20965609.4134  -18886266.22649 -14687499.87649  20965608.8684   20965614.6614
  25105339.142     -418605.186 8
  23194221.4934  -11076956.50448  -8601830.88647  23194220.8234   23194229.1414
  23891086.0474   -8623611.97748  -6714803.01147  23891085.2584   23891097.0964
  20780616.4394  -23705374.25349 -18399265.20049  20780616.5514   20780621.6724
  20650134.4574  -25515619.13449 -19862970.88349  20650134.4144   20650138.6854
  23799661.8054   -8758124.37848  -6734321.18947  23799661.4544   23799665.1904
  23431756.3674   -9607463.76848  -7316080.83347  23431756.2874   23431764.3184
 03 10 29  0 41 30.0000000  0  8G 7G11G 8G24G 4G28G20G 9
  20967062.3414  -18878632.74749 -14681551.67549  20967061.5974   20967067.4954
  25124901.100     -315809.06718
  23215615.1934  -10964532.75448  -8514228.02347  23215614.9194   23215624.9694
  23871233.4644   -8727934.70148  -6796093.11447  23871232.7604   23871243.8444
  20768867.8054  -23767112.84549 -18447373.11549  20768867.9514   20768873.7314
  20653769.0784  -25496519.50049 -19848088.03649  20653769.0484   20653773.0024
  23798407.3184   -8764707.67648  -6739450.98147  23798407.8874   23798414.6904
  23420323.6084   -9667543.23848  -7362895.84947  23420323.3624   23420330.8844
 03 10 29  0 42  0.0000000  0  8G 7G11G 8G24G 4G28G20G 9
  20968536.0144  -18870887.56149 -14675516.42949  20968535.2074   20968541.2664
  25144467.8424    -212979.35858   -481479.03657  25144469.6544   25144474.7934
  23237026.9014  -10852009.55648  -8426547.67547  23237027.8854   23237035.4194
  23851414.9054   -8832080.18348  -6877245.17547  23851414.6534   23851427.2514
  20757213.7924  -23828353.84949 -18495093.29649  20757214.0974   20757219.4954
  20657479.7574  -25477020.93249 -19832894.33149  20657479.3344   20657483.3404
  23797249.4834   -8770792.77548  -6744192.57847  23797250.3294   23797255.6134
  23408983.3674   -9727139.24448  -7409334.14947  23408981.8844   23408990.1744
 03 10 29  0 42 30.0000000  0  8G 7G11G 8G24G 4G28G20G 9
  20970030.8654  -18863031.15049 -14669394.52149  20970030.5544   20970036.1624
  25164042.8374    -110118.36748   -401327.50147  25164043.8024   25164048.4404
  23258459.5384  -10739390.05948  -8338792.28147  23258458.6434   23258465.5484
  23831629.9664   -8936046.17248  -6958257.33047  23831631.4364   23831641.9394
  20745654.7144  -23889095.70649 -18542424.53649  20745655.0984   20745660.4694
  20661266.2354  -25457122.42549 -19817388.98349  20661265.8454   20661270.0144
  23796186.6214   -8776378.54148  -6748545.09647  23796186.5364   23796191.4694
  23397734.3904   -9786249.98848  -7455394.29847  23397733.7404   23397743.0144
 03 10 29  0 43  0.0000000  0  8G 7G11G 8G24G 4G28G20G 9
  20971546.5814  -18855064.23149 -14663186.49649  20971546.0964   20971552.1034
  25183622.5434      -7228.07548   -321153.12647  25183624.5804   25183627.8554
  23279907.3284  -10626677.16648  -8250964.11247  23279906.9644   23279914.7544
  23811880.6674   -9039830.79148  -7039128.15647  23811881.3474   23811892.7154
  20734191.9254  -23949337.18949 -18589365.86749  20734191.6014   20734197.1594
  20665128.7714  -25436823.29949 -19801571.46449  20665128.4704   20665132.5344
  23795219.8104   -8781464.00748  -6752507.75647  23795218.9244   23795222.8154
  23386578.0714   -9844873.73248  -7501074.99047  23386579.1124   23386585.6384
 03 10 29  0 43 30.0000000  0  8G 7G11G 8G24G 4G28G20G 9
  20973083.9574  -18846987.64049 -14656893.02249  20973083.3754   20973088.8944
  25203208.1674      95689.41648   -240957.45546  25203204.4514   25203212.5004
  23301372.1944  -10513874.45948  -8163065.95447  23301372.5124   23301379.8004
  23792166.1874   -9143432.47948  -7119856.49147  23792165.4154   23792176.6464
  20722823.2754  -24009077.26849 -18635916.50049  20722823.7564   20722828.7064
  20669067.9654  -25416123.02349 -19785441.36449  20669067.9234   20669071.6614
  23794347.6164   -8786048.43048  -6756080.01647  23794346.7054   23794352.5764
  23375514.4294   -9903008.81948  -7546374.90847  23375515.0764   23375521.7704
 03 10 29  0 44  0.0000000  0  8G 7G11G 8G24G 4G28G20G 9
  20974641.8864  -18838800.79149 -14650513.62949  20974641.1874   20974647.0134
  25222796.5144     198633.05348   -160741.45846  25222796.3234   25222799.7624
  23322855.9344  -10400983.49048  -8075099.00747  23322854.7874   23322863.4254
  23772487.8634   -9246847.67648  -7200439.52747  23772487.2104   23772496.6584
  20711550.7474  -24068313.43149 -18682074.47049  20711550.9294   20711556.6094
  20673084.1544  -25395019.58649 -19768997.11349  20673083.5844   20673087.7054
  23793570.0874   -8790129.62548  -6759260.12247  23793569.4174   23793574.5874
  23364545.7314   -9960652.60948  -7591292.00247  23364545.1404   23364555.1314
 03 10 29  0 44 30.0000000  0  7G 7G 8G24G 4G28G20G 9
  20976219.8934  -18830505.48049 -14644049.71049  20976219.7314   20976225.5714
  23344354.6174  -10288008.79848  -7987066.85347  23344352.8374   23344360.7884
  23752843.7634   -9350075.25248  -7280876.34247  23752842.7494   23752854.9664
  20700374.7874  -24127045.53349 -18727839.66749  20700374.7274   20700379.9914
  20677176.6834  -25373513.67549 -19752239.23949  20677175.9124   20677180.0264
  23792888.2634   -8793707.73348  -6762048.22547  23792888.9424   23792894.2204
  23353670.2864  -10017804.56848  -7635825.86147  23353670.6374   23353678.1824
 03 10 29  0 45  0.0000000  0  7G 7G 8G24G 4G28G20G 9
  20977819.5524  -18822100.76349 -14637500.55149  20977819.1544   20977825.0134
  23365867.6024  -10174951.86448  -7898970.58147  23365866.7304   23365875.8674
  23733235.0974   -9453111.64948  -7361164.21347  23733236.0874   23733246.5164
  20689294.4684  -24185270.89949 -18773210.00349  20689294.5754   20689300.1154
  20681345.6874  -25351602.88649 -19735165.87849  20681345.4854   20681349.5534
  23792304.6194   -8796780.59948  -6764442.62547  23792304.0324   23792309.4354
  23342887.2444  -10074461.67248  -7679974.11047  23342887.6584   23342894.8984
 03 10 29  0 45 30.0000000  0  7G 7G 8G24G 4G28G20G 9
  20979439.3484  -18813589.33549 -14630868.23949  20979438.6054   20979444.6134
  23387395.3284  -10061817.93048  -7810814.33947  23387396.4274   23387404.0364
  23713663.8164   -9555957.06248  -7441303.28347  23713665.0724   23713674.2754
  20678310.7764  -24242990.62649 -18818186.33849  20678311.0074   20678316.2904
  20685592.0284  -25329288.82049 -19717778.28349  20685591.6664   20685595.5714
  23791814.6174   -8799349.53948  -6766444.36947  23791814.5944   23791821.3544
  23332201.0884  -10130624.45648  -7723737.18847  23332201.2474   23332207.2744
 03 10 29  0 46  0.0000000  0  7G 7G 8G24G 4G28G20G 9
  20981079.8564  -18804968.27649 -14624150.49749  20981079.2254   20981085.1554
  23408939.3974   -9948606.69748  -7722597.84847  23408938.6034   23408948.3104
  23694129.8764   -9658606.18448  -7521289.39547  23694131.3604   23694142.0594
  20667424.0484  -24300199.99149 -18862764.98749  20667424.4594   20667429.4534
  20689915.9264  -25306567.29249 -19700073.18149  20689915.4014   20689919.6364
  23791423.0204   -8801409.99348  -6768049.87747  23791423.6644   23791428.4814
  23321608.4164  -10186287.74648  -7767111.04247  23321608.6304   23321616.0114
 03 10 29  0 46 30.0000000  0  7G 7G 8G24G 4G28G20G 9
  20982741.3354  -18796239.12649 -14617348.53149  20982740.3444   20982746.4744
  23430496.8254   -9835321.78248  -7634323.94447  23430496.4134   23430505.6044
  23674634.4314   -9761057.26248  -7601121.16547  23674634.1664   23674646.0114
  20656634.5884  -24356898.51749 -18906945.58249  20656634.9144   20656640.0954
  20694317.1644  -25283438.31649 -19682050.58749  20694316.7434   20694320.8854
  23791128.1264   -8802961.85948  -6769259.07947  23791128.3374   23791135.3144
  23311109.5924  -10241450.78448  -7810095.09547  23311108.9804   23311118.5604
 03 10 29  0 47  0.0000000  0  7G 7G 8G24G 4G28G20G 9
  20984421.6384  -18787406.23449 -14610465.72149  20984421.2934   20984427.2174
  23452067.4044   -9721970.52148  -7545998.33547  23452067.5714   23452074.6104
  23655176.1294   -9863312.34148  -7680800.23747  23655175.7124   23655186.3614
  20645942.1574  -24413088.85049 -18950730.18449  20645942.4064   20645947.2394
  20698795.3844  -25259905.29349 -19663713.15249  20698795.0674   20698799.2384
  23790929.7464   -8804008.53048  -6770074.65347  23790928.8054   23790934.4334
  23300708.5394  -10296115.89048  -7852691.16147  23300708.3814   23300715.6764
 03 10 29  0 47 30.0000000  0  7G 7G 8G24G 4G28G20G 9
  20986122.7524  -18778465.60649 -14603498.95749  20986122.2994   20986128.3334
  23473650.6644   -9608551.25048  -7457619.74447  23473649.5564   23473659.0034
  23635755.4594   -9965364.86748  -7760321.43747  23635755.4644   23635767.2344
  20635347.0464  -24468765.34449 -18994114.39749  20635347.4434   20635352.0544
  20703351.5194  -25235962.98449 -19645056.79149  20703350.8834   20703355.0394
  23790826.4664   -8804544.37148  -6770492.15847  23790827.0854   23790832.7114
  23290402.7994  -10350276.88348  -7894894.41147  23290402.1434   23290409.1784
 03 10 29  0 48  0.0000000  0  7G 7G 8G24G 4G28G20G 9
  20987843.9034  -18769420.62249 -14596450.88149  20987843.5784   20987849.5714
  23495245.4004   -9495069.75648  -7369192.66147  23495245.5604   23495252.8414
  23616373.3674  -10067215.38148  -7839685.15947  23616374.0284   23616385.0384
  20624849.7134  -24523929.93649 -19037099.73049  20624849.5644   20624854.7634
  20707984.6564  -25211613.88149 -19626083.45549  20707984.5214   20707988.8344
  23790821.1064   -8804571.45848  -6770513.24547  23790820.2764   23790828.1594
  23280191.1394  -10403935.10748  -7936705.90147  23280191.3494   23280198.7714
 03 10 29  0 48 30.0000000  0  7G 7G 8G24G 4G28G20G 9
  20989585.5144  -18760268.17149 -14589319.06149  20989585.2654   20989591.4244
  23516851.4744   -9381525.78748  -7280716.87647  23516851.5404   23516859.9524
  23597032.0074  -10168858.39848  -7918887.22947  23597032.8334   23597042.2294
  20614450.0864  -24578577.57049 -19079682.23549  20614450.9074   20614455.3234
  20712696.6154  -25186853.30749 -19606789.48849  20712696.1854   20712700.0984
  23790914.1864   -8804085.45348  -6770134.53747  23790914.5334   23790919.7484
  23270077.7194  -10457085.56748  -7978121.73347  23270076.3044   23270083.6504
 03 10 29  0 49  0.0000000  0  7G 7G 8G24G 4G28G20G 9
  20991347.1524  -18751012.65349 -14582106.92349  20991346.4524   20991352.3574
  23538468.6574   -9267925.93448  -7192197.55147  23538468.9434   23538478.3484
  23577729.8204  -10270295.63148  -7997928.90347  23577730.1534   23577738.6664
  20604149.1764  -24632711.26949 -19121864.27649  20604149.0434   20604154.4354
  20717485.8994  -25161684.70949 -19587177.57949  20717485.5554   20717489.6554
  23791104.5774   -8803089.50448  -6769358.43847  23791103.4654   23791110.2244
  23260058.3574  -10509730.65748  -8019143.78347  23260059.0684   23260066.5324
 03 10 29  0 49 30.0000000  0  7G 7G 8G24G 4G28G20G 9
  20993128.1144  -18741652.84749 -14574813.53249  20993127.6484   20993133.1064
  23560096.0394   -9154271.47348  -7103635.68747  23560096.7894   23560103.7974
  23558466.8974  -10371523.18448  -8076807.20847  23558465.6884   23558474.9364
  20593945.6274  -24686328.00649 -19163643.49049  20593945.9944   20593951.3654
  20722353.6334  -25136105.71749 -19567245.88049  20722353.0774   20722357.4404
  23791391.1994   -8801581.03348  -6768182.99147  23791390.3234   23791395.4474
  23250138.5214  -10561866.96749  -8059769.37947  23250138.6724   23250145.2464
 03 10 29  0 50  0.0000000  0  7G 7G 8G24G 4G28G20G 9
  20994929.0404  -18732186.26749 -14567436.93549  20994929.1594   20994934.5734
  23581736.6704   -9040562.52148  -7015031.36047  23581736.1644   23581743.8634
  23539245.0514  -10472536.26348  -8155518.36847  23539244.2734   23539254.0304
  20583842.1394  -24739423.72249 -19205016.72149  20583842.5014   20583847.7984
  20727299.5324  -25110112.86449 -19546991.69749  20727299.5314   20727303.6854
  23791775.8674   -8799556.34748  -6766605.28747  23791774.4984   23791781.5664
  23240313.6774  -10613490.26348  -8099995.20047  23240313.2224   23240320.7844
 03 10 29  0 50 30.0000000  0  7G 7G 8G24G 4G28G20G 9
  20996750.2204  -18722617.65749 -14559980.83949  20996749.7904   20996755.6284
  23603382.8164   -8926806.25548  -6926390.15647  23603381.5754   23603388.9654
  23520061.5674  -10573336.73048  -8234063.87147  23520060.4934   23520071.4214
  20573836.6954  -24792001.76149 -19245986.56349  20573837.0804   20573842.3014
  20732324.0064  -25083709.50349 -19526417.63749  20732323.6134   20732328.0334
  23792258.9334   -8797019.04848  -6764628.16747  23792259.6114   23792264.3504
  23230587.2964  -10664603.22948  -8139823.38447  23230588.1224   23230595.9364
 03 10 29  0 51  0.0000000  0  7G 7G 8G24G 4G28G20G 9
  20998591.2374  -18712945.73249 -14552444.23249  20998590.4754   20998595.7334
  23625039.2764   -8813004.14848  -6837713.24047  23625037.0544   23625045.5704
  23500920.8254  -10673921.21748  -8312441.07847  23500920.2774   23500931.1734
  20563930.5734  -24844059.41649 -19286550.91149  20563930.8394   20563936.0184
  20737427.0584  -25056893.59649 -19505522.10749  20737426.3714   20737430.5924
  23792839.9654   -8793966.95548  -6762249.90847  23792838.1154   23792845.2044
  23220959.1074  -10715202.73848  -8179251.48047  23220958.6604   23220966.6494
 03 10 29  0 51 30.0000000  0  7G 7G 8G24G 4G28G20G 9
  21000451.0424  -18703170.64949 -14544827.25249  21000450.6514   21000455.8884
  23646703.2634   -8699158.74448  -6749002.58747  23646703.2504   23646711.0954
  23481821.9114  -10774287.26248  -8390648.04347  23481822.0964   23481831.0044
  20554123.5994  -24895595.39949 -19326708.76249  20554123.8714   20554129.1154
  20742608.6084  -25029664.26349 -19484304.43549  20742608.0804   20742612.2434
  23793518.2824   -8790398.98148  -6759469.65047  23793518.5774   23793523.3094
  23211427.6364  -10765287.08348  -8218278.11647  23211427.1614   23211434.9104
 03 10 29  0 52  0.0000000  0  7G 7G 8G24G 4G28G20G 9
  21002330.9664  -18693290.89249 -14537128.70249  21002330.1754   21002335.9924
  23668374.8024   -8585271.05048  -6660258.97647  23668375.1054   23668382.9514
  23462765.5724  -10874430.65948  -8468681.57047  23462764.2024   23462773.2404
  20544416.4994  -24946606.59149 -19366457.68849  20544416.7014   20544421.7604
  20747869.2754  -25002018.90449 -19462762.58349  20747869.0194   20747872.9394
  23794295.6994   -8786312.45648  -6756285.33447  23794295.1454   23794300.1714
  23201995.5144  -10814852.69848  -8256900.59247  23201995.8444   23202004.2754
 03 10 29  0 52 30.0000000  0  7G 7G 8G24G 4G28G20G 9
  21004230.3314  -18683309.31149 -14529350.81249  21004230.0394   21004235.7984
  23690053.3244   -8471346.33948  -6571486.50647  23690052.0574   23690062.4794
  23443751.3854  -10974351.67648  -8546541.83147  23443749.9044   23443759.2584
  20534808.9534  -24997094.50049 -19405798.86149  20534808.9724   20534814.1584
  20753208.9724  -24973959.50049 -19440898.10049  20753208.6044   20753212.2874
  23795172.1844   -8781709.02548  -6752698.24447  23795171.5914   23795176.7714
  23192661.0974  -10863900.77648  -8295119.77247  23192662.0874   23192669.7704
 03 10 29  0 53  0.0000000  0  7G 7G 8G24G 4G28G20G 9
  21006148.3794  -18673229.92449 -14521496.70849  21006147.9514   21006153.7434
  23711738.6624   -8357391.32548  -6482690.43947  23711737.7504   23711746.2264
  23424777.4044  -11074051.99848  -8624230.13547  23424777.7444   23424787.0554
  20525300.7024  -25047061.85849 -19444734.41249  20525300.7564   20525305.7434
  20758626.7584  -24945489.08249 -19418713.34749  20758625.9674   20758630.4094
  23796145.6834   -8776591.95948  -6748710.92247  23796145.2014   23796152.1444
  23183426.9394  -10912433.62048  -8332937.48147  23183426.1874   23183433.0884
 03 10 29  0 53 30.0000000  0  7G 7G 8G24G 4G28G20G 9
  21008086.0304  -18663044.92949 -14513560.31849  21008086.0464   21008091.7944
  23733429.8904   -8243400.76948  -6393866.64547  23733430.2104   23733438.3864
  23405849.9074  -11173521.52248  -8701738.61347  23405849.6444   23405858.5104
  20515892.7694  -25096499.41449 -19483257.12949  20515892.9644   20515897.7764
  20764123.8254  -24916598.90149 -19396201.50249  20764123.9184   20764127.8454
  23797218.8124   -8770952.36248  -6744316.43547  23797218.8324   23797225.3454
  23174291.0634  -10960441.45148  -8370346.08947  23174290.9274   23174298.6694
 03 10 29  0 54  0.0000000  0  7G 7G 8G24G 4G28G20G 9
  21010043.3904  -18652759.64949 -14505545.78149  21010043.2714   21010048.8154
  23755127.1284   -8129382.41548  -6305021.21847  23755126.4604   23755135.5154
  23386964.2664  -11272762.97348  -8779069.39347  23386963.7114   23386972.9434
  20506585.0784  -25145411.01949 -19521370.01249  20506585.3144   20506589.8124
  20769700.7554  -24887293.25349 -19373365.92249  20769700.3004   20769704.5594
  23798391.2404   -8764794.54748  -6739518.13347  23798389.2624   23798396.0064
  23165253.1194  -11007927.98148  -8407348.48147  23165253.1254   23165261.1494
 03 10 29  0 54 30.0000000  0  7G 7G 8G24G 4G28G20G 9
  21012020.0584  -18642373.80549 -14497452.88349  21012019.5354   21012024.9284
  23776828.9284   -8015338.67248  -6216156.01547  23776828.8714   23776837.6284
  23368122.4924  -11371773.81348  -8856220.49947  23368122.0524   23368130.3704
  20497377.5994  -25193795.41049 -19559072.08249  20497377.9404   20497382.7724
  20775356.7374  -24857570.96449 -19350205.68949  20775356.2234   20775360.4544
  23799662.2504   -8758117.27348  -6734315.06047  23799661.5644   23799667.4864
  23156317.3424  -11054891.20448  -8443943.10847  23156316.9354   23156324.3144
 03 10 29  0 55  0.0000000  0  7G 7G 8G24G 4G28G20G 9
  21014015.6824  -18631889.18349 -14489283.02849  21014014.5264   21014020.4194
  23798534.6204   -7901273.68048  -6127274.24047  23798534.7144   23798543.2664
  23349324.7134  -11470553.30248  -8933191.32947  23349324.7464   23349333.5824
  20488270.6924  -25241652.88049 -19596363.56749  20488270.9414   20488276.0684
  20781091.6244  -24827433.06149 -19326721.60449  20781091.2734   20781095.4034
  23801030.6754   -8750921.51448  -6728707.96947  23801031.3374   23801036.1814
  23147479.8114  -11101331.11848  -8480129.95547  23147480.3874   23147488.2184
 03 10 29  0 55 30.0000000  0  7G 7G 8G24G 4G28G20G 9
  21016029.8394  -18621301.92849 -14481033.19249  21016029.4174   21016034.9354
  23820244.8324   -7787186.22848  -6038374.97047  23820244.8984   23820254.5274
  23330572.7674  -11569095.17648  -9009977.02947  23330572.6404   23330582.2734
  20479264.7954  -25288978.59249 -19633240.69549  20479265.2974   20479270.0294
  20786906.8224  -24796874.99449 -19302910.12049  20786906.2564   20786910.5784
  23802500.1064   -8743202.63448  -6722693.25847  23802497.8884   23802505.2534
  23138743.7924  -11147242.24449  -8515904.77247  23138743.6684   23138749.8144
 03 10 29  0 56  0.0000000  0  7G 7G 8G24G 4G28G20G 9
  21018063.1714  -18610616.25249 -14472706.66949  21018062.8334   21018068.4384
  23841958.5094   -7673083.20448  -5949463.56147  23841958.9994   23841966.8664
  23311865.4874  -11667401.75948  -9086579.36647  23311866.3494   23311875.0334
  20470359.8934  -25335775.37249 -19669705.67349  20470360.0784   20470365.0124
  20792800.9644  -24765899.95249 -19278773.71849  20792800.7544   20792804.6364
  23804067.0894   -8734963.93748  -6716273.49347  23804067.5214   23804073.8754
  23130107.2524  -11192627.09449  -8551269.49347  23130108.0004   23130112.8594
 03 10 29  0 56 30.0000000  0  7G 7G 8G24G 4G28G20G 9
  21020115.4394  -18599829.65049 -14464301.50149  21020115.3244   21020121.2274
  23863674.6644   -7558964.22548  -5860539.72947  23863674.9574   23863683.5024
  23293204.8324  -11765467.54448  -9162994.08847  23293205.0954   23293212.5034
  20461555.9024  -25382039.44049 -19705755.55549  20461556.1974   20461561.1024
  20798775.5194  -24734504.46249 -19254309.70049  20798775.1834   20798779.3004
  23805734.3724   -8726202.08348  -6709446.08447  23805734.3104   23805740.1244
  23121571.3824  -11237481.55949  -8586220.93447  23121571.3304   23121579.2624
 03 10 29  0 57  0.0000000  0  7G 7G 8G24G 4G28G20G 9
  21022186.8904  -18588947.34549 -14455821.76549  21022186.5654   21022191.9534
  23885392.4174   -7444837.45548  -5771609.81247  23885392.4244   23885400.3944
  23274588.1674  -11863295.27848  -9239223.31047  23274587.5664   23274597.1734
  20452852.4194  -25427774.84949 -19741393.48049  20452852.9184   20452857.8384
  20804829.0454  -24702693.16049 -19229521.66749  20804828.8454   20804832.8664
  23807500.9054   -8716921.59548  -6702214.54947  23807500.5594   23807506.3724
  23113136.1954  -11281809.33549  -8620761.99347  23113135.7324   23113143.0334
 03 10 29  0 57 30.0000000  0  7G 7G 8G24G 4G28G20G 9
  21024276.9734  -18577964.06449 -14447263.34449  21024276.2054   21024281.8484
  23907112.3654   -7330700.07148  -5682671.64847  23907111.5184   23907120.1424
  23256019.0014  -11960877.56848  -9315261.27247  23256019.3194   23256027.8634
  20444251.3604  -25472975.61049 -19776614.80949  20444251.2964   20444256.2534
  20810962.5924  -24670460.04049 -19204404.95049  20810962.2084   20810966.3934
  23809365.7654   -8707116.27648  -6694574.03547  23809366.3604   23809372.2324
  23104802.1194  -11325603.85349  -8654887.48647  23104802.7824   23104808.1744
 03 10 29  0 58  0.0000000  0  7G 7G 8G24G 4G28G20G 9
  21026385.2824  -18566883.43249 -14438629.07349  21026384.8304   21026390.3384
  23928831.5154   -7216558.24348  -5593730.01847  23928831.1754   23928839.7664
  23237496.7074  -12058215.77948  -9391109.01847  23237496.4274   23237504.8084
  20435750.9624  -25517643.87649 -19811421.20449  20435751.4624   20435756.5444
  20817176.0134  -24637808.09249 -19178961.87949  20817175.7584   20817179.7104
  23811332.0664   -8696789.29548  -6686527.05647  23811331.6784   23811336.9214
  23096569.5974  -11368867.24549  -8688599.12948  23096569.8424   23096575.6354
 03 10 29  0 58 30.0000000  0  7G 7G 8G24G 4G28G20G 9
  21028512.3834  -18555704.04149 -14429917.84049  21028511.8324   21028517.7214
  23950553.1374   -7102413.17148  -5504785.86147  23950552.9564   23950562.8384
  23219021.0234  -12155306.28448  -9466763.74047  23219020.3034   23219030.0644
  20427352.7984  -25561777.39849 -19845810.91549  20427353.1074   20427358.0614
  20823469.5214  -24604735.12049 -19153190.72849  20823469.3214   20823473.1864
  23813397.1184   -8685938.56748  -6678071.93647  23813397.3784   23813402.5064
  23088438.0384  -11411596.37249  -8721894.46047  23088437.3754   23088444.8114
 03 10 29  0 59  0.0000000  0  7G 7G 8G24G 4G28G20G 9
  21030658.7464  -18544424.80049 -14421128.80649  21030658.1064   21030663.9954
  23972274.1044   -6988266.30848  -5415840.31847  23972274.8494   23972283.3894
  23200592.3004  -12252145.53148  -9542222.64347  23200591.8984   23200600.6674
  20419056.4834  -25605374.02649 -19879782.27249  20419056.9284   20419061.5034
  20829844.0914  -24571239.16449 -19127089.98449  20829843.5144   20829847.4644
  23815561.4014   -8674562.18748  -6669207.22447  23815561.1204   23815568.2354
  23080409.3564  -11453788.69949  -8754771.52047  23080408.1464   23080416.0154
 03 10 29  0 59 30.0000000  0  7G 7G 8G24G 4G28G20G 9
  21032823.2384  -18533049.21349 -14412264.70349  21032822.9784   21032829.0534
  23993995.5564   -6874123.50448  -5326897.93047  23993994.0044   23994004.6464
  23182211.4854  -12348734.82748  -9617486.77547  23182211.4954   23182219.4314
  20410862.2814  -25648436.23349 -19913337.20249  20410862.5254   20410866.9294
  20836297.8664  -24537322.97549 -19100661.78849  20836297.4224   20836301.5384
  23817825.5144   -8662663.13748  -6659935.24447  23817825.3694   23817830.3554
  23072481.3624  -11495446.20848  -8787231.81347  23072481.2784   23072489.1634
 03 10 29  1  0  0.0000000  0  7G 7G 8G24G 4G28G20G 9
  21035007.0294  -18521576.49749 -14403324.91449  21035006.2254   21035012.2314
  24015715.7284   -6759986.84948  -5237960.34247  24015712.8304   24015723.8294
  23163878.5254  -12445071.11248  -9692553.73847  23163879.5784   23163887.5624
  20402769.6064  -25690962.33049 -19946474.38049  20402769.7544   20402774.8144
  20842832.1154  -24502985.56249 -19073905.36549  20842831.8974   20842835.7024
  23820189.4354   -8650240.19048  -6650255.03647  23820188.7874   23820194.5474
  23064657.1494  -11536567.11449  -8819273.98848  23064657.2614   23064663.6174
 03 10 29  1  0 30.0000000  0  7G 7G 8G24G 4G28G20G 9
  21037208.5754  -18510006.98949 -14394309.69649  21037207.5224   21037213.5514
  24037432.8984   -6645858.86848  -5149029.50547  24037432.2504   24037441.4644
  23145594.9684  -12541152.19249  -9767421.82747  23145595.9214   23145603.3954
  20394779.3674  -25732951.49649 -19979193.16749  20394779.4594   20394784.6144
  20849446.4744  -24468226.27249 -19046820.20749  20849445.9484   20849450.1914
  23822653.5964   -8637292.69548  -6640166.10447  23822653.3734   23822659.4184
  23056934.1254  -11577150.11948  -8850897.01748  23056935.1534   23056941.0034
 03 10 29  1  1  0.0000000  0  7G 7G 8G24G 4G28G20G 9
  21039428.6724  -18498339.09049 -14385217.81449  21039428.2144   21039433.6364
  24059148.0414   -6531740.88348  -5060106.45447  24059148.0554   24059156.3214
  23127360.5554  -12636974.62649  -9842088.39347  23127360.4384   23127368.7554
  20386891.6954  -25774401.43249 -20011491.77549  20386892.0314   20386896.6904
  20856142.0924  -24433043.09949 -19019404.75249  20856141.6144   20856145.3674
  23825218.6134   -8623818.87548  -6629667.02547  23825217.4584   23825224.8844
  23049314.0814  -11617192.34449  -8882098.65648  23049313.8064   23049320.3754
 03 10 29  1  1 30.0000000  0  7G 7G 8G24G 4G28G20G 9
  21041667.1094  -18486576.12349 -14376051.85649  21041666.8254   21041672.3374
  24080862.4754   -6417638.63148  -4971195.66547  24080862.5244   24080870.5674
  23109174.5344  -12732539.22749  -9916554.04247  23109176.0194   23109183.4664
  20379106.1174  -25815314.64649 -20043372.15949  20379106.4114   20379111.1054
  20862917.1984  -24397438.54849 -18991660.95249  20862916.7384   20862920.6084
  23827882.1304   -8609821.54248  -6618760.02647  23827881.0454   23827887.7954
  23041797.2534  -11656695.72349  -8912880.40747  23041796.9214   23041804.1284
 03 10 29  1  2  0.0000000  0  7G 7G 8G24G 4G28G20G 9
  21043923.9404  -18474716.71749 -14366810.74949  21043923.2774   21043929.0224
  24102570.8254   -6303553.11948  -4882297.90047  24102571.0864   24102581.7704
  23091039.2784  -12827842.71949  -9990816.24547  23091039.5274   23091047.0774
  20371423.0684  -25855688.72749 -20074832.43849  20371423.3484   20371428.2944
  20869772.7624  -24361410.93649 -18963587.49349  20869772.7464   20869776.3494
  23830644.4104   -8595298.69148  -6607443.53547  23830644.0814   23830651.0894
  23034382.5384  -11695657.49449  -8943240.14347  23034383.7964   23034390.2904
 03 10 29  1  2 30.0000000  0  7G 7G 8G24G 4G28G20G 9
  21046198.9444  -18462759.97349 -14357493.79349  21046198.8794   21046204.2504
  24124277.6144   -6189486.29848  -4793414.72747  24124278.3394   24124285.3504
  23072954.3784  -12922882.17349 -10064872.70547  23072953.2334   23072961.3394
  20363843.1264  -25895521.99749 -20105871.31049  20363843.4624   20363848.0894
  20876709.9064  -24324958.61549 -18935183.09049  20876708.9184   20876713.0794
  23833507.8094   -8580249.17648  -6595716.64047  23833509.7464   23833516.4314
  23027071.9604  -11734075.83849  -8973176.41947  23027071.7554   23027077.6394
 03 10 29  1  3  0.0000000  0  7G 7G 8G24G 4G28G20G 9
  21048493.1214  -18450705.80449 -14348100.92549  21048492.2584   21048498.1404
  24145978.9334   -6075440.53548  -4704547.96147  24145978.4624   24145987.6214
  23054918.7834  -13017654.97749 -10138721.41447  23054917.3954   23054925.9994
  20356366.1434  -25934813.73049 -20136488.20349  20356366.2404   20356371.0184
  20883727.0624  -24288081.07449 -18906447.35449  20883726.7984   20883730.5444
  23836472.3244   -8564672.36148  -6583578.86847  23836472.7494   23836478.3224
  23019864.4194  -11771949.20549  -9002688.03147  23019864.6284   23019870.5994
 03 10 29  1  3 30.0000000  0  7G 7G 8G24G 4G28G20G 9
  21050804.2864  -18438558.77249 -14338635.69349  21050803.9974   21050809.7234
  24167677.1294   -5961422.72248  -4615702.94947  24167676.0584   24167685.3774
  23036934.7284  -13112163.75849 -10212364.39148  23036934.2484   23036943.3354
  20348991.3294  -25973567.65449 -20166686.02949  20348991.8184   20348996.3854
  20890824.7514  -24250782.38149 -18877383.44949  20890824.5664   20890828.6614
  23839536.5114   -8548572.59348  -6571033.61247  23839535.7884   23839541.5804
  23012760.0494  -11809280.86448  -9031777.54847  23012760.5434   23012769.2634
 03 10 29  1  4  0.0000000  0  7G 7G 8G24G 4G28G20G 9
  21053134.9944  -18426312.89149 -14329093.43549  21053134.4004   21053139.7314
  24189369.6634   -5847429.88648  -4526877.42647  24189370.3194   24189378.4394
  23019002.0164  -13206400.51549 -10285795.41048  23019001.1174   23019009.3504
  20341720.4614  -26011777.14149 -20196459.61549  20341720.5854   20341725.3444
  20898004.0674  -24213056.23349 -18847986.45849  20898003.5424   20898007.6364
  23842701.8444   -8531943.59948  -6558075.96147  23842700.3784   23842706.6924
  23005761.2774  -11846063.89449  -9060439.55648  23005759.6604   23005766.4384
 03 10 29  1  4 30.0000000  0  7G 7G 8G24G 4G28G20G 9
  21055482.3404  -18413976.21449 -14319480.42449  21055481.7604   21055487.4774
  24211055.4414   -5733472.17048  -4438079.27047  24211054.0264   24211063.5594
  23001119.4014  -13300370.71749 -10359018.75948  23001119.5194   23001128.2734
  20334551.6364  -26049449.33649 -20225814.53749  20334551.7114   20334556.5934
  20905262.8484  -24174910.21849 -18818262.29949  20905262.4304   20905266.4364
  23845964.5664   -8514792.96748  -6544711.85447  23845965.0314   23845972.0004
  22998864.5414  -11882305.12049  -9088679.37748  22998864.2034   22998870.5844
 03 10 29  1  5  0.0000000  0  7G 7G 8G24G 4G28G20G 9
  21057848.9464  -18401540.70449 -14309790.40049  21057848.3444   21057854.0784
  24232734.5814   -5619544.44848  -4349304.47147  24232734.5054   24232743.6964
  22983289.9134  -13394064.84549 -10432026.98948  22983290.8154   22983297.3634
  20327486.6694  -26086575.95049 -20254744.33149  20327486.6684   20327491.5544
  20912603.2274  -24136335.76749 -18788204.29349  20912603.2524   20912606.8384
  23849329.5224   -8497112.56048  -6530934.91047  23849327.6384   23849334.4344
  22992072.6864  -11917995.69049  -9116490.11348  22992073.3734   22992078.6574
 03 10 29  1  5 30.0000000  0  7G 7G 8G24G 4G28G20G 9
  21060232.6704  -18389012.25449 -14300027.95549  21060232.4814   21060238.0344
  24254406.5794   -5505655.08548  -4260559.57247  24254405.8014   24254415.4324
  22965512.2634  -13487486.36349 -10504822.80748  22965512.3104   22965519.8814
  20320524.2484  -26123161.90449 -20283252.83549  20320524.8134   20320529.7714
  20920024.1474  -24097338.27949 -18757816.64749  20920024.0974   20920027.7324
  23852793.6484   -8478907.73348  -6516749.35047  23852792.7884   23852798.8104
  22985384.9914  -11953140.29849  -9143875.41748  22985384.7164   22985392.2274
 03 10 29  1  6  0.0000000  0  7G 7G 8G24G 4G28G20G 9
  21062634.8594  -18376388.88849 -14290191.54549  21062634.4134   21062640.2664
  24276071.6774   -5391804.63148  -4171845.00847  24276072.3524   24276080.6734
  22947787.0524  -13580631.07249 -10577402.94848  22947788.2834   22947794.6764
  20313665.6464  -26159204.70249 -20311338.10349  20313666.0124   20313670.6554
  20927525.9354  -24057915.73249 -18727097.79049  20927525.5974   20927529.4614
  23856358.4014   -8460176.47448  -6502153.57147  23856356.9814   23856363.1914
  22978801.4224  -11987735.80349  -9170832.87148  22978801.1974   22978807.4264
 03 10 29  1  6 30.0000000  0  7G 7G 8G24G 4G28G20G 9
  21065055.0334  -18363671.12849 -14280281.58149  21065054.6764   21065060.1414
  24297729.4874   -5277996.12048  -4083163.13247  24297729.2514   24297737.6534
  22930115.0624  -13673497.60749 -10649766.33648  22930115.4434   22930122.8444
  20306910.6974  -26194704.46049 -20339000.22749  20306910.6804   20306915.2964
  20935109.2944  -24018067.95449 -18696047.58249  20935108.6324   20935112.6074
  23860023.1074   -8440919.44748  -6487148.10747  23860023.9824   23860027.5744
  22972322.8604  -12021781.78249  -9197362.11348  22972322.1054   22972329.5854
 03 10 29  1  7  0.0000000  0  7G 7G 8G24G 4G28G20G 9
  21067493.3724  -18350857.97249 -14270297.28249  21067492.7504   21067498.2954
  24319377.9364   -5164231.03848  -3994515.07947  24319376.9774   24319386.8724
  22912497.2734  -13766082.48049 -10721910.27548  22912496.2154   22912503.4694
  20300258.4504  -26229659.10149 -20366237.58149  20300258.6604   20300263.5524
  20942773.0944  -23977793.63149 -18664665.00149  20942772.5774   20942776.4664
  23863787.4454   -8421135.00048  -6471731.66447  23863788.0994   23863793.7184
  22965948.6584  -12055276.03949  -9223461.44748  22965949.0174   22965953.9984
 03 10 29  1  7 30.0000000  0  7G 7G 8G24G 4G28G20G 9
  21069948.9914  -18337951.27549 -14260240.09849  21069949.0764   21069954.3734
  24341018.3704   -5050514.01648  -3905904.49947  24341017.0834   24341026.9234
  22894931.4974  -13858386.31849 -10793835.21248  22894932.9124   22894938.9374
  20293710.5664  -26264070.60749 -20393051.71949  20293710.8204   20293715.2814
  20950517.5584  -23937094.58149 -18632951.46749  20950517.2104   20950521.3884
  23867653.1674   -8400825.08548  -6455905.78647  23867653.7194   23867657.1904
  22959678.9804  -12088219.91249  -9249131.90548  22959678.3714   22959685.8814
 03 10 29  1  8  0.0000000  0  7G 7G 8G24G 4G28G20G 9
  21072423.2484  -18324951.78549 -14250110.60149  21072423.0124   21072428.1844
  24362648.4414   -4936848.38948  -3817333.96147  24362647.3904   24362655.0274
  22877420.5404  -13950407.54249 -10865539.93348  22877421.1044   22877427.4554
  20287264.9554  -26297939.05249 -20419442.68549  20287265.7594   20287270.4594
  20958343.5074  -23895971.23549 -18600907.31049  20958342.9004   20958346.8664
  23871617.5934   -8379990.50248  -6439671.06447  23871616.6944   23871621.7664
  22953515.5514  -12120613.17749  -9274373.33848  22953515.5654   22953522.7714
 03 10 29  1  8 30.0000000  0  7G 7G 8G24G 4G28G20G 9
  21074915.2434  -18311853.96349 -14239904.47949  21074914.9304   21074920.4344
  24384268.6614   -4823230.95548  -3728800.99547  24384267.8924   24384277.2034
  22859964.7874  -14042138.57949 -10937018.53148  22859965.3864   22859972.6034
  20280924.8534  -26331258.52849 -20445405.88649  20280925.1764   20280929.8334
  20966250.4454  -23854417.68549 -18568527.93049  20966250.1674   20966253.9304
  23875682.1784   -8358625.51748  -6423023.04147  23875682.4614   23875687.9664
  22947456.9944  -12152449.27049  -9299180.60248  22947457.7414   22947462.2004
 03 10 29  1  9  0.0000000  0  7G 7G 8G24G 4G28G20G 9
  21077424.9244  -18298665.98049 -14229628.10349  21077424.9134   21077430.1544
  24405878.3624   -4709672.56647  -3640314.02447  24405875.8454   24405888.0074
  22842563.6694  -14133585.59249 -11008275.81048  22842563.1504   22842569.4624
  20274687.4324  -26364036.46249 -20470947.10949  20274687.7894   20274692.4364
  20974238.1214  -23812441.81949 -18535819.47049  20974237.6754   20974241.8444
  23879848.0524   -8336738.33948  -6405968.10547  23879847.5724   23879853.3164
  22941504.2464  -12183735.35149  -9323559.27148  22941503.9764   22941509.7294
 03 10 29  1  9 30.0000000  0  7G 7G 8G24G 4G28G20G 9
  21079952.2144  -18285384.54249 -14219278.90749  21079952.3144   21079957.8514
  24427476.6334   -4596172.55847  -3551872.54547  24427473.0724   24427484.6204
  22825216.3214  -14224743.44249 -11079307.77348  22825216.8194   22825223.8804
  20268553.7004  -26396269.52749 -20496063.75749  20268553.8094   20268558.5974
  20982306.8654  -23770040.16649 -18502779.22749  20982306.7034   20982310.7254
  23884113.9254   -8314325.66548  -6388503.70147  23884111.0014   23884116.4234
  22935655.0124  -12214467.48449  -9347506.30748  22935655.3814   22935662.7644
 03 10 29  1 10  0.0000000  0  7G 7G 8G24G 4G28G20G 9
  21082498.0324  -18272009.37749 -14208856.67849  21082497.3484   21082502.6674
  24449063.3034   -4482733.27547  -3463478.41947  24449064.8664   24449071.7474
  22807924.5584  -14315609.77549 -11150112.56248  22807923.4834   22807931.4744
  20262523.9184  -26427956.81849 -20520755.12549  20262524.1434   20262528.6064
  20990457.0624  -23727212.40449 -18469406.95549  20990456.4104   20990460.5044
  23888478.0264   -8291387.12348  -6370629.54047  23888477.7104   23888483.4404
  22929913.0894  -12244644.71849  -9371020.96248  22929913.0944   22929918.5554
 03 10 29  1 10 30.0000000  0  7G 7G 8G24G 4G28G20G 9
  21085061.0344  -18258537.93749 -14198359.43049  21085060.5544   21085066.4534
  24470639.1354   -4369354.49747  -3375131.41947  24470636.7064   24470646.8344
  22790690.1794  -14406180.20449 -11220686.78148  22790689.5654   22790696.7274
  20256598.1464  -26459095.57449 -20545019.06449  20256598.1374   20256602.9984
  20998688.4884  -23683955.68049 -18435700.43049  20998687.9444   20998692.1164
  23892942.5614   -8267920.26148  -6352343.68447  23892942.8314   23892949.3934
  22924277.2244  -12274263.67549  -9394100.58048  22924275.8054   22924282.9164
 03 10 29  1 11  0.0000000  0  7G 7G 8G24G 4G28G20G 9
  21087642.3314  -18244974.29549 -14187790.34149  21087641.9454   21087646.8474
  24492200.1314   -4256042.79047  -3286836.68747  24492198.9014   24492210.8384
  22773510.0844  -14496457.07449 -11291032.23848  22773510.4114   22773516.8384
  20250775.9854  -26489689.72349 -20568858.63149  20250776.6544   20250780.9784
  21007000.9644  -23640273.90149 -18401662.68949  21007000.6214   21007004.5964
  23897509.0384   -8243929.36948  -6333649.50047  23897508.7914   23897513.6134
  22918746.5374  -12303327.78149  -9416747.86448  22918746.1554   22918750.0694
 03 10 29  1 11 30.0000000  0  7G 7G 8G24G 4G28G20G 9
  21090240.9374  -18231319.01249 -14177149.84249  21090240.6324   21090245.7154
  24513749.4004   -4142801.69347  -3198597.00747  24513748.5854   24513757.3364
  22756387.6294  -14586438.80049 -11361147.73648  22756387.0804   22756393.5684
  20245057.8954  -26519739.51549 -20592274.02349  20245058.1234   20245063.1114
  21015393.6434  -23596167.94149 -18367294.41449  21015393.4914   21015397.8634
  23902174.3604   -8219415.35848  -6314547.69047  23902174.1184   23902179.4744
  22913320.7724  -12331836.74049  -9438962.56648  22913320.3344   22913326.0414
 03 10 29  1 12  0.0000000  0  7G 7G 8G24G 4G28G20G 9
  21092857.7154  -18217569.14249 -14166435.64149  21092856.6904   21092861.8904
  24535285.7864   -4029630.68048  -3110411.89647  24535284.7834   24535294.2734
  22739321.1134  -14676120.70449 -11431029.58548  22739319.0074   22739327.3394
  20239443.8534  -26549241.64349 -20615262.66849  20239444.1484   20239448.7834
  21023868.1954  -23551634.18349 -18332592.79049  21023867.9054   21023872.0224
  23906938.6364   -8194375.26148  -6295035.93647  23906937.9114   23906944.0284
  22908001.7794  -12359786.98549  -9460741.89348  22908001.0514   22908007.2854
 03 10 29  1 12 30.0000000  0  7G 7G 8G24G 4G28G20G 9
  21095491.6084  -18203723.97449 -14155647.18449  21095491.4954   21095496.4804
  24556808.9964   -3916531.43848  -3022282.77447  24556806.2804   24556816.0014
  22722311.8744  -14765500.50449 -11500676.03148  22722312.3414   22722319.4934
  20233934.3634  -26578195.26549 -20637823.90549  20233934.6044   20233938.7724
  21032424.3634  -23506672.11049 -18297557.41849  21032423.9514   21032428.1574
  23911802.3494   -8168808.42748  -6275113.75147  23911803.4974   23911810.3964
  22902789.1944  -12387177.36949  -9482084.99448  22902789.3564   22902794.8774
 03 10 29  1 13  0.0000000  0  7G 7G 8G24G 4G28G20G 9
  21098143.8614  -18189787.43149 -14144787.52949  21098143.0994   21098148.6474
  24578315.3624   -3803510.50848  -2934214.58647  24578314.8684   24578325.1924
  22705361.4974  -14854580.05349 -11570088.52848  22705361.8174   22705367.8484
  20228528.2034  -26606603.97349 -20659960.53949  20228528.6064   20228533.1484
  21041061.0694  -23461285.57049 -18262191.29449  21041061.0994   21041065.2214
  23916767.8554   -8142719.09348  -6254784.41447  23916767.9454   23916773.7814
  22897682.5164  -12414011.07249  -9502994.31448  22897683.5274   22897688.8574
 03 10 29  1 13 30.0000000  0  7G 7G 8G24G 4G28G20G 9
  21100816.4954  -18175744.09549 -14133844.65649  21100815.5964   21100821.2784
  24599809.7014   -3690555.03748  -2846197.41047  24599809.2134   24599819.1824
  22688470.8114  -14943342.11249 -11639253.62148  22688469.9374   22688477.8834
  20223228.8434  -26634452.61749 -20681660.75349  20223229.2094   20223233.7734
  21049781.4984  -23415459.11349 -18226482.37349  21049781.0344   21049785.2844
  23921835.4134   -8116092.26148  -6234036.25947  23921834.8274   23921840.6784
  22892686.7404  -12440272.22049  -9523457.48348  22892686.7884   22892693.2064
 03 10 29  1 14  0.0000000  0  7G 7G 8G24G 4G28G20G 9
  21103503.3534  -18161622.39049 -14122840.72149  21103503.0564   21103508.4904
  24621286.3104   -3577696.22448  -2758255.59547  24621285.8034   24621296.5124
  22671633.9984  -15031813.51749 -11708192.24248  22671634.1224   22671641.3334
  20218030.4904  -26661769.25349 -20702946.42249  20218030.6024   20218035.4134
  21058580.6174  -23369221.26549 -18190452.89649  21058579.8424   21058584.1444
  23926997.5864   -8088956.41848  -6212891.46247  23926998.1364   23927004.2644
  22887792.2704  -12465988.63049  -9543496.18448  22887791.8984   22887798.6664
 03 10 29  1 14 30.0000000  0  7G 7G 8G24G 4G28G20G 9
  21106208.8014  -18147405.32249 -14111762.47649  21106208.3924   21106214.1564
  24642747.6884   -3464919.42748  -2670377.67147  24642748.0644   24642756.2174
  22654857.6074  -15119974.95849 -11776889.34548  22654858.0254   22654864.3714
  20212937.0004  -26688536.78349 -20723804.21349  20212937.2684   20212941.5514
  21067460.9154  -23322554.94049 -18154089.53649  21067460.2194   21067464.6814
  23932262.2934   -8061295.12548  -6191337.21947  23932261.8124   23932268.2904
  22883005.6874  -12491142.59949  -9563096.61948  22883005.3444   22883012.3794
 03 10 29  1 15  0.0000000  0  7G 7G 8G24G 4G28G20G 9
  21108931.5744  -18133098.27349 -14100614.11849  21108930.5844   21108936.4994
  24664191.1034   -3352232.60748  -2582569.83447  24664190.0764   24664200.7994
  22638138.9714  -15207830.38049 -11845347.97348  22638138.7754   22638145.5284
  20207946.6304  -26714760.45949 -20744238.22449  20207947.1004   20207951.3174
  21076421.3964  -23275465.62349 -18117396.57249  21076420.9164   21076425.5294
  23937625.7784   -8033114.01448  -6169377.92447  23937625.5904   23937632.7884
  22878325.2214  -12515739.52449  -9582263.00348  22878324.5954   22878330.8554
 03 10 29  1 15 30.0000000  0  7G 7G 8G24G 4G28G20G 9
  21111671.5334  -18118697.47149 -14089392.70949  21111671.1144   21111677.0754
  24685618.1324   -3239634.50748  -2494831.19147  24685617.7284   24685626.7344
  22621479.0824  -15295374.47149 -11913564.04748  22621480.1584   22621486.0924
  20203060.6184  -26740436.86549 -20764245.79449  20203060.6944   20203065.3104
  21085463.1714  -23227949.75049 -18080371.22949  21085463.0554   21085467.3724
  23943086.9254   -8004409.72648  -6147010.96347  23943088.3854   23943093.3184
  22873751.1264  -12539775.14649  -9600992.02148  22873750.1664   22873754.7234
 03 10 29  1 16  0.0000000  0  7G 7G 8G24G 4G28G20G 9
  21114429.8244  -18104203.90549 -14078099.01349  21114429.3384   21114435.0924
  24707026.9784   -3127128.79948  -2407164.52147  24707026.0704   24707035.2434
  22604879.7904  -15382606.87249 -11981537.24748  22604880.9204   22604887.2514
  20198278.6974  -26765566.65249 -20783827.42349  20198278.8464   20198283.4304
  21094586.0704  -23180008.23449 -18043014.21549  21094586.0244   21094590.2814
  23948648.6364   -7975183.58048  -6124237.34747  23948648.8674   23948655.3834
  22869284.3844  -12563249.93749  -9619284.01048  22869284.4414   22869290.9124
 03 10 29  1 16 30.0000000  0  7G 7G 8G24G 4G28G20G 9
  21117206.0764  -18089615.44549 -14066731.37449  21117205.3004   21117211.1354
  24728418.6294   -3014715.86448  -2319570.14347  24728419.6704   24728427.6624
  22588340.6834  -15469523.15649 -12049264.12748  22588340.2234   22588348.1574
  20193600.6644  -26790147.75349 -20802981.50949  20193600.9264   20193605.8784
  21103790.4314  -23131638.99349 -18005323.91649  21103790.8374   21103794.9794
  23954309.8094   -7945433.87548  -6101055.75947  23954309.9724   23954315.2894
  22864923.3834  -12586161.23549  -9637136.91948  22864924.1414   22864929.7084
 03 10 29  1 17  0.0000000  0  7G 7G 8G24G 4G28G20G 9
  21119999.3084  -18074935.88149 -14055292.75349  21119998.7554   21120004.7614
  24749791.4514   -2902402.01147  -2232053.00747  24749791.0244   24749799.6954
  22571860.4244  -15556125.52049 -12116746.39848  22571860.6064   22571868.0294
  20189026.7974  -26814184.22749 -20821711.20649  20189027.1344   20189031.6994
  21113075.6284  -23082846.13249 -17967303.51849  21113075.3994   21113079.8974
  23960070.4324   -7915164.95248  -6077469.61247  23960071.1924   23960075.7094
  22860669.7314  -12608512.57849  -9654553.49648  22860669.8494   22860676.1384
 03 10 29  1 17 30.0000000  0  7G 7G 8G24G 4G28G20G 9
  21122809.8974  -18060164.00449 -14043782.19449  21122809.7954   21122815.3714
  24771146.8484   -2790188.61047  -2144614.16247  24771144.9914   24771153.7404
  22555440.6784  -15642411.01349 -12183981.76348  22555439.3214   22555448.5234
  20184556.5454  -26837674.88549 -20840015.59349  20184556.8794   20184561.7334
  21122442.1164  -23033628.54249 -17928952.15749  21122441.3444   21122445.4804
  23965929.6124   -7884376.01548  -6053478.24647  23965929.5914   23965935.4514
  22856523.6514  -12630302.41149  -9671532.53748  22856523.5754   22856530.9644
 03 10 29  1 18  0.0000000  0  7G 7G 8G24G 4G28G20G 9
  21125638.9764  -18045299.85749 -14032199.73749  21125638.4354   21125644.2254
  24792479.6194   -2678078.18847  -2057255.58147  24792477.5144   24792489.0034
  22539082.8834  -15728378.27449 -12250969.17148  22539083.0174   22539088.2504
  20180190.3654  -26860619.97049 -20857894.86249  20180190.6464   20180195.4034
  21131888.2764  -22983986.65449 -17890270.17549  21131887.8704   21131892.1884
  23971886.5024   -7853067.80548  -6029082.23647  23971886.5074   23971892.6624
  22852483.8984  -12651530.62649  -9688073.94148  22852483.5864   22852491.3034
 03 10 29  1 18 30.0000000  0  7G 7G 8G24G 4G28G20G 9
  21128485.4484  -18030341.46849 -14020543.84049  21128484.9154   21128490.3064
  24813794.9704   -2566071.46147  -1969977.80046  24813793.8554   24813803.5774
  22522784.2204  -15814023.81849 -12317705.88648  22522784.1564   22522791.3644
  20175928.2854  -26883017.64049 -20875347.57049  20175928.6304   20175933.1644
  21141416.0224  -22933918.62949 -17851256.13749  21141415.8764   21141419.7614
  23977944.3484   -7821238.86748  -6004280.46447  23977943.9654   23977948.9514
  22848551.3724  -12672194.97449  -9704175.97848  22848551.6194   22848558.8674
 03 10 29  1 19  0.0000000  0  7G 7G 8G24G 4G28G20G 9
  21131348.7974  -18015291.81249 -14008816.83149  21131348.7364   21131354.3744
  24835087.9254   -2454173.94247  -1882785.11946  24835084.4874   24835095.7004
  22506547.6514  -15899348.83949 -12384192.86548  22506547.7844   22506554.1034
  20171769.4714  -26904871.08249 -20892376.20449  20171769.8364   20171774.5574
  21151024.1624  -22883427.73049 -17811912.58949  21151023.4264   21151027.2604
  23984099.5814   -7788892.78748  -5979075.74047  23984099.1584   23984104.3224
  22844726.0134  -12692298.41949  -9719840.92748  22844726.0704   22844732.6784
 03 10 29  1 19 30.0000000  0  6G 7G24G 4G28G20G 9
  21134230.9374  -18000147.81449 -13997016.30349  21134230.3434   21134235.7974
  22490372.3884  -15984348.47549 -12450426.29148  22490372.8504   22490379.5414
  20167715.3084  -26926177.27149 -20908978.41549  20167715.4254   20167720.0024
  21160713.0184  -22832510.95149 -17772237.18649  21160713.0384   21160717.1474
  23990354.0964   -7756026.81048  -5953465.89647  23990353.4194   23990360.5354
  22841007.6204  -12711837.22849  -9735065.91148  22841007.8654   22841013.2154
 03 10 29  1 20  0.0000000  0  6G 7G24G 4G28G20G 9
  21137130.0454  -17984912.33849 -13985144.50149  21137129.8394   21137135.2254
  22474258.7594  -16069024.46349 -12516407.52648  22474258.8284   22474266.6114
  20163764.3464  -26946939.66749 -20925156.88549  20163764.6064   20163769.1414
  21170482.5134  -22781171.61549 -17732232.51649  21170482.3054   21170486.7354
  23996707.0874   -7722645.04048  -5927454.12947  23996705.1164   23996711.5304
  22837396.4104  -12730814.52349  -9749853.34948  22837396.8664   22837403.3794
 03 10 29  1 20 30.0000000  0  6G 7G24G 4G28G20G 9
  21140047.7564  -17969581.61149 -13973198.47849  21140047.0534   21140052.4734
  22458208.2444  -16153371.23749 -12582132.21848  22458208.1194   22458214.6194
  20159917.3714  -26967154.56449 -20940908.73449  20159917.7424   20159922.2044
  21180333.5174  -22729406.12149 -17691895.77649  21180333.4234   21180337.2534
  24003156.9534   -7688744.10848  -5901037.82147  24003157.1734   24003163.4874
  22833893.1424  -12749226.37549  -9764200.17348  22833893.6724   22833899.6094
 03 10 29  1 21  0.0000000  0  6G 7G24G 4G28G20G 9
  21142982.5244  -17954158.73549 -13961180.64949  21142981.7224   21142987.5374
  22442219.8264  -16237390.52749 -12647601.74348  22442219.4444   22442227.5514
  20156174.1834  -26986825.52249 -20956236.73549  20156174.3024   20156178.8584
  21190264.4324  -22677217.96049 -17651229.69448  21190263.7104   21190268.2194
  24009706.7904   -7654327.80048  -5874219.91047  24009706.6174   24009712.5074
  22830495.2534  -12767075.80349  -9778108.75048  22830496.6174   22830502.6304
 03 10 29  1 21 30.0000000  0  7G 7G 8G24G 4G28G20G 9
  21145935.0464  -17938643.38149 -13949090.75649  21145934.3624   21145939.6744
  24941231.4484   -1015562.02447   -816251.86347  24941231.0034   24941242.3434
  22426294.6824  -16321080.17049 -12712814.39048  22426294.6174   22426301.0854
  20152534.5684  -27005952.41649 -20971140.78649  20152534.6584   20152539.2234
  21200275.8604  -22624607.14349 -17610234.26848  21200275.5374   21200279.3714
  24016353.8964   -7619396.55048  -5847000.74947  24016352.9214   24016359.6044
  22827206.9614  -12784362.36949  -9791578.72248  22827206.0464   22827212.7384
 03 10 29  1 22  0.0000000  0  7G 7G 8G24G 4G28G20G 9
  21148905.2434  -17923034.43549 -13936927.93349  21148904.7544   21148910.2174
  24962392.5584    -904361.57248   -729602.36547  24962392.7204   24962402.8824
  22410431.5234  -16404438.08749 -12777768.54048  22410431.5804   22410438.8684
  20148998.6314  -27024534.64349 -20985620.42349  20148998.5314   20149002.7324
  21210367.6784  -22571573.29049 -17568909.19848  21210367.2674   21210371.5894
  24023099.3424   -7583950.09348  -5819380.12747  24023098.7284   24023103.7124
  22824024.3344  -12801085.03149  -9804609.30148  22824024.7434   22824030.9864
 03 10 29  1 22 30.0000000  0  7G 7G 8G24G 4G28G20G 9
  21151892.7334  -17907332.46249 -13924692.62149  21151892.2484   21151898.1244
  24983528.8714    -793286.61448   -643050.63447  24983528.4264   24983539.6804
  22394632.0454  -16487463.18349 -12842463.34448  22394632.8114   22394638.6464
  20145565.8464  -27042573.04949 -20999676.30249  20145566.1094   20145570.4134
  21220540.2404  -22518116.98449 -17527254.95148  21220539.9024   21220543.8794
  24029941.2044   -7547989.71148  -5791359.03847  24029941.0734   24029947.2014
  22820949.3734  -12817244.46349  -9817200.98648  22820948.5084   22820955.6304
 03 10 29  1 23  0.0000000  0  7G 7G 8G24G 4G28G20G 9
  21154899.2504  -17891534.44349 -13912382.47249  21154899.1334   21154904.2734
  25004643.6824    -682336.32548   -556596.07447  25004641.8574   25004653.5824
  22378897.6564  -16570150.41549 -12906894.87748  22378897.7594   22378904.3694
  20142237.5604  -27060064.97349 -21013306.34949  20142237.2534   20142241.7434
  21230793.8464  -22464235.69249 -17485269.54448  21230793.3814   21230797.3424
  24036882.7834   -7511513.26648  -5762935.83947  24036883.9374   24036888.8074
  22817981.6574  -12832837.49849  -9829351.33148  22817981.2354   22817986.4084
 03 10 29  1 23 30.0000000  0  7G 7G 8G24G 4G28G20G 9
  21157922.8634  -17875645.85349 -13900001.73949  21157921.9304   21157927.7534
  25025731.0834    -571518.86348   -470245.03647  25025730.0984   25025741.2524
  22363226.7844  -16652504.37949 -12971066.72548  22363225.5164   22363232.4954
  20139011.3174  -27077016.58449 -21026515.37149  20139011.4854   20139016.0354
  21241126.6954  -22409935.57649 -17442957.78048  21241126.2034   21241130.4044
  24043922.1974   -7474527.21048  -5734115.51447  24043918.4964   24043927.8184
  22815120.8394  -12847869.80549  -9841064.75648  22815121.0634   22815127.9184
 03 10 29  1 24  0.0000000  0  7G 7G 8G24G 4G28G20G 9
  21160963.8664  -17859662.94749 -13887547.51949  21160963.5944   21160968.9554
  25046792.8774    -460832.89048   -383996.45847  25046794.3864   25046804.9834
  22347619.1774  -16734519.82749 -13034974.78048  22347619.7034   22347625.3234
  20135888.9644  -27093424.54649 -21039300.77049  20135889.2584   20135893.5124
  21251539.6134  -22355213.12149 -17400316.92048  21251539.4914   21251544.1564
  24051056.6174   -7437028.43548  -5704895.68047  24051057.5474   24051062.4554
  22812368.2404  -12862337.98049  -9852338.57848  22812368.2434   22812374.4664
 03 10 29  1 24 30.0000000  0  7G 7G 8G24G 4G28G20G 9
  21164022.9454  -17843587.34549 -13875021.06749  21164022.8814   21164028.3764
  25067832.6344    -350282.72148   -297853.69647  25067830.5514   25067839.9114
  22332076.5774  -16816197.08749 -13098619.31648  22332076.1804   22332083.3494
  20132869.0894  -27109291.08349 -21051664.27749  20132869.7594   20132874.4494
  21262032.8924  -22300070.50149 -17357348.66548  21262032.5764   21262037.1694
  24058290.4324   -7399019.65348  -5675278.43947  24058288.5744   24058295.0474
  22809721.6084  -12876243.63249  -9863174.07248  22809721.4164   22809728.5204
 03 10 29  1 25  0.0000000  0  7G 7G 8G24G 4G28G20G 9
  21167099.7224  -17827419.25549 -13862422.54749  21167099.5544   21167105.1934
  25088843.4134    -239871.06448   -211818.89046  25088842.9824   25088850.7334
  22316597.8764  -16897535.08949 -13161999.47948  22316597.6534   22316604.2894
  20129953.0624  -27124616.70149 -21063606.29349  20129953.2244   20129957.7504
  21272606.2714  -22244508.48749 -17314053.60248  21272606.1224   21272610.1514
  24065619.9694   -7360502.07248  -5645264.71447  24065617.8304   24065625.2734
  22807183.2494  -12889587.11849  -9873571.53848  22807182.8694   22807189.3044
 03 10 29  1 25 30.0000000  0  7G 7G 8G24G 4G28G20G 9
  21170194.8424  -17811155.13849 -13849749.19849  21170194.2794   21170199.8874
  25109826.6254    -129597.00948   -125891.29646  25109824.8714   25109835.0404
  22301185.6444  -16978528.69649 -13225111.30148  22301185.9494   22301191.7294
  20127140.3974  -27139398.84349 -21075124.82549  20127140.4894   20127145.0424
  21283259.5444  -22188524.15049 -17270429.46548  21283259.5924   21283263.3494
  24073046.3424   -7321473.14348  -5614852.54647  24073045.3154   24073052.1444
  22804750.9024  -12902365.21249  -9883528.43848  22804749.7564   22804757.4844
 03 10 29  1 26  0.0000000  0  7G 7G 8G24G 4G28G20G 9
  21173307.7154  -17794796.30149 -13837002.03949  21173307.2724   21173313.0724
  25130785.0014     -19464.22348    -40073.77146  25130784.6594   25130794.6764
  22285838.8364  -17059178.06249 -13287954.87348  22285839.3084   22285845.3044
  20124430.5104  -27153639.16249 -21086221.15649  20124430.5734   20124435.4364
  21293992.9354  -22132119.36249 -17226477.69448  21293992.8534   21293996.8344
  24080569.5574   -7281934.91148  -5584043.52047  24080570.2284   24080575.8584
  22802426.6444  -12914579.24749  -9893045.80848  22802426.1524   22802432.4794
 03 10 29  1 26 30.0000000  0  6G 7G24G 4G28G20G 9
  21176438.6564  -17778345.09949 -13824182.90849  21176438.0364   21176443.1294
  22270557.1764  -17139484.37149 -13350531.14348  22270557.5574   22270563.0394
  20121823.1364  -27167340.66349 -21096897.62849  20121823.5034   20121827.7104
  21304805.7384  -22075297.19649 -17182200.69948  21304805.6224   21304810.1744
  24088191.5014   -7241891.15848  -5552840.56947  24088189.8194   24088195.4444
  22800209.6704  -12926232.22649  -9902125.98848  22800210.6094   22800216.1364
 03 10 29  1 27  0.0000000  0  6G 7G24G 4G28G20G 9
  21179587.2534  -17761798.96649 -13811289.80349  21179586.8394   21179592.0164
  22255340.7674  -17219443.53849 -13412836.89948  22255341.3584   22255347.5314
  20119318.3914  -27180501.40349 -21107152.72749  20119318.9914   20119323.2094
  21315699.1124  -22018055.38749 -17137596.71348  21315698.8744   21315702.9804
  24095907.5194   -7201340.38148  -5521242.54447  24095905.6804   24095911.6064
  22798100.1814  -12937321.65149  -9910767.03948  22798098.8494   22798104.5434
 03 10 29  1 27 30.0000000  0  6G 7G24G 4G28G20G 9
  21182753.9794  -17745158.28149 -13798323.01749  21182753.4614   21182758.7964
  22240191.5314  -17299054.94849 -13474871.68048  22240190.9164   22240198.1214
  20116917.1664  -27193122.73549 -21116987.50849  20116917.2754   20116921.6784
  21326671.5454  -21960395.17049 -17092666.69248  21326670.8564   21326675.2854
  24103719.1194   -7160283.89648  -5489250.45047  24103721.1074   24103724.9114
  22796095.4554  -12947848.35549  -9918969.61448  22796095.1054   22796102.0284
 03 10 29  1 28  0.0000000  0  6G 7G24G 4G28G20G 9
  21185937.6654  -17728424.70449 -13785283.84749  21185937.4914   21185942.8674
  22225107.6584  -17378318.52349 -13536635.42448  22225107.6414   22225114.5394
  20114617.3964  -27205206.82049 -21126403.65349  20114617.6394   20114622.1214
  21337723.2524  -21902318.93049 -17047412.48648  21337722.9724   21337726.6834
  24111628.7474   -7118724.26248  -5456866.27947  24111626.7114   24111634.2554
  22794198.9324  -12957814.34549  -9926735.26248  22794198.4464   22794205.6074
 03 10 29  1 28 30.0000000  0  6G 7G24G 4G28G20G 9
  21189140.2064  -17711596.61549 -13772171.04049  21189139.7274   21189145.7844
  22210091.0964  -17457231.72249 -13598126.14648  22210090.5614   22210098.2914
  20112420.1704  -27216752.97349 -21135400.63349  20112420.5374   20112424.7044
  21348853.8434  -21843825.73049 -17001833.38848  21348853.9554   21348857.6774
  24119633.4224   -7076661.25448  -5424089.89647  24119631.0704   24119637.6894
  22792409.3214  -12967218.32149  -9934062.97648  22792408.8344   22792415.3964
 03 10 29  1 29  0.0000000  0  6G 7G24G 4G28G20G 9
  21192360.5474  -17694672.86449 -13758983.69049  21192360.3834   21192365.8654
  22195141.5314  -17535792.11449 -13659341.95748  22195141.3484   22195148.2554
  20110325.5694  -27227760.73249 -21143978.08549  20110325.6694   20110330.2284
  21360064.4294  -21784915.07949 -16955929.00548  21360063.8814   21360067.6154
  24127732.6944   -7034094.91948  -5390921.29047  24127733.7044   24127738.7914
  22790727.8524  -12976059.60849  -9940952.22848  22790727.7204   22790733.7004
 03 10 29  1 29 30.0000000  0  6G 7G24G 4G28G20G 9
  21195599.6124  -17677653.37549 -13745721.73349  21195598.9404   21195604.2764
  22180259.2854  -17613998.78149 -13720282.13748  22180259.6474   22180266.1124
  20108332.8624  -27238230.90249 -21152136.63449  20108333.2624   20108337.7034
  21371353.6684  -21725587.84549 -16909699.99748  21371353.8854   21371357.6644
  24135928.2534   -6991026.47048  -5357361.43947  24135926.8164   24135933.9494
  22789152.3044  -12984338.89449  -9947403.55648  22789152.5194   22789156.8224
 03 10 29  1 30  0.0000000  0  6G 7G24G 4G28G20G 9
  21198856.0634  -17660538.59349 -13732385.52549  21198855.6884   21198860.9094
  22165444.0054  -17691850.73249 -13780945.91948  22165444.2174   22165451.1994
  20106442.7544  -27248164.50149 -21159877.08349  20106443.1664   20106447.0944
  21382722.3974  -21665844.84949 -16863147.03148  21382722.0304   21382726.4364
  24144219.4174   -6947457.28548  -5323411.40047  24144219.3424   24144223.3764
  22787682.2724  -12992056.73649  -9953417.41148  22787682.5184   22787688.9234
 03 10 29  1 30 30.0000000  0  6G 7G24G 4G28G20G 9
  21202131.3164  -17643329.63149 -13718975.93749  21202130.7604   21202135.7784
  22150697.4274  -17769347.92449 -13841333.25648  22150697.5274   22150703.9484
  20104653.8234  -27257563.82849 -21167201.21049  20104654.2164   20104658.8524
  21394170.0224  -21605688.14649 -16816271.69648  21394169.9044   21394173.3774
  24152605.1654   -6903390.03048  -5289073.23347  24152604.7694   24152609.6954
  22786319.8664  -12999215.10349  -9958995.30348  22786319.3624   22786325.6144
 03 10 29  1 31  0.0000000  0  6G 7G24G 4G28G20G 9
  21205424.1554  -17626024.36549 -13705491.29849  21205423.9594   21205429.0424
  22136018.6824  -17846487.28649 -13901441.76848  22136018.0514   22136024.3514
  20102967.4074  -27266427.65249 -21174108.06249  20102967.5944   20102971.8244
  21405696.8564  -21545116.55349 -16769073.06648  21405695.5314   21405700.4414
  24161085.5024   -6858823.78948  -5254346.25647  24161085.2044   24161091.4234
  22785065.8684  -13005812.35449  -9964135.95148  22785066.1454   22785070.5734
 03 10 29  1 31 30.0000000  0  6G 7G24G 4G28G20G 9
  21208735.1234  -17608623.51449 -13691932.18349  21208735.1534   21208740.2294
  22121407.1784  -17923268.21249 -13961270.99448  22121406.5664   22121413.1594
  20101382.2944  -27274757.39649 -21180598.74949  20101382.6084   20101386.8184
  21417301.0324  -21484131.54949 -16721552.29648  21417300.8424   21417305.5184
  24169661.2564   -6813760.67048  -5219232.12147  24169660.1634   24169666.2164
  22783917.3464  -13011849.81849  -9968840.41248  22783917.1774   22783922.4594
 03 10 29  1 32  0.0000000  0  6G 7G24G 4G28G20G 9
  21212064.5684  -17591126.88849 -13678298.43649  21212064.0494   21212069.7264
  22106864.2494  -17999689.95249 -14020820.32648  22106864.3274   22106871.3784
  20099898.8134  -27282554.09049 -21186674.07349  20099898.7334   20099903.1284
  21428985.0714  -21422733.90249 -16673709.99348  21428984.3474   21428989.2044
  24178330.0634   -6768201.86448  -5183731.73447  24178329.3144   24178335.1034
  22782874.1964  -13017328.14749  -9973109.18448  22782874.0624   22782878.7394
 03 10 29  1 32 30.0000000  0  6G 7G24G 4G28G20G 9
  21215412.9224  -17573532.32449 -13664588.37849  21215412.6584   21215417.8174
  22092390.7444  -18075748.81349 -14080086.90248  22092390.4364   22092396.8994
  20098516.5814  -27289816.38049 -21192332.98149  20098516.8564   20098521.2844
  21440747.1714  -21360922.13849 -16625545.00248  21440746.8944   21440751.1704
  24187093.4264   -6722146.45748  -5147844.36947  24187093.8274   24187100.5904
  22781938.1534  -13022245.69349  -9976940.99148  22781938.2794   22781943.9004
 03 10 29  1 33  0.0000000  0  6G 7G24G 4G28G20G 9
  21218779.3954  -17555840.88849 -13650802.83449  21218778.9004   21218784.4464
  22077986.0224  -18151444.92549 -14139070.80548  22077986.0294   22077992.4764
  20097236.0994  -27296546.42049 -21197577.14349  20097236.3864   20097240.4964
  21452587.8184  -21298698.29149 -16577058.90648  21452587.1614   21452592.7044
  24195952.3014   -6675596.91148  -5111571.96647  24195950.0644   24195956.3564
  22781109.3234  -13026604.22149  -9980337.17448  22781108.6994   22781114.0934
 03 10 29  1 33 30.0000000  0  6G 7G24G 4G28G20G 9
  21222164.4144  -17538054.78449 -13636943.52449  21222163.7484   21222168.9394
  22063650.5374  -18226779.50749 -14197773.01348  22063649.7954   22063657.5814
  20096055.8294  -27302747.50249 -21202409.13249  20096056.0784   20096060.2544
  21464506.7324  -21236065.55449 -16528254.18848  21464506.1544   21464511.1514
  24204903.8224   -6628557.04647  -5074917.48447  24204902.8124   24204909.1734
  22780384.9104  -13030406.69649  -9983300.08348  22780385.0074   22780388.1674
 03 10 29  1 34  0.0000000  0  6G 7G24G 4G28G20G 9
  21225567.5204  -17520169.76749 -13623007.13649  21225566.8664   21225572.8094
  22049384.6664  -18301747.10149 -14256189.24448  22049383.7244   22049390.4164
  20094977.1134  -27308416.25549 -21206826.31949  20094977.4024   20094981.2624
  21476503.8704  -21173020.44249 -16479128.14748  21476503.7704   21476507.7374
  24213949.1404   -6581023.72848  -5037878.51047  24213948.8564   24213953.8744
  22779768.0564  -13033649.36849  -9985826.78148  22779768.2244   22779773.8524
 03 10 29  1 34 30.0000000  0  6G 7G24G 4G28G20G 9
  21228988.5564  -17502191.79149 -13608998.31349  21228987.8804   21228993.2254
  22035187.7924  -18376352.74549 -14314323.43148  22035187.8724   22035193.2564
  20093998.3274  -27313560.02849 -21210834.43149  20093998.6334   20094002.5744
  21488578.0344  -21109570.08949 -16429686.33248  21488578.1594   21488582.0014
  24223087.3414   -6533004.69148  -5000461.05647  24223085.6304   24223091.2344
  22779254.9734  -13036339.02449  -9987922.54748  22779256.5184   22779261.1524
 03 10 29  1 35  0.0000000  0  6G 7G24G 4G28G20G 9
  21232429.1614  -17484112.00049 -13594910.15649  21232428.1264   21232433.9214
  22021061.1654  -18450586.98249 -14372168.21648  22021060.9664   22021067.1104
  20093120.6744  -27318170.94049 -21214427.32749  20093120.8514   20093125.4184
  21500731.0514  -21045706.74849 -16379922.71148  21500730.2014   21500734.9304
  24232319.0424   -6484492.66348  -4962659.43247  24232318.4834   24232322.0134
  22778850.3584  -13038467.92349  -9989581.38748  22778851.0084   22778855.8674
 03 10 29  1 35 30.0000000  0  6G 7G24G 4G28G20G 9
  21235887.5624  -17465937.71749 -13580748.37149  21235886.9944   21235892.6604
  22007003.9714  -18524455.80549 -14429728.27248  22007004.6204   22007010.8624
  20092343.0164  -27322257.59749 -21217611.71749  20092343.3074   20092347.7364
  21512961.0424  -20981438.61949 -16329843.67448  21512960.1814   21512964.3274
  24241642.1814   -6435496.29348  -4924480.38647  24241639.5104   24241645.8164
  22778550.4844  -13040044.13349  -9990809.53648  22778550.6914   22778557.8244
 03 10 29  1 36  0.0000000  0  6G 7G24G 4G28G20G 9
  21239365.4804  -17447663.74649 -13566508.90049  21239364.4004   21239369.8684
  21993018.5564  -18597953.41149 -14486999.06748  21993018.8054   21993024.2754
  20091666.1924  -27325815.69049 -21220384.23149  20091666.2764   20091670.5844
  21525268.5494  -20916761.39349 -16279445.85448  21525268.4404   21525272.3774
  24251059.6074   -6386012.06448  -4885921.20747  24251058.2644   24251063.3774
  22778356.5264  -13041063.41549  -9991603.74548  22778356.5734   22778362.6634
 03 10 29  1 36 30.0000000  0  6G 7G24G 4G28G20G 9
  21242860.7584  -17429292.65549 -13552193.75649  21242860.4594   21242865.4994
  21979101.8384  -18671081.63949 -14543982.03448  21979101.8624   21979108.5944
  20091089.1274  -27328849.37949 -21222748.12849  20091089.0694   20091093.1304
  21537652.8724  -20851678.94049 -16228732.26448  21537652.9744   21537657.4254
  24260567.0464   -6336044.08748  -4846985.09147  24260566.9514   24260572.0214
  22778267.6144  -13041529.26749  -9991966.69248  22778268.3604   22778274.3574
 03 10 29  1 37  0.0000000  0  6G 7G24G 4G28G20G 9
  21246375.2844  -17410823.09849 -13537801.87649  21246374.8474   21246380.5764
  21965256.9074  -18743837.74749 -14600675.03048  21965256.8734   21965262.9044
  20090611.4574  -27331358.21649 -21224703.04149  20090611.7034   20090616.0264
  21550115.0764  -20786190.81149 -16177702.58148  21550114.6194   21550119.1474
  24270167.8694   -6285592.51648  -4807672.13347  24270167.9144   24270172.9504
  22778285.0404  -13041441.28149  -9991898.07148  22778285.3504   22778291.1154
 03 10 29  1 37 30.0000000  0  6G 7G24G 4G28G20G 9
  21249908.9614  -17392254.08849 -13523332.50849  21249908.4164   21249914.0794
  21951483.3644  -18816220.06749 -14657076.78548  21951482.4494   21951488.8824
  20090233.8334  -27333342.67949 -21226249.36049  20090234.0564   20090238.2214
  21562654.4674  -20720297.53549 -16126357.17748  21562653.9824   21562658.5094
  24279860.3714   -6234658.26848  -4767983.06947  24279859.3284   24279864.7944
  22778406.4804  -13040799.83449  -9991398.19848  22778406.9004   22778411.7924
 03 10 29  1 38  0.0000000  0  6G 7G24G 4G28G20G 9
  21253461.6374  -17373586.45149 -13508786.29449  21253460.9374   21253466.1854
  21937780.6114  -18888228.48749 -14713187.18448  21937780.4684   21937786.3374
  20089955.3784  -27334804.74349 -21227388.61049  20089955.6154   20089960.1524
  21575269.8644  -20654000.61149 -16074697.26148  21575270.0154   21575273.8194
  24289643.8204   -6183243.50648  -4727919.56947  24289642.0644   24289649.7954
  22778634.1474  -13039606.41049  -9990468.20948  22778634.6954   22778639.0714
 03 10 29  1 38 30.0000000  0  6G 7G24G 4G28G20G 9
  21257032.6914  -17354819.80149 -13494162.91949  21257032.0304   21257037.2114
  21924148.8084  -18959862.04149 -14769005.46948  21924149.1234   21924155.3274
  20089776.2564  -27335745.41949 -21228121.58349  20089776.7234   20089780.8984
  21587962.5924  -20587301.10049 -16022723.63748  21587962.0734   21587966.8484
  24299518.9154   -6131349.90348  -4687482.94447  24299518.2194   24299526.1124
  22778966.0714  -13037861.72149  -9989108.66348  22778964.7994   22778972.0334
 03 10 29  1 39  0.0000000  0  6G 7G24G 4G28G20G 9
  21260622.7134  -17335954.23949 -13479462.47049  21260621.9884   21260627.5804
  21910589.0634  -19031120.02549 -14824531.10148  21910589.7754   21910594.9804
  20089696.2774  -27336166.28449 -21228449.51249  20089696.8584   20089700.7114
  21600732.2074  -20520200.08449 -15970437.15848  21600731.0764   21600735.8394
  24309484.5734   -6078979.00748  -4646674.42847  24309484.1814   24309490.9754
  22779403.1354  -13035566.87449  -9987320.43648  22779402.7664   22779408.0314
 03 10 29  1 39 30.0000000  0  6G 7G24G 4G28G20G 9
  21264231.9074  -17316988.25949 -13464683.77949  21264230.6934   21264236.6514
  21897100.8984  -19102000.27749 -14879762.40048  21897101.3124   21897106.7174
  20089715.5814  -27336066.95249 -21228372.08849  20089715.4604   20089719.7214
  21613577.2314  -20452697.29049 -15917837.60248  21613576.5594   21613580.7744
  24319541.5824   -6026131.28748  -4605494.33547  24319540.4984   24319547.1374
  22779943.4704  -13032721.70349  -9985103.37448  22779944.0294   22779949.0694
 03 10 29  1 40  0.0000000  0  7G 7G 5G24G 4G28G20G 9
  21267859.9004  -17297922.10949 -13449827.02649  21267859.4504   21267864.4834
  25045088.2514    -767097.24057   -558340.25656  25045088.7814   25045099.1014
  21883684.4214  -19172502.17849 -14934698.88048  21883684.6604   21883691.3894
  20089832.6324  -27335449.23949 -21227890.73049  20089833.2574   20089837.2474
  21626498.0164  -20384794.19649 -15864926.12748  21626498.4094   21626502.7614
  24329689.2564   -5972808.64248  -4563944.19847  24329687.0954   24329692.4134
  22780589.3804  -13029327.51149  -9982458.49748  22780588.9694   22780594.6244
 03 10 29  1 40 30.0000000  0  7G 7G 5G24G 4G28G20G 9
  21271507.3254  -17278754.66549 -13434891.34949  21271507.0354   21271512.7504
  25025587.1604    -869589.81648   -638204.43647  25025586.6804   25025594.2544
  21870340.8274  -19242623.96649 -14989339.17348  21870340.9374   21870346.6274
  20090048.9354  -27334313.23549 -21227005.50949  20090049.1814   20090053.3744
  21639496.2804  -20316491.03049 -15811702.89848  21639496.1984   21639499.7414
  24339926.8264   -5919011.80448  -4522024.54747  24339924.8784   24339929.5934
  22781340.8834  -13025384.26849  -9979385.81748  22781341.3264   22781344.9294
 03 10 29  1 41  0.0000000  0  7G 7G 5G24G 4G28G20G 9
  21275174.2674  -17259486.15449 -13419876.91649  21275173.7584   21275178.5704
  25006086.6814    -972064.05147   -718054.28346  25006085.1114   25006095.3904
  21857069.7264  -19312365.16549 -15043682.90148  21857069.9364   21857075.4094
  20090363.5324  -27332660.60949 -21225717.73049  20090363.5824   20090367.8314
  21652569.5854  -20247789.09349 -15758168.95548  21652569.2384   21652574.3334
  24350252.5324   -5864742.84548  -4479737.00947  24350252.4894   24350258.9534
  22782194.3814  -13020893.40649  -9975886.41148  22782194.9364   22782199.7634
 03 10 29  1 41 30.0000000  0  7G 7G 5G24G 4G28G20G 9
  21278859.7744  -17240117.08749 -13404784.12749  21278859.4134   21278864.8394
  24986589.9434   -1074518.60748   -797888.73747  24986588.3944   24986598.6984
  21843871.0544  -19381725.66849 -15097729.98448  21843870.7204   21843877.2984
  20090775.6974  -27330493.64449 -21224029.16249  20090776.1004   20090780.2384
  21665718.4034  -20178690.33149 -15704325.78748  21665719.0614   21665723.3824
  24360669.3634   -5810004.04148  -4437083.35047  24360667.0434   24360674.3104
  22783153.0094  -13015856.88049  -9971961.80948  22783153.1524   22783159.1564
 03 10 29  1 42  0.0000000  0  7G 7G 5G24G 4G28G20G 9
  21282564.9144  -17220644.90049 -13389610.98849  21282564.6914   21282569.9624
  24967097.4484   -1176949.29047   -877704.66646  24967095.3364   24967102.5774
  21830744.7964  -19450702.29449 -15151477.94548  21830744.7204   21830750.5084
  20091286.3424  -27327810.97449 -21221938.74949  20091286.7534   20091290.5234
  21678943.5064  -20109193.45049 -15650172.39948  21678943.1904   21678947.6924
  24371173.9364   -5754794.53748  -4394062.91147  24371173.6864   24371179.7614
  22784215.4614  -13010273.27749  -9967610.90948  22784213.6654   22784220.6004
 03 10 29  1 42 30.0000000  0  7G 7G 5G24G 4G28G20G 9
  21286289.8974  -17201072.20449 -13374359.53149  21286289.3944   21286294.7164
  24947608.8104   -1279357.16248   -957502.81946  24947609.9984   24947617.6464
  21817691.5214  -19519296.78249 -15204928.14348  21817691.2364   21817697.5544
  20091894.1434  -27324616.78449 -21219449.75149  20091894.4834   20091898.1644
  21692243.8374  -20039302.38149 -15595711.84448  21692243.0144   21692247.4414
  24381769.4104   -5699119.04348  -4350679.38947  24381768.0024   24381773.7414
  22785380.4864  -13004146.43449  -9962836.71048  22785380.8364   22785387.2384
 03 10 29  1 43  0.0000000  0  7G 7G 5G24G 4G28G20G 9
  21290033.9564  -17181396.04349 -13359027.44949  21290033.4214   21290038.8404
  24928127.1424   -1381737.92947  -1037279.86247  24928123.8304   24928136.5914
  21804711.6694  -19587505.65149 -15258077.85348  21804711.7364   21804718.2684
  20092599.4654  -27320909.81249 -21216561.17949  20092599.7414   20092603.9474
  21705618.6384  -19969015.56449 -15540942.91548  21705618.0224   21705622.1734
  24392452.6454   -5642976.62448  -4306931.99747  24392453.1844   24392459.0714
  22786651.1674  -12997474.72749  -9957637.94948  22786651.9444   22786655.8954
 03 10 29  1 43 30.0000000  0  7G 7G 5G24G 4G28G20G 9
  21293797.8984  -17161618.65849 -13343616.49149  21293797.2734   21293802.5994
  24908649.5254   -1484092.06647  -1117036.09747  24908648.6564   24908657.0524
  21791805.0154  -19655330.46349 -15310928.29748  21791805.3034   21791810.9894
  20093401.5924  -27316693.76049 -21213275.92349  20093401.9834   20093405.8624
  21719068.3324  -19898336.67249 -15485868.47748  21719068.1804   21719073.1794
  24403224.8364   -5586371.05448  -4262823.71347  24403223.3884   24403227.9154
  22788022.9494  -12990261.89249  -9952017.51348  22788022.9364   22788029.3324
 03 10 29  1 44  0.0000000  0  7G 7G 5G24G 4G28G20G 9
  21297580.6334  -17141738.66349 -13328125.57849  21297580.2434   21297585.5164
  24889177.5514   -1586416.74347  -1196769.45946  24889175.0184   24889187.0504
  21778972.2264  -19722769.20249 -15363477.91748  21778971.5554   21778977.2574
  20094300.6864  -27311968.77449 -21209594.09749  20094301.1014   20094305.2974
  21732593.4194  -19827265.62849 -15430488.46948  21732592.0754   21732597.1184
  24414084.7104   -5529303.21848  -4218355.23747  24414083.4204   24414088.8804
  22789498.7134  -12982507.91949  -9945975.43248  22789497.0424   22789503.9754
 03 10 29  1 44 30.0000000  0  7G 7G 5G24G 4G28G20G 9
  21301383.6264  -17121753.25249 -13312552.51949  21301383.3314   21301388.3114
  24869712.4244   -1688707.29547  -1276476.22647  24869712.4594   24869720.8354
  21766213.3194  -19789818.90849 -15415724.38748  21766213.1084   21766218.6524
  20095296.8064  -27306733.71049 -21205514.80749  20095297.1164   20095301.1744
  21746192.8004  -19755801.03149 -15374801.79648  21746191.9264   21746196.0544
  24425032.2884   -5471772.33148  -4173525.93547  24425031.3694   24425037.2654
  22791077.2134  -12974211.48549  -9939510.63348  22791077.5174   22791081.8404
 03 10 29  1 45  0.0000000  0  7G 7G 5G24G 4G28G20G 9
  21305205.8184  -17101668.56349 -13296902.10449  21305205.2854   21305210.4884
  24850253.0724   -1790967.93548  -1356159.67747  24850251.2624   24850260.8724
  21753527.3894  -19856484.81849 -15467671.79048  21753526.4444   21753532.5614
  20096388.9034  -27300996.26549 -21201044.05549  20096389.2104   20096393.2904
  21759864.7504  -19683950.40049 -15318814.31648  21759864.3544   21759868.8274
  24436067.4114   -5413786.30848  -4128341.98547  24436065.6924   24436071.1164
  22792758.2594  -12965380.06649  -9932628.98148  22792758.3674   22792763.8764
 03 10 29  1 45 30.0000000  0  7G 7G 5G24G 4G28G20G 9
  21309048.6664  -17081474.35649 -13281166.35349  21309048.0914   21309053.4654
  24830800.2224   -1893186.97048  -1435810.70247  24830799.0224   24830807.2174
  21740915.7684  -19922756.29249 -15519311.84948  21740915.6534   21740921.6854
  20097577.3694  -27294748.22349 -21196175.43349  20097578.1294   20097582.1274
  21773613.0984  -19611705.26649 -15262519.44148  21773612.5874   21773617.3514
  24447189.3814   -5355337.15248  -4082797.13447  24447188.1764   24447193.6704
  22794542.0404  -12956005.20049  -9925323.84548  22794541.5714   22794546.5614
 03 10 29  1 46  0.0000000  0  7G 7G 5G24G 4G28G20G 9
  21312910.9864  -17061178.86049 -13265351.66949  21312910.1404   21312915.4804
  24811356.2894   -1995371.24648  -1515434.70047  24811355.5924   24811364.3154
  21728378.3174  -19988641.20749 -15570650.68948  21728378.3334   21728384.1224
  20098862.1204  -27287999.15649 -21190916.40649  20098862.1804   20098866.2924
  21787433.9614  -19539074.99149 -15205924.44848  21787434.0514   21787438.3074
  24458397.0784   -5296435.15248  -4036899.43447  24458396.8904   24458402.2834
  22796428.0944  -12946096.41749  -9917602.67948  22796427.5974   22796433.0814
 03 10 29  1 46 30.0000000  0  7G 7G 5G24G 4G28G20G 9
  21316792.9894  -17040775.89249 -13249453.24349  21316792.7764   21316798.3754
  24791918.9614   -2097512.52847  -1595025.10147  24791917.6124   24791926.3214
  21715915.6034  -20054132.80849 -15621683.05048  21715915.6874   21715920.9994
  20100242.4914  -27280744.70749 -21185263.57849  20100242.6684   20100246.9294
  21801329.4044  -19466055.01149 -15149025.79948  21801328.6544   21801333.6304
  24469693.2074   -5237076.25748  -3990645.71447  24469692.3714   24469697.7474
  22798415.2644  -12935649.10449  -9909461.87948  22798416.3404   22798421.3744
 03 10 29  1 47  0.0000000  0  7G 7G 5G24G 4G28G20G 9
  21320695.1574  -17020270.59749 -13233475.07849  21320694.3214   21320700.0244
  24772490.2064   -2199614.58748  -1674584.97747  24772490.6264   24772497.8764
  21703526.4114  -20119235.76949 -15672412.57548  21703526.3084   21703532.4664
  20101717.6724  -27272991.75349 -21179222.29349  20101718.0134   20101722.1784
  21815296.7184  -19392651.83749 -15091828.55048  21815296.7144   21815301.3734
  24481074.0914   -5177267.47548  -3944041.42847  24481073.1564   24481080.2704
  22800504.9314  -12924669.82549  -9900906.56348  22800505.4994   22800509.3444
 03 10 29  1 47 30.0000000  0  7G 7G 5G24G 4G28G20G 9
  21324617.5564  -16999656.39249 -13217412.05549  21324617.4954   21324623.0524
  24753068.5364   -2301669.28848  -1754108.00647  24753066.4924   24753077.1054
  21691213.5644  -20183943.14549 -15722833.85948  21691213.4594   21691219.3784
  20103289.2604  -27264735.34249 -21172788.71449  20103289.3544   20103293.4024
  21829339.4994  -19318860.56549 -15034328.89548  21829338.8874   21829343.4274
  24492540.6344   -5117004.39847  -3897083.15347  24492539.7024   24492546.1804
  22802695.8794  -12913153.70249  -9891932.92348  22802694.8914   22802701.5904
 03 10 29  1 48  0.0000000  0  7G 7G 5G24G 4G28G20G 9
  21328560.5304  -16978938.13449 -13201267.94949  21328560.2504   21328565.3704
  24733657.6984   -2403680.34048  -1833596.81047  24733657.6784   24733663.0604
  21678974.0714  -20248259.47949 -15772950.43048  21678974.1434   21678980.2724
  20104954.4174  -27255982.31949 -21165968.15849  20104954.7244   20104958.9344
  21843454.0864  -19244687.67449 -14976531.87048  21843453.7214   21843457.9074
  24504095.4984   -5056294.16148  -3849776.43547  24504092.9064   24504098.2184
  22804988.3264  -12901107.55349  -9882546.27848  22804989.0584   22804995.3204
 03 10 29  1 48 30.0000000  0  7G 7G 5G24G 4G28G20G 9
  21332523.1844  -16958113.41549 -13185040.88749  21332522.4444   21332528.0164
  24714254.0304   -2505642.60847  -1913047.94747  24714253.3234   24714262.2374
  21666810.3844  -20312181.96449 -15822760.10648  21666810.4464   21666815.7734
  20106714.9534  -27246731.85249 -21158759.98949  20106714.9654   20106719.3084
  21857641.4184  -19170132.32649 -14918436.81648  21857641.6244   21857645.6044
  24515732.6354   -4995136.44248  -3802121.02547  24515733.4614   24515736.4834
  22807382.6004  -12888530.22249  -9872745.73548  22807382.2864   22807388.0174
 03 10 29  1 49  0.0000000  0  7G 7G 5G24G 4G28G20G 9
  21336507.1264  -16937177.89149 -13168727.48549  21336506.6524   21336511.9624
  24694862.3134   -2607550.95148  -1992456.63247  24694861.4174   24694868.7294
  21654721.9374  -20375706.16149 -15872259.42548  21654721.8534   21654728.1314
  20108570.1014  -27236981.72049 -21151162.46949  20108570.2624   20108574.4304
  21871902.0994  -19095191.86249 -14860041.69048  21871901.1344   21871905.8014
  24527455.9034   -4933529.17947  -3754115.33447  24527454.1344   24527461.4294
  22809876.8714  -12875419.14649  -9862529.27148  22809876.8604   22809881.8784
 03 10 29  1 49 30.0000000  0  7G 7G 5G24G 4G28G20G 9
  21340510.6094  -16916137.44649 -13152332.32149  21340510.6654   21340516.2694
  24675475.8854   -2709408.95947  -2071826.50047  24675478.0004   24675485.5974
  21642708.4784  -20438837.02949 -15921452.26048  21642708.6354   21642713.8364
  20110519.4784  -27226739.35649 -21143181.38949  20110519.5754   20110523.5024
  21886235.0554  -19019873.58149 -14801352.15348  21886234.7314   21886238.5334
  24539263.3084   -4871480.29747  -3705765.53247  24539262.0894   24539269.0304
  22812471.4304  -12861782.03449  -9851902.91048  22812471.1514   22812477.7324
 03 10 29  1 50  0.0000000  0  7G 7G 5G24G 4G28G20G 9
  21344535.4024  -16894990.12149 -13135853.88049  21344534.6674   21344540.2384
  24656106.3394   -2811213.63348  -2151154.50347  24656105.9164   24656114.2114
  21630770.3814  -20501572.61849 -15970337.08048  21630770.3754   21630776.1944
  20112561.9944  -27216004.68049 -21134816.69149  20112562.2034   20112566.2444
  21900639.4984  -18944177.19349 -14742367.97948  21900638.6404   21900643.5174
  24551155.2034   -4808990.20947  -3657071.91747  24551154.7914   24551159.8244
  22815167.6464  -12847618.43049  -9840866.31648  22815166.4944   22815172.8984
 03 10 29  1 50 30.0000000  0  7G 7G 5G24G 4G28G20G 9
  21348580.0374  -16873734.53649 -13119291.07649  21348579.6114   21348585.2064
  24636741.1144   -2912961.68547  -2230438.56747  24636739.3364   24636749.6814
  21618907.6734  -20563911.30749 -16018912.64048  21618907.8184   21618913.7604
  20114698.1624  -27204778.42749 -21126068.94549  20114698.5014   20114702.4294
  21915115.4374  -18868103.12149 -14683089.52648  21915115.2134   21915119.2774
  24563129.1354   -4746059.96347  -3608035.33147  24563127.0834   24563133.5624
  22817962.6484  -12832928.88649  -9829419.88348  22817962.3004   22817967.5904
 03 10 29  1 51  0.0000000  0  7G 7G 5G24G 4G28G20G 9
  21352645.7654  -16852369.53349 -13102643.01149  21352645.0834   21352650.5584
  24617393.3274   -3014650.09748  -2309676.11147  24617392.4094   24617401.9234
  21607120.4404  -20625851.51949 -16067177.69248  21607120.5744   21607125.8474
  20116928.0624  -27193061.41749 -21116938.79249  20116928.0494   20116932.0114
  21929664.2644  -18791651.90149 -14623517.17548  21929663.8054   21929667.7084
  24575188.6164   -4682690.40647  -3558656.43147  24575188.3864   24575193.2734
  22820858.5604  -12817714.20649  -9817564.25548  22820858.3784   22820863.9964
 03 10 29  1 51 30.0000000  0  7G 7G 5G24G 4G28G20G 9
  21356732.1674  -16830893.88449 -13085908.73149  21356732.2104   21356736.9314
  24598052.2424   -3116276.19148  -2388865.08247  24598051.5884   24598060.5214
  21595410.4634  -20687391.52449 -16115130.88548  21595410.3064   21595415.0704
  20119250.8044  -27180854.05049 -21107426.54249  20119251.0194   20119255.1904
  21944283.6934  -18714823.97649 -14563651.29748  21944283.6854   21944288.1984
  24587331.2314   -4618882.38347  -3508935.84547  24587331.3674   24587335.6224
  22823852.6624  -12801974.83649  -9805299.77648  22823852.7534   22823858.6044
 03 10 29  1 52  0.0000000  0  7G 7G 5G24G 4G28G20G 9
  21360837.1504  -16809321.27449 -13069098.90349  21360836.8594   21360842.1504
  24578723.8834   -3217852.06148  -2468014.98947  24578722.3254   24578731.2004
  21583773.1034  -20748545.10749 -16162782.96948  21583772.3424   21583778.4044
  20121664.1044  -27168172.19849 -21097544.56849  20121664.4934   20121668.4534
  21958972.3164  -18637634.77049 -14503503.90948  21958972.1614   21958976.7454
  24599553.7804   -4554652.31947  -3458886.42647  24599551.1794   24599558.7994
  22826944.4854  -12785726.25849  -9792638.51148  22826945.2894   22826950.8064
 03 10 29  1 52 30.0000000  0  7G 7G 5G24G 4G28G20G 9
  21364965.5664  -16787626.28249 -13052193.71349  21364965.3104   21364970.3074
  24559409.1724   -3319350.76948  -2547104.74047  24559408.0604   24559418.8114
  21572214.1014  -20809286.79149 -16210114.10248  21572214.1404   21572219.4554
  20124172.2434  -27154992.27549 -21087274.48549  20124172.3594   20124176.7024
  21973734.5404  -18560060.54849 -14443056.49948  21973734.3914   21973738.4484
  24611861.9874   -4489976.94047  -3408489.98947  24611859.3384   24611865.7924
  22830137.8814  -12768944.82049  -9779562.04248  22830139.2264   22830144.5764
 03 10 29  1 53  0.0000000  0  7G 7G 5G24G 4G28G20G 9
  21369115.5614  -16765819.36749 -13035201.30649  21369114.9604   21369120.6454
  24540108.6234   -3420780.88248  -2626140.98547  24540107.5184   24540114.6054
  21560731.8674  -20869626.89549 -16257132.30948  21560731.7974   21560737.2234
  20126772.4894  -27141326.78449 -21076626.03649  20126772.9744   20126776.8394
  21988567.4964  -18482113.47049 -14382318.54048  21988567.1854   21988571.1154
  24624252.1104   -4424869.18047  -3357756.63947  24624249.3314   24624256.2664
  22833430.7804  -12751643.17749  -9766080.20448  22833429.9994   22833435.0704
 03 10 29  1 53 30.0000000  0  7G 7G 5G24G 4G28G20G 9
  21373285.7024  -16743904.77749 -13018124.99949  21373285.5264   21373290.7374
  24520818.4954   -3522144.51948  -2705125.55147  24520819.7624   24520825.7964
  21549325.0674  -20929569.18549 -16303840.54248  21549324.6704   21549330.7584
  20129464.2924  -27127182.00549 -21065604.11649  20129464.2544   20129468.6004
  22003470.3424  -18403799.56149 -14321294.75748  22003469.4124   22003473.4594
  24636721.1824   -4359335.47447  -3306691.37147  24636721.2644   24636726.0424
  22836820.1614  -12733827.52149  -9752197.84448  22836820.0884   22836825.5024
 03 10 29  1 54  0.0000000  0  7G 7G 5G24G 4G28G20G 9
  21377477.7854  -16721876.42149 -13000960.04849  21377477.0994   21377482.5764
  24501544.7594   -3623434.25948  -2784052.41647  24501543.4214   24501550.2404
  21537995.5214  -20989107.52449 -16350234.00448  21537995.5394   21538000.6954
  20132247.9084  -27112554.06549 -21054205.70949  20132248.1724   20132252.4774
  22018443.6994  -18325114.68049 -14259981.89948  22018443.3114   22018446.9644
  24649273.1154   -4293372.26047  -3255291.42447  24649272.0504   24649276.4734
  22840309.2294  -12715493.65249  -9737911.67748  22840308.6264   22840315.3804
 03 10 29  1 54 30.0000000  0  7G 7G 5G24G 4G28G20G 9
  21381690.3464  -16699736.64849 -12983708.27549  21381690.0624   21381695.5184
  24482282.3764   -3724650.89548  -2862922.38647  24482281.8424   24482289.3544
  21526741.8574  -21048244.09749 -16396314.40948  21526741.5154   21526747.7474
  20135122.3554  -27097447.10149 -21042434.03449  20135122.8194   20135126.8714
  22033486.4794  -18246062.82949 -14198383.09848  22033486.3344   22033489.8904
  24661907.0024   -4226984.26647  -3203560.46847  24661906.9154   24661910.3634
  22843895.9634  -12696645.94749  -9723225.11348  22843895.3184   22843902.1044
 03 10 29  1 55  0.0000000  0  7G 7G 5G24G 4G28G20G 9
  21385924.7894  -16677485.20249 -12966369.49049  21385924.3734   21385929.7594
  24463035.7744   -3825792.38748  -2941733.74647  24463036.2474   24463044.2394
  21515564.2604  -21106978.46449 -16442081.40548  21515564.3524   21515570.4084
  20138088.0174  -27081863.02149 -21030290.58349  20138088.2134   20138092.3004
  22048599.2354  -18166645.80449 -14136499.73648  22048598.7564   22048602.4974
  24674620.0854   -4160173.69948  -3151500.21947  24674619.5744   24674624.4844
  22847580.7444  -12677286.15449  -9708139.53148  22847579.9984   22847585.9174
 03 10 29  1 55 30.0000000  0  7G 7G 5G24G 4G28G20G 9
  21390181.1774  -16655118.06349 -12948940.55149  21390180.4664   21390186.2914
  24443804.5344   -3926852.92048  -3020482.07347  24443804.0944   24443810.4314
  21504465.1724  -21165306.80949 -16487532.02048  21504465.2954   21504471.3814
  20141144.8754  -27065799.78649 -21017773.76249  20141145.1394   20141149.2644
  22063780.6164  -18086861.18749 -14074329.94348  22063780.6854   22063785.4254
  24687413.3754   -4092939.15747  -3099109.61247  24687412.4024   24687419.5284
  22851362.3714  -12657412.53149  -9692653.54748  22851362.1644   22851367.0284
 03 10 29  1 56  0.0000000  0  7G 7G 5G24G 4G28G20G 9
  21394458.7954  -16632637.73349 -12931423.41249  21394458.8114   21394464.1304
  24424590.0474   -4027834.03148  -3099168.43447  24424589.8084   24424594.8044
  21493443.0414  -21223231.53149 -16532668.13548  21493442.7914   21493448.6534
  20144291.8444  -27049262.14649 -21004887.27749  20144292.0514   20144296.2534
  22079032.7614  -18006713.51449 -14011877.25548  22079032.2934   22079037.4224
  24700288.8344   -4025285.26147  -3046392.21747  24700286.9744   24700293.0574
  22855240.7814  -12637029.37549  -9676770.54148  22855239.6864   22855245.0744
 03 10 29  1 56 30.0000000  0  7G 7G 5G24G 4G28G20G 9
  21398758.3034  -16610044.34549 -12913818.17949  21398758.2134   21398763.5044
  24405387.5064   -4128733.43748  -3177791.19247  24405388.2874   24405395.3014
  21482496.7324  -21280752.66549 -16577489.76348  21482496.7554   21482502.4344
  20147528.7704  -27032252.42749 -20991632.93849  20147529.0664   20147533.0904
  22094353.2464  -17926204.86249 -13949143.28248  22094353.2414   22094357.2704
  24713241.8564   -3957214.84748  -2993350.27947  24713241.2464   24713248.5484
  22859215.7664  -12616138.97049  -9660492.25948  22859215.2284   22859221.5424
 03 10 29  1 57  0.0000000  0  7G 7G 5G24G 4G28G20G 9
  21403079.7234  -16587336.86049 -12896124.03349  21403079.4394   21403084.3354
  24386204.3474   -4229548.73648  -3256348.37147  24386202.7454   24386209.5434
  21471627.6614  -21337869.28649 -16621996.18548  21471628.0454   21471633.6514
  20150855.1524  -27014771.68349 -20978011.56049  20150855.3564   20150859.5604
  22109742.0644  -17845336.05449 -13886128.67548  22109743.0824   22109746.6384
  24726273.8084   -3888729.52848  -2939985.02647  24726273.3674   24726278.1274
  22863287.3444  -12594742.51049  -9643819.64948  22863286.3774   22863292.5004
 03 10 29  1 57 30.0000000  0  7G 7G 5G24G 4G28G20G 9
  21407423.4654  -16564511.34049 -12878337.91349  21407422.7114   21407427.8874
  24367034.7824   -4330273.86448  -3334835.28847  24367035.0674   24367043.2904
  21460836.8664  -21394577.13949 -16666184.09048  21460836.7784   21460842.3124
  20154271.6804  -26996818.05649 -20964021.70649  20154271.7434   20154275.9944
  22125200.2024  -17764104.90549 -13822831.71048  22125199.6384   22125203.4464
  24739385.6624   -3819827.73648  -2886295.25147  24739384.3324   24739388.3444
  22867455.4944  -12572838.15149  -9626751.28548  22867455.7814   22867460.3404
 03 10 29  1 58  0.0000000  0  7G 7G 5G24G 4G28G20G 9
  21411788.5354  -16541571.39849 -12860462.63249  21411788.1354   21411793.4544
  24347886.2424   -4430910.93048  -3413253.58347  24347885.0294   24347889.8604
  21450122.6604  -21450880.15449 -16710056.53548  21450122.8814   21450128.2854
  20157776.8434  -26978397.69249 -20949668.15649  20157777.0654   20157781.2424
  22140725.6644  -17682517.21449 -13759256.92548  22140725.1164   22140729.0314
  24752574.8984   -3750515.71948  -2832285.79647  24752573.5114   24752581.5294
  22871718.8764  -12550431.75749  -9609291.71748  22871717.9904   22871725.4764
 03 10 29  1 58 30.0000000  0  7G 7G 5G24G 4G28G20G 9
  21416175.9434  -16518515.94749 -12842497.34149  21416175.2384   21416180.6754
  24328751.7104   -4531457.29148  -3491601.23147  24328748.9474   24328758.3094
  21439485.8374  -21506777.22549 -16753612.66248  21439485.9474   21439491.2734
  20161370.8224  -26959511.36949 -20934951.52749  20161370.9244   20161375.3784
  22156318.6834  -17600573.89949 -13695405.01448  22156318.5564   22156323.5754
  24765841.5764   -3680794.68048  -2777957.66047  24765842.8334   24765847.3834
  22876077.6694  -12527524.61549  -9591441.97348  22876078.4504   22876082.9344
 03 10 29  1 59  0.0000000  0  7G 7G 5G24G 4G28G20G 9
  21420585.1434  -16495343.36949 -12824440.78649  21420584.7944   21420590.3914
  24309634.3664   -4631909.58448  -3569875.53547  24309635.7204   24309641.6514
  21428926.1134  -21562267.08449 -16796851.47748  21428926.1064   21428932.0304
  20165053.2564  -26940159.83549 -20919872.39949  20165053.5424   20165057.4294
  22171980.0554  -17518275.11249 -13631276.14048  22171980.6574   22171983.7284
  24779187.2314   -3610665.68848  -2723311.56746  24779188.1874   24779191.7974
  22880532.3954  -12504117.15349  -9573202.35948  22880531.9194   22880538.3024
 03 10 29  1 59 30.0000000  0  7G 7G 5G24G 4G28G20G 9
  21425017.9214  -16472050.64249 -12806290.60948  21425017.0604   21425022.9644
  24290538.7444   -4732263.39848  -3648073.14247  24290538.8544   24290545.9294
  21418444.5114  -21617346.57449 -16839770.53548  21418444.8654   21418450.2804
  20168824.4784  -26920342.37749 -20904430.21349  20168824.5784   20168828.8434
  22187708.3274  -17435620.07649 -13566869.65448  22187708.1224   22187712.9354
  24792610.5054   -3540128.54848  -2668347.47647  24792608.4104   24792613.4274
  22885082.8134  -12480208.60349  -9554572.27948  22885083.1154   22885087.4334
 03 10 29  2  0  0.0000000  0  7G 7G 5G24G 4G28G20G 9
  21429471.6584  -16448645.40749 -12788052.76248  21429471.1844   21429476.5274
  24271459.3394   -4832524.24448  -3726198.31147  24271458.2584   24271467.1274
  21408040.1334  -21672023.21249 -16882375.67148  21408040.4094   21408045.9744
  20172682.3764  -26900068.89349 -20888632.68049  20172682.6424   20172686.7414
  22203503.2764  -17352618.27549 -13502192.97348  22203502.9304   22203507.7184
  24806108.2574   -3469193.51948  -2613073.29346  24806109.2924   24806111.2044
  22889725.6664  -12455808.80249  -9535559.42848  22889724.7614   22889730.8674
 03 10 29  2  0 30.0000000  0  7G 7G 5G24G 4G28G20G 9
  21433948.4964  -16425119.89949 -12769721.19849  21433947.7434   21433953.2384
  24252401.3354   -4932682.88248  -3804243.80247  24252401.4304   24252405.5894
  21397713.7924  -21726289.31149 -16924660.91048  21397713.7124   21397719.2144
  20176627.8334  -26879333.66749 -20872475.35149  20176628.2214   20176632.4924
  22219365.1614  -17269263.93749 -13437241.58848  22219364.5524   22219369.7244
  24819684.2234   -3397855.11848  -2557484.83447  24819682.8864   24819687.3634
  22894463.9674  -12430912.18149  -9516159.43648  22894462.9264   22894468.0424
 03 10 29  2  1  0.0000000  0  7G 7G 5G24G 4G28G20G 9
  21438447.9694  -16401475.47449 -12751296.96848  21438447.2654   21438452.5424
  24233358.6664   -5032738.78548  -3882209.30547  24233357.9534   24233368.3694
  21387465.2354  -21780146.69749 -16966627.68048  21387464.6654   21387470.4774
  20180660.8384  -26858140.74549 -20855961.37449  20180661.0924   20180665.2614
  22235292.8494  -17185560.80249 -13372018.41048  22235293.0424   22235298.6024
  24833333.8674   -3326117.70548  -2501585.46246  24833333.8254   24833338.8644
  22899294.5854  -12405522.73849  -9496375.42648  22899294.8924   22899300.2254
 03 10 29  2  1 30.0000000  0  7G 7G 5G24G 4G28G20G 9
  21442969.6844  -16377711.44049 -12732779.53348  21442969.1624   21442975.0204
  24214340.9764   -5132689.63348  -3960092.91747  24214340.1354   24214347.1804
  21377293.8494  -21833594.67649 -17008275.42648  21377294.1554   21377299.7334
  20184780.6544  -26836491.43749 -20839091.77349  20184780.6764   20184785.0424
  22251287.5834  -17101509.81649 -13306524.18448  22251286.9074   22251292.7494
  24847062.1754   -3253983.08048  -2445376.57747  24847061.0224   24847065.5244
  22904219.6924  -12379642.01449  -9476208.60248  22904219.5654   22904224.5974
 03 10 29  2  2  0.0000000  0  7G 7G 5G24G 4G28G20G 9
  21447514.8474  -16353826.56449 -12714167.94548  21447514.3924   21447520.3824
  24195341.3764   -5232532.71348  -4037892.59147  24195339.8124   24195347.0524
  21367201.5484  -21886632.41749 -17049603.51248  21367201.3844   21367207.0214
  20188986.9984  -26814387.00449 -20821867.53249  20188987.3134   20188991.4104
  22267347.7474  -17017112.02749 -13240759.71148  22267347.4614   22267352.9784
  24860864.2164   -3181452.68448  -2388859.25247  24860863.7344   24860866.7494
  22909237.2334  -12353271.28949  -9455659.95448  22909237.7324   22909243.8264
 03 10 29  2  2 30.0000000  0  7G 7G 5G24G 4G28G20G 9
  21452082.8014  -16329821.18349 -12695462.45048  21452082.7164   21452088.1804
  24176361.2334   -5332266.36148  -4115606.94747  24176360.7184   24176366.7304
  21357186.7404  -21939260.43749 -17090612.33248  21357186.6594   21357191.9164
  20193279.3754  -26791830.07649 -20804290.68849  20193279.7674   20193283.9054
  22283473.7054  -16932369.93949 -13174726.96048  22283473.9504   22283479.5674
  24874739.9884   -3108529.74848  -2332036.09347  24874740.2564   24874746.3724
  22914347.4754  -12326413.09149  -9434731.47548  22914347.7144   22914353.6694
 03 10 29  2  3  0.0000000  0  7G 7G 5G24G 4G28G20G 9
  21456674.0874  -16305695.13449 -12676662.93548  21456673.3924   21456679.0664
  24157403.9804   -5431888.48648  -4193234.45347  24157404.1744   24157411.8894
  21347249.7984  -21991478.72149 -17131301.87348  21347249.4814   21347255.3374
  20197657.5184  -26768822.89349 -20786363.00149  20197657.7634   20197662.1904
  22299664.8264  -16847285.56049 -13108427.48648  22299664.1144   22299670.5344
  24888691.4084   -3035216.66348  -2274908.82346  24888689.8074   24888696.9204
  22919551.8664  -12299069.76249  -9413424.96248  22919551.2794   22919557.3514
 03 10 29  2  3 30.0000000  0  7G 7G 5G24G 4G28G20G 9
  21461288.3454  -16281446.94149 -12657768.23448  21461287.8764   21461293.6044
  24138469.9214   -5531395.77548  -4270772.42947  24138467.7674   24138473.0774
  21337391.2734  -22043285.77949 -17171670.97548  21337391.0144   21337397.1234
  20202121.2184  -26745366.33849 -20768085.15249  20202121.5084   20202125.5094
  22315920.7014  -16761859.53049 -13041861.78248  22315920.2344   22315925.8694
  24902715.2884   -2961514.57247  -2217478.57147  24902715.1284   24902720.6394
  22924847.0944  -12271242.18549  -9391741.13248  22924845.6134   22924852.3844
 03 10 29  2  4  0.0000000  0  7G 7G 5G24G 4G28G20G 9
  21465925.2364  -16257077.59049 -12638779.12648  21465925.0824   21465930.4394
  24119553.5184   -5630788.32848  -4348221.08747  24119552.9894   24119561.9874
  21327610.7074  -22094683.28049 -17211720.94949  21327610.5254   21327616.2264
  20206669.7194  -26721463.88149 -20749459.84949  20206670.0344   20206673.9364
  22332241.5454  -16676095.03849 -12975032.36048  22332241.3524   22332245.2074
  24916814.3464   -2887427.53147  -2159748.28646  24916815.3514   24916818.6504
  22930234.0254  -12242934.04349  -9369682.81548  22930233.9804   22930238.8454
 03 10 29  2  4 30.0000000  0  7G 7G 5G24G 4G28G20G 9
  21470586.1924  -16232584.09349 -12619693.27748  21470586.2384   21470591.7404
  24100663.2134   -5730060.84748  -4425576.14547  24100664.3094   24100670.5294
  21317908.2394  -22145668.28849 -17251449.49148  21317908.2514   21317913.7944
  20211302.9114  -26697114.97249 -20730486.66149  20211303.2294   20211307.2414
  22348626.9614  -16589990.92949 -12907938.27648  22348626.9434   22348630.8454
  24930986.7934   -2812955.06947  -2101717.63447  24930984.8274   24930990.3844
  22935712.7324  -12214144.80149  -9347249.63248  22935713.2124   22935717.9394
 03 10 29  2  5  0.0000000  0  7G 7G 5G24G 4G28G20G 9
  21475271.1494  -16207967.87449 -12600511.80748  21475270.3864   21475275.4574
  24081795.5094   -5829213.23048  -4502837.60247  24081794.4134   24081801.7704
  21308284.4874  -22196242.76449 -17290858.14549  21308284.5924   21308290.0494
  20216020.9204  -26672323.38849 -20711168.53349  20216021.1364   20216025.1394
  22365076.0424  -16503551.15649 -12840582.64948  22365077.3704   22365080.1414
  24945231.2374   -2738101.39947  -2043390.03147  24945229.3144   24945233.9774
  22941281.6534  -12184878.63049  -9324444.81148  22941281.4594   22941288.2414
 03 10 29  2  5 30.0000000  0  7G 7G 5G24G 4G28G20G 9
  21479979.1204  -16183227.39849 -12581233.51448  21479978.2094   21479983.1924
  24062952.5224   -5928242.26048  -4580002.92647  24062950.9164   24062956.2234
  21298739.0414  -22246405.29149 -17329945.79649  21298738.5894   21298744.2524
  20220822.6684  -26647089.93449 -20691506.08649  20220822.6254   20220827.0624
  22381588.6514  -16416776.12549 -12772965.78248  22381586.9974   22381593.5624
  24959547.9504   -2662867.85347  -1984766.37846  24959543.0994   24959547.6134
  22946941.1154  -12155136.10049  -9301268.80948  22946941.6944   22946946.5654
 03 10 29  2  6  0.0000000  0  7G 7G 5G24G 4G28G20G 9
  21484711.1784  -16158360.58549 -12561856.78048  21484710.7014   21484715.5024
  24044129.9694   -6027144.12348  -4657069.16747  24044128.9064   24044135.3664
  21289272.0314  -22296154.23449 -17368711.17349  21289271.7734   21289277.0204
  20225708.2414  -26621415.17249 -20671499.76149  20225708.4444   20225712.7264
  22398165.4534  -16329666.16549 -12705087.93748  22398164.8714   22398169.4194
  24973934.9214   -2587255.09847  -1925847.18746  24973934.4054   24973940.4794
  22952693.0504  -12124917.89749  -9277722.15548  22952692.4154   22952697.1134
 03 10 29  2  6 30.0000000  0  7G 7G 5G24G 4G28G20G 9
  21489466.4464  -16133371.92649 -12542385.09448  21489465.0024   21489470.9384
  24025333.3794   -6125921.20148  -4734038.19147  24025332.4244   24025339.2354
  21279882.8494  -22345494.57049 -17407158.15949  21279882.5374   21279888.0764
  20230676.4704  -26595306.06149 -20651154.98849  20230676.7894   20230681.0894
  22414803.8304  -16242228.10949 -12636954.43448  22414803.4914   22414809.0924
  24988395.1504    6941249.41857   5498961.57656  24988394.7544   24988397.0214
  22958531.0744  -12094231.06549  -9253810.34848  22958531.4054   22958536.8334
 03 10 29  2  7  0.0000000  0  6G 7G 5G24G 4G28G 9
  21494246.0144  -16108254.76449 -12522813.28148  21494245.5234   21494250.5444
  24006562.0734   -6224565.08648  -4810903.41047  24006561.9034   24006567.2954
  21270572.9084  -22394420.12149 -17445281.93549  21270572.3504   21270577.7534
  20235728.1874  -26568758.37349 -20630468.46549  20235728.4294   20235732.9384
  22431506.6524  -16154457.55249 -12568561.82848  22431505.8884   22431510.8134
  22964460.4084  -12063071.60049  -9229530.23648  22964460.7854   22964465.6054
 03 10 29  2  7 30.0000000  0  6G 7G 5G24G 4G28G 9
  21499049.3204  -16083012.14849 -12503143.70748  21499048.3824   21499054.1194
  23987814.8134   -6323077.72948  -4887666.35547  23987815.7144   23987822.1954
  21261340.2624  -22442934.03549 -17483084.95549  21261340.4284   21261345.9654
  20240862.6174  -26541777.68749 -20609444.54249  20240863.1134   20240866.9944
  22448271.2584  -16066359.52749 -12499914.08048  22448269.9104   22448276.0864
  22970479.8974  -12031445.30249  -9204886.37348  22970478.9614   22970485.4064
 03 10 29  2  8  0.0000000  0  6G 7G 5G24G 4G28G 9
  21503876.8944  -16057641.32749 -12483374.24148  21503876.3154   21503881.9664
  23969095.1924   -6421454.43048  -4964323.36947  23969094.7434   23969100.0264
  21252187.3514  -22491034.31649 -17520565.65249  21252186.8124   21252192.8224
  20246079.5334  -26514363.77849 -20588083.04249  20246079.7604   20246083.7494
  22465097.6454  -15977933.82449 -12431010.98048  22465097.2894   22465102.4644
  22976586.3424  -11999351.93249  -9179878.56248  22976586.7424   22976592.7774
 03 10 29  2  8 30.0000000  0  6G 7G 5G24G 4G28G 9
  21508729.7584  -16032141.35549 -12463504.13248  21508729.3034   21508734.9374
  23950399.2054   -6519692.24848  -5040872.18147  23950400.4524   23950408.2704
  21243112.9124  -22538720.51249 -17557723.69049  21243113.2764   21243118.6444
  20251378.2194  -26486518.23749 -20566385.21049  20251378.4324   20251382.6184
  22481986.7784  -15889181.83649 -12361853.62948  22481986.7014   22481990.7044
  22982782.8574  -11966793.36749  -9154508.24148  22982781.8424   22982787.2964
 03 10 29  2  9  0.0000000  0  6G 7G 5G24G 4G28G 9
  21513606.3564  -16006514.19749 -12443534.91448  21513605.8214   21513611.3044
  23931731.3204   -6617791.70648  -5117313.17447  23931731.4544   23931739.1324
  21234116.1934  -22585994.76649 -17594560.71749  21234116.6984   21234122.4484
  20256758.5634  -26458245.69449 -20544354.65049  20256758.7284   20256762.6794
  22498936.8974  -15800107.67449 -12292445.23348  22498935.4884   22498941.6194
  22989065.3894  -11933774.31249  -9128779.11648  22989065.1674   22989070.6264
 03 10 29  2  9 30.0000000  0  6G 7G 5G24G 4G28G 9
  21518507.0164  -15980760.21849 -12423466.88548  21518506.4804   21518511.5974
  23913091.1904   -6715751.23148  -5193645.15347  23913090.2674   23913095.8254
  21225199.2594  -22632858.22649 -17631077.65149  21225198.9124   21225204.8174
  20262219.0254  -26429549.06849 -20521993.63649  20262219.2044   20262223.4614
  22515948.0144  -15710714.04649 -12222787.90048  22515947.5874   22515951.1984
  22995436.2984  -11900297.80949  -9102693.53248  22995435.3454   22995440.7854
 03 10 29  2 10  0.0000000  0  6G 7G 5G24G 4G28G 9
  21523432.7874  -15954874.73149 -12403296.37348  21523432.7704   21523437.7304
  23894477.8744   -6813564.20348  -5269862.87447  23894478.2264   23894484.4004
  21216360.3144  -22679306.62849 -17667271.16649  21216360.6164   21216365.4314
  20267760.9644  -26400426.09149 -20499300.39549  20267761.0544   20267765.1424
  22533020.3614  -15620998.57149 -12152879.77348  22533020.1924   22533024.5644
  23001893.6934  -11866361.92449  -9076249.98448  23001892.9344   23001899.8094
 03 10 29  2 10 30.0000000  0  7G 7G 5G24G 4G28G20G 9
  21528384.1384  -15928857.42049 -12383023.14448  21528383.5084   21528388.6044
  23875893.0094   -6911229.18448  -5345965.33547  23875893.0694   23875897.9824
  21207600.4814  -22725340.35649 -17703141.56549  21207600.3874   21207605.4444
  20273383.5704  -26370879.38449 -20476276.97949  20273383.7804   20273387.8444
  22550153.3274  -15530963.64049 -12082722.72648  22550154.1174   22550158.9564
  25106592.959     -485557.64418
  23008438.4344  -11831969.16849  -9049450.42848  23008437.9784   23008443.6974
 03 10 29  2 11  0.0000000  0  8G 7G 5G10G24G 4G28G20G 9
  21533359.5344  -15902709.92249 -12362648.46748  21533358.8574   21533364.6904
  23857335.5854   -7008745.09048  -5421951.62047  23857336.6014   23857342.0624
  25118667.2934    -783368.78848   -570528.27346  25118665.1804   25118675.8164
  21198918.6534  -22770961.25049 -17738690.27149  21198918.9364   21198924.0454
  20279085.8404  -26340912.74649 -20452926.34049  20279086.3814   20279090.1534
  22567346.8594  -15440612.83049 -12012319.54348  22567346.3764   22567350.9574
  25121675.164     -406293.688 8
  23015069.2384  -11797123.70949  -9022298.11948  23015069.4004   23015073.8834
 03 10 29  2 11 30.0000000  0  9G 7G 5G10G17G24G 4G28G20G 9
  21538360.5734  -15876432.29849 -12342172.40448  21538359.5984   21538365.1494
  23838808.5954   -7106111.17348  -5497821.15147  23838808.0944   23838813.4934
  25097471.8014    -894750.46648   -657318.90846  25097470.6384   25097480.7994
  25370771.4844    -842922.13147   -625017.63546  25370774.3224   25370778.5504
  21190315.9074  -22816170.16449 -17773917.96449  21190315.6964   21190321.2434
  20284867.8024  -26310529.02849 -20429250.71349  20284868.1404   20284872.2554
  22584600.2944  -15349948.82549 -11941672.31348  22584599.4984   22584603.7994
  25136825.5194    -326678.66448   -336897.78147  25136826.9134   25136829.9334
  23021785.8394  -11761828.85149  -8994795.62548  23021784.7654   23021790.9874
 03 10 29  2 12  0.0000000  0  9G 7G 5G10G17G24G 4G28G20G 9
  21543385.9434  -15850021.49149 -12321592.55448  21543385.2884   21543391.3254
  23820308.6654   -7203321.83648  -5573569.63747  23820309.2994   23820315.4184
  25076252.8744   -1006249.01448   -744200.56346  25076252.7694   25076260.5614
  25353752.1224    -932362.58347   -694711.18346  25353751.3984   25353761.9024
  21181791.6364  -22860964.41249 -17808822.53649  21181791.7054   21181797.0624
  20290729.3804  -26279727.69949 -20405249.66949  20290729.6524   20290733.3874
  22601912.2274  -15258970.92549 -11870780.48748  22601911.2894   22601917.5394
  25152042.9634    -246712.29448   -274586.14747  25152042.1374   25152047.5574
  23028587.6064  -11726084.17249  -8966942.60448  23028587.8024   23028593.4344
 03 10 29  2 12 30.0000000  0  9G 7G 5G10G17G24G 4G28G20G 9
  21548436.5254  -15823479.64149 -12300910.59648  21548436.1554   21548441.8044
  23801840.3074   -7300378.13848  -5649197.79747  23801840.8704   23801846.6744
  25055014.0194   -1117864.65947   -831173.53946  25055011.9524   25055022.3964
  25336754.8844   -1021681.61247   -764310.18346  25336753.5374   25336763.8764
  21173345.8874  -22905347.07249 -17843406.38349  21173345.4134   21173351.1794
  20296669.1664  -26248513.72549 -20380927.07949  20296669.3104   20296673.2664
  22619283.7444  -15167683.71549 -11799647.64448  22619283.9404   22619287.7524
  25167324.9834    -166399.90148   -212004.92247  25167323.2994   25167330.0204
  23035474.4304  -11689894.37549  -8938742.76348  23035474.5564   23035479.4864
 03 10 29  2 13  0.0000000  0  9G 7G 5G10G17G24G 4G28G20G 9
  21553513.3464  -15796803.77749 -12280124.21148  21553512.0224   21553518.0714
  23783402.1764   -7397275.06348  -5724701.78447  23783400.0754   23783406.1734
  25033752.8674   -1229592.39448   -918233.86646  25033751.5524   25033759.5674
  25319783.0444   -1110875.83448   -833811.89146  25319782.2474   25319788.1914
  21164979.0034  -22949315.74049 -17877667.64549  21164978.9474   21164984.0404
  20302687.4884  -26216886.80849 -20356282.72349  20302687.7474   20302691.5134
  22636713.6894  -15076086.67949 -11728273.38648  22636714.2294   22636718.3314
  25182674.4354     -85741.68648   -149154.25347  25182674.0764   25182677.7784
  23042445.8564  -11653259.74649  -8910196.27048  23042445.8444   23042450.2374
 03 10 29  2 13 30.0000000  0  9G 7G 5G10G17G24G 4G28G20G 9
  21558614.6634  -15769992.48049 -12259232.29348  21558614.2884   21558619.7764
  23764994.0914   -7494009.69148  -5800079.33647  23764994.1714   23764998.8724
  25012469.9884   -1341429.06948  -1005379.09647  25012469.5654   25012479.3624
  25302833.3844   -1199943.25748   -903214.83846  25302832.3424   25302841.3944
  21156690.9594  -22992869.42249 -17911605.54249  21156690.8804   21156696.2704
  20308784.1544  -26184848.22649 -20331317.58749  20308784.2404   20308788.2784
  22654202.9744  -14984180.73349 -11656658.39848  22654203.6044   22654206.8314
  25198087.6274      -4738.93648    -86035.10446  25198087.5764   25198091.6154
  23049500.4624  -11616181.59849  -8881304.18548  23049500.5464   23049506.3914
 03 10 29  2 14  0.0000000  0  9G 7G 5G10G17G24G 4G28G20G 9
  21563742.1944  -15743047.43049 -12238236.15648  21563741.5694   21563747.5364
  23746614.8494   -7590581.20148  -5875329.74047  23746615.5934   23746621.9464
  24991167.8474   -1453374.65848  -1092609.19647  24991168.0214   24991174.8184
  25285907.2854   -1288885.04847   -972519.85646  25285906.2734   25285914.7664
  21148481.6204  -23036010.62849 -17945222.03449  21148481.2104   21148486.8964
  20314958.2504  -26152402.10749 -20306034.88849  20314958.5504   20314962.7754
  22671750.1274  -14891970.13349 -11584806.03648  22671749.5334   22671753.3704
  25213567.0624      76603.65148    -22651.10547  25213567.5694   25213572.5194
  23056641.0784  -11578664.49149  -8852070.05448  23056640.7034   23056644.8204
 03 10 29  2 14 30.0000000  0  9G 7G 5G10G17G24G 4G28G20G 9
  21568895.7924  -15715965.32249 -12217133.22048  21568895.0264   21568900.9364
  23728271.9534   -7686985.07848  -5950449.56447  23728270.6774   23728276.8374
  24969845.2124   -1565423.86047  -1179920.02047  24969843.7494   24969852.5954
  25269006.7824   -1377697.16148  -1041723.89047  25269006.7104   25269015.2564
  21140351.0234  -23078736.87749 -17978515.17849  21140350.7804   21140356.2244
  20321210.3274  -26119547.96649 -20280434.24949  20321210.3954   20321214.6064
  22689355.5824  -14799453.87449 -11512715.47548  22689354.9084   22689361.3874
  25229110.2714     158286.28748     40997.77447  25229109.1004   25229114.9984
  23063863.0534  -11540707.89249  -8822493.46948  23063864.1144   23063869.0374
 03 10 29  2 15  0.0000000  0  9G 7G 5G10G17G24G 4G28G20G 9
  21574074.5214  -15688749.63949 -12195926.20348  21574074.1854   21574079.5614
  23709957.5854   -7783222.72548  -6025439.84747  23709957.5424   23709963.8774
  24948503.2564   -1677578.14048  -1267312.74847  24948503.0604   24948511.8244
  25252129.8484   -1466383.01848  -1110829.60046  25252130.9924   25252139.2914
  21132298.4494  -23121052.28849 -18011488.19649  21132298.5514   21132303.7274
  20327538.6454  -26086291.82149 -20254520.36249  20327538.9174   20327543.1234
  22707018.0324  -14706638.10349 -11440391.53048  22707017.4764   22707022.3944
  25244717.6304     240302.69748    104906.81646  25244718.5364   25244720.9294
  23071169.2544  -11502318.40949  -8792579.54548  23071167.3874   23071172.1914
 03 10 29  2 15 30.0000000  0  8G 7G 5G10G17G24G 4G28G 9
  21579279.7964  -15661396.82049 -12174612.32648  21579279.4454   21579285.7534
  23691676.6534   -7879289.41248  -6100296.90547  23691677.0264   23691682.5704
  24927142.5024   -1789832.00848  -1354783.09247  24927141.6314   24927150.6984
  25235278.1974   -1554938.32448  -1179833.54847  25235278.2214   25235285.0164
  21124324.8724  -23162954.06649 -18044138.90449  21124324.5594   21124330.0334
  20333943.9804  -26052633.01249 -20228292.70949  20333944.0264   20333948.1524
  22724737.3194  -14613521.70449 -11367833.33348  22724737.3204   22724741.6044
  23078556.6034  -11463495.57549  -8762327.95848  23078556.3294   23078561.9074
 03 10 29  2 16  0.0000000  0  8G 7G 5G10G17G24G 4G28G 9
  21584511.7684  -15633903.34349 -12153188.84448  21584511.2864   21584517.3964
  23673429.8264   -7975179.40848  -6175016.28247  23673429.6304   23673434.8294
  24905762.1934   -1902180.20648  -1442326.96047  24905761.6534   24905770.0064
  25218452.9704   -1643359.19347  -1248732.76446  25218451.7374   25218459.4564
  21116430.4964  -23204439.17549 -18076464.93049  21116430.3574   21116435.5424
  20340425.3754  -26018570.93749 -20201750.82749  20340425.6224   20340429.8504
  22742513.7184  -14520103.78949 -11295040.19448  22742514.1054   22742518.2664
  23086026.5654  -11424238.86449  -8731738.29548  23086027.1764   23086032.3264
 03 10 29  2 16 30.0000000  0  8G 7G 5G10G17G24G 4G28G 9
  21589769.4994  -15606276.26149 -12131661.25948  21589768.5954   21589773.8624
  23655215.1354   -8070898.08048  -6249602.18047  23655214.2144   23655220.5134
  24884363.9894   -2014627.70347  -1529948.19347  24884361.3734   24884370.8704
  25201650.8704   -1731652.02448  -1317532.16347  25201649.6844   25201659.1814
  21108613.8554  -23245515.59549 -18108472.50149  21108613.8284   21108619.0504
  20346982.2754  -25984115.09849 -20174902.11149  20346982.6304   20346986.7144
  22760346.8634  -14426393.76149 -11222019.43548  22760345.6384   22760351.6914
  23093577.3604  -11384558.37449  -8700818.39248  23093576.7914   23093582.6424
 03 10 29  2 17  0.0000000  0  8G 7G 5G10G17G24G 4G28G 9
  21595053.4264  -15578507.01549 -12110022.89448  21595053.1604   21595058.2944
  23637035.5944   -8166435.05448  -6324046.47147  23637034.5184   23637039.8694
  24862948.3674   -2127163.71247  -1617638.39547  24862949.1484   24862958.3704
  25184875.7044   -1819807.86448  -1386224.90647  25184874.4434   25184882.9714
  21100876.3764  -23286175.57749 -18140155.57649  21100875.9764   21100881.9444
  20353614.9884  -25949259.66649 -20147742.02649  20353615.0774   20353619.5344
  22778235.7784  -14332385.64449 -11148766.39347  22778235.3204   22778241.2854
  23101210.9594  -11344448.15349  -8669563.65548  23101211.0994   23101216.2394
 03 10 29  2 17 30.0000000  0  8G 7G 5G10G17G24G 4G28G 9
  21600363.4074  -15550602.01649 -12088278.74048  21600363.2314   21600368.7414
  23618888.9214   -8261794.82548  -6398352.66847  23618888.8614   23618893.9814
  24841515.9854   -2239793.09547  -1705401.35947  24841513.8624   24841524.4994
  25168125.3744   -1907832.45948  -1454815.32947  25168125.4534   25168133.3134
  21093216.8604  -23326426.37749 -18171519.80949  21093216.7944   21093222.2124
  20360322.2184  -25914013.68849 -20120277.62449  20360322.4084   20360326.6834
  22796179.2794  -14238088.28649 -11075287.98747  22796180.0974   22796185.6324
  23108922.9994  -11303917.80349  -8637981.52348  23108923.0104   23108928.2954
 03 10 29  2 18  0.0000000  0  8G 7G 5G10G17G24G 4G28G 9
  21605700.9604  -15522553.16349 -12066422.50248  21605700.3824   21605706.5294
  23600778.0824   -8356968.08748  -6472513.51947  23600776.8114   23600782.4444
  24820068.1494   -2352505.62647  -1793229.13347  24820068.1924   24820073.6984
  25151400.1704   -1995717.45847  -1523297.03647  25151399.3684   25151409.3684
  21085636.8654  -23366260.66149 -18202559.48749  21085636.6954   21085642.0364
  20367104.1234  -25878372.25049 -20092505.06649  20367104.5924   20367108.9924
  22814179.9944  -14143496.39649 -11001580.06047  22814179.4214   22814184.4214
  23116716.0234  -11262962.48849  -8606068.27348  23116715.8664   23116721.7204
 03 10 29  2 18 30.0000000  0  8G 7G 5G10G17G24G 4G28G 9
  21611065.2134  -15494364.35749 -12044457.20848  21611064.8294   21611070.0574
  23582701.5564   -8451956.71448  -6546530.52847  23582700.8224   23582707.9994
  24798602.5154   -2465303.47647  -1881123.42347  24798602.6914   24798610.8584
  25134703.7644   -2083466.46148  -1591672.70147  25134702.5714   25134710.9844
  21078135.1254  -23405683.19849 -18233278.31949  21078134.7154   21078140.2374
  20373960.8894  -25842341.48149 -20064429.13449  20373960.9074   20373965.0704
  22832235.4154  -14048616.26949 -10927647.55147  22832234.7234   22832241.4494
  23124590.1534  -11221589.29549  -8573829.39448  23124590.5094   23124594.7034
 03 10 29  2 19  0.0000000  0  8G 7G 5G10G17G24G 4G28G 9
  21616456.1464  -15466034.76749 -12022382.21548  21616456.1464   21616461.2724
  23564660.9194   -8546757.56748  -6620401.17947  23564659.8034   23564666.4204
  24777121.0524   -2578183.68848  -1969081.84047  24777120.0684   24777130.7944
  25118028.5804   -2171077.96947  -1659941.34047  25118028.6194   25118038.2094
  21070711.4604  -23444694.31349 -18263676.56349  21070710.9024   21070716.4524
  20380890.8164  -25805923.62849 -20036051.57849  20380891.2294   20380895.6104
  22850345.0124  -13953449.74549 -10853491.86247  22850344.1384   22850349.9044
  23132541.3514  -11179800.24449  -8541266.47148  23132541.3854   23132545.8994
 03 10 29  2 19 30.0000000  0  8G 7G 5G10G17G24G 4G28G 9
  21621874.9474  -15437560.35849 -12000194.37248  21621874.4834   21621879.5464
  23546658.2374   -8641365.47548  -6694121.51147  23546656.9744   23546663.5544
  24755624.9964   -2691140.18447  -2057099.69447  24755626.0014   24755634.7424
  25101385.5754   -2258547.55048  -1728099.30547  25101384.5744   25101392.4174
  21063366.6174  -23483290.33549 -18293751.36149  21063366.7974   21063371.9824
  20387894.7944  -25769117.54949 -20007371.50649  20387895.1094   20387899.4054
  22868509.3614  -13857995.31449 -10779111.82547  22868509.5954   22868515.0914
  23140572.9194  -11137594.38049  -8508378.76548  23140573.3264   23140578.7774
 03 10 29  2 20  0.0000000  0  8G 7G 5G10G17G24G 4G28G 9
  21627319.4814  -15408947.29049 -11977898.49048  21627319.1254   21627324.6274
  23528690.5224   -8735784.42148  -6767694.58547  23528689.6784   23528696.7774
  24734115.3324   -2804177.32247  -2145180.40647  24734115.8484   24734123.9534
  25084767.1284   -2345881.03448  -1796151.31747  25084767.1124   25084774.3394
  21056099.9084  -23521478.45849 -18323508.31749  21056099.6954   21056104.8824
  20394971.0294  -25731932.01949 -19978395.76249  20394971.1384   20394975.4584
  22886726.7574  -13762261.72549 -10704514.27547  22886726.6204   22886732.4834
  23148682.4654  -11094981.08749  -8475173.58048  23148682.2524   23148688.6644
 03 10 29  2 20 30.0000000  0  8G 7G 5G10G17G24G 4G28G 9
  21632792.2564  -15380187.53049 -11955488.29848  21632792.0664   21632797.4744
  23510761.0314   -8830004.90348  -6841113.03647  23510759.6774   23510766.3264
  24712593.2504   -2917285.04848  -2233316.16247  24712592.4484   24712600.5634
  25068174.5344   -2433069.99148  -1864090.64847  25068172.7634   25068183.0604
  21048911.7444  -23559251.60849 -18352941.90749  21048911.9414   21048916.8664
  20402120.3954  -25694361.88149 -19949120.32949  20402120.5714   20402124.6264
  22904998.9624  -13666243.57249 -10629694.99448  22904998.2674   22905002.3634
  23156868.7884  -11051955.47949  -8441647.11448  23156868.9564   23156874.0044
 03 10 29  2 21  0.0000000  0  8G 7G 5G10G17G24G 4G28G 9
  21638292.5664  -15351282.79149 -11932965.12948  21638292.3504   21638298.1244
  23492869.6104   -8924026.91948  -6914376.81947  23492868.4104   23492875.3964
  24691056.0304   -3030463.12748  -2321506.74547  24691054.7824   24691062.8294
  25051611.5134   -2520115.65248  -1931918.35547  25051609.7694   25051618.0424
  21041802.1084  -23596612.61649 -18382054.34649  21041802.0684   21041807.3444
  20409342.0724  -25656411.53849 -19919548.62949  20409342.2524   20409346.0794
  22923323.6084  -13569945.33449 -10554657.46148  22923323.1554   22923328.7474
  23165134.6354  -11008522.30349  -8407803.06948  23165135.0034   23165139.9294
 03 10 29  2 21 30.0000000  0  8G 7G 5G10G17G24G 4G28G 9
  21643820.5334  -15322236.02449 -11910331.29948  21643819.5134   21643824.7994
  23475014.1004   -9017851.22648  -6987486.56847  23475014.2844   23475020.1244
  24669504.7974   -3143712.62248  -2409753.01847  24669505.5204   24669513.7744
  25035073.9394   -2607020.80248  -1999636.52547  25035072.8174   25035080.9044
  21034770.2584  -23633565.54049 -18410848.79849  21034769.9114   21034774.9654
  20416635.2424  -25618087.06849 -19889685.40749  20416635.3574   20416639.2034
  22941700.9644  -13473372.57549 -10479406.00448  22941701.0974   22941704.7754
  23173476.7344  -10964687.70949  -8373646.23548  23173476.2844   23173481.0774
 03 10 29  2 22  0.0000000  0  8G 7G 5G10G17G24G 4G28G 9
  21649376.0364  -15293042.77649 -11887583.32448  21649375.2964   21649380.6474
  23457199.1624   -9111471.82548  -7060437.58147  23457198.5184   23457205.5464
  24647941.2624   -3257027.08048  -2498049.88847  24647941.2814   24647949.7504
  25018563.3754   -2693780.50748  -2067241.38347  25018562.2694   25018570.6344
  21027816.8524  -23670106.61749 -18439322.33149  21027816.7134   21027821.6904
  20423999.3414  -25579386.61649 -19859529.19849  20423999.5754   20424003.8084
  22960131.4494  -13376523.39149 -10403939.15948  22960131.8444   22960135.8994
  23181894.7884  -10920450.64649  -8339175.77048  23181894.3774   23181899.9814
 03 10 29  2 22 30.0000000  0  8G 7G 5G10G17G24G 4G28G 9
  21654958.7084  -15263704.54849 -11864722.37448  21654958.4684   21654962.9394
  23439421.9364   -9204888.10948  -7133229.39447  23439420.9844   23439428.3774
  24626367.4484   -3370405.89748  -2586396.93447  24626367.0714   24626373.3354
  25002080.7054   -2780395.74948  -2134733.68647  25002079.7194   25002087.9164
  21020941.1924  -23706238.29649 -18467476.85549  21020940.8534   21020946.0734
  20431434.5424  -25540314.56549 -19829083.43849  20431434.8024   20431439.1214
  22978611.7344  -13279401.81749 -10328260.06148  22978611.9814   22978619.1974
  23190387.8134  -10875815.55649  -8304395.17948  23190387.0744   23190392.6394
 03 10 29  2 23  0.0000000  0  8G 7G 5G10G17G24G 4G28G 9
  21660567.6624  -15234228.32049 -11841753.89948  21660566.9744   21660572.5634
  23421684.9164   -9298105.70548  -7205866.39647  23421683.7894   23421688.7864
  24604777.5924   -3483854.19448  -2674798.13447  24604777.1414   24604785.5894
  24985625.9344   -2866873.18148  -2202118.60747  24985625.1394   24985631.6824
  21014141.7954  -23741968.47449 -18495318.52449  21014141.3054   21014146.5834
  20438938.7774  -25500880.52949 -19798355.61449  20438938.9164   20438943.0914
  22997144.1524  -13182017.89549 -10252376.52447  22997144.6104   22997147.2544
  23198955.9544  -10830792.61149  -8269312.35148  23198955.3754   23198959.8664
 03 10 29  2 23 30.0000000  0  8G 7G 5G10G17G24G 4G28G 9
  21666207.3604  -15204593.06249 -11818661.50548  21666206.5264   21666212.1224
  23403987.5224   -9391101.77048  -7278330.77147  23403986.7674   23403992.2404
  24583181.1114   -3597348.52748  -2763235.17747  24583181.9854   24583187.0114
  24969199.4034   -2953191.42948  -2269379.45347  24969198.8954   24969205.2764
  21007422.8064  -23777277.11949 -18522831.72349  21007422.6764   21007427.9404
  20446515.1484  -25461066.53649 -19767331.72549  20446515.2084   20446519.7354
  23015729.7024  -13084353.11949 -10176274.16547  23015729.6104   23015733.1714
  23207599.8634  -10785364.20749  -8233913.57648  23207599.3524   23207604.8484
 03 10 29  2 24  0.0000000  0  8G 7G 5G10G17G24G 4G28G 9
  21671875.4404  -15174808.48949 -11795452.75248  21671874.6384   21671879.8804
  23386330.8414   -9483883.78948  -7350628.35747  23386329.8174   23386337.4344
  24561573.3504   -3710897.01548  -2851714.44847  24561572.7334   24561580.1704
  24952801.3164   -3039360.03448  -2336523.71147  24952800.8874   24952809.1164
  21000781.8234  -23812175.11649 -18550024.94549  21000781.5574   21000786.9424
  20454161.2134  -25420885.10649 -19736021.51649  20454161.5234   20454165.5844
  23034364.7974  -12986419.75749 -10099962.48947  23034364.5794   23034369.6384
  23216320.4734  -10739543.21049  -8198208.90648  23216320.3634   23216324.8614
 03 10 29  2 24 30.0000000  0  8G 7G 5G10G17G24G 4G28G 9
  21677571.0424  -15144874.63849 -11772127.67948  21677570.5074   21677576.0964
  23368716.9914   -9576450.28748  -7422758.01347  23368716.0144   23368721.5024
  24539953.8304   -3824497.56347  -2940234.27247  24539954.2894   24539964.1944
  24936433.7474   -3125378.54548  -2403550.97747  24936433.8864   24936440.0874
  20994218.8684  -23846663.48249 -18576898.96149  20994218.8054   20994223.9514
  20461876.8654  -25380339.03549 -19704427.17249  20461877.0894   20461881.1514
  23053051.7834  -12888220.65549 -10023443.77847  23053052.5674   23053056.7794
  23225113.5954  -10693332.80149  -8162200.80148  23225113.0544   23225119.0004
 03 10 29  2 25  0.0000000  0  8G 7G 5G10G17G24G 4G28G 9
  21683295.4304  -15114793.18749 -11748687.60348  21683295.1714   21683300.5094
  23351142.0934   -9668801.41548  -7494719.83947  23351140.9244   23351147.8904
  24518327.4954   -3938149.91647  -3028794.39247  24518327.5814   24518335.8104
  24920092.5554   -3211248.49748  -2470462.49647  24920092.4314   24920097.2944
  20987733.4824  -23880744.96149 -18603455.92149  20987733.2264   20987738.2794
  20469661.1634  -25339433.11249 -19672552.42149  20469661.1834   20469665.5294
  23071788.7134  -12789760.28049  -9946721.45947  23071787.3604   23071792.1754
  23233980.0264  -10646738.28149  -8125893.38748  23233979.7494   23233985.4274
 03 10 29  2 25 30.0000000  0  8G 7G 5G10G17G24G 4G28G 9
  21689048.2714  -15084560.01749 -11725129.29948  21689048.0774   21689053.1144
  23333610.7464   -9760930.99248  -7566509.02247  23333610.1144   23333615.0144
  24496690.9924   -4051847.56347  -3117389.81647  24496692.2634   24496698.6434
  24903780.5854   -3296965.25048  -2537254.62547  24903781.4184   24903788.8634
  20981326.0304  -23914416.60549 -18629693.52849  20981325.8474   20981331.3724
  20477514.1424  -25298166.05649 -19640396.26949  20477514.1854   20477517.9104
  23090574.7624  -12691037.15049  -9869794.40047  23090575.1834   23090579.2464
  23242919.6354  -10599758.60249  -8089285.85448  23242919.8514   23242923.2304
 03 10 29  2 26  0.0000000  0  8G 7G 5G10G17G24G 4G28G 9
  21694831.3434  -15054172.22449 -11701450.50748  21694830.4094   21694836.4364
  23316122.9714   -9852834.01048  -7638121.66347  23316122.5494   23316126.8674
  24475048.2144   -4165585.74847  -3206016.81047  24475047.4884   24475055.1754
  24887498.8504   -3382525.71848  -2603925.01847  24887500.0104   24887506.0694
  20974996.7674  -23947676.50249 -18655610.30149  20974996.7204   20975001.6234
  20485435.4914  -25256537.50149 -19607958.43149  20485435.8154   20485439.8614
  23109410.9444  -12592051.20948  -9792662.53447  23109409.4234   23109414.8514
  23251933.3294  -10552394.16949  -8052378.49548  23251933.9064   23251937.7334
 03 10 29  2 26 30.0000000  0  8G 7G 5G10G17G24G 4G28G 9
  21700642.2854  -15023636.65949 -11677656.56848  21700641.0724   21700646.5924
  23298674.9394   -9944516.07648  -7709562.13747  23298675.1984   23298679.7594
  24453396.4724   -4279369.25347  -3294679.14047  24453394.8104   24453403.0604
  24871245.4934   -3467936.40748  -2670478.70047  24871244.6294   24871254.2054
  20968743.8674  -23980532.81749 -18681212.59749  20968743.9284   20968749.4354
  20493424.0334  -25214557.68949 -19575246.88849  20493424.5194   20493428.3034
  23128295.6794  -12492811.79348  -9715333.18747  23128295.7534   23128301.9394
  23261016.3454  -10504655.26349  -8015179.34948  23261016.6254   23261023.3004
 03 10 29  2 27  0.0000000  0  8G 7G 5G10G17G24G 4G28G 9
  21706482.1634  -14992948.24949 -11653743.52948  21706481.0404   21706486.9954
  23281272.5464  -10035970.02849  -7780824.85047  23281271.7424   23281277.8244
  24431735.3974   -4393190.92148  -3383371.21747  24431735.4394   24431743.3274
  24855021.3874   -3553192.15848  -2736911.60547  24855020.3904   24855029.0584
  20962569.6374  -24012981.40549 -18706497.17849  20962569.3564   20962574.4504
  20501479.7324  -25172224.12549 -19542259.69149  20501480.3794   20501484.3494
  23147230.1184  -12393316.82448  -9637804.68847  23147227.8044   23147233.7384
  23270172.9984  -10456539.99449  -7977686.92547  23270174.5774   23270177.7924
 03 10 29  2 27 30.0000000  0  8G 7G 5G10G17G24G 4G28G 9
  21712351.1514  -14962105.35149 -11629710.11448  21712350.7884   21712356.3404
  23263913.9684  -10127192.57249  -7851907.25247  23263913.4864   23263918.4604
  24410071.5694   -4507047.22248  -3472090.25647  24410069.8934   24410076.6924
  24838826.1454   -3638291.01848  -2803222.29947  24838826.5394   24838836.4124
  20956472.2914  -24045021.88449 -18731463.75849  20956471.9674   20956477.3384
  20509602.5594  -25129538.13649 -19508997.88449  20509602.9844   20509607.1364
  23166211.0084  -12293567.34048  -9560077.86447  23166209.7524   23166217.2574
  23279401.0424  -10408050.03549  -7939902.55048  23279399.9694   23279405.8674
 03 10 29  2 28  0.0000000  0  8G 7G 5G10G17G24G 4G28G 9
  21718249.5764  -14931108.26749 -11605556.55348  21718248.7194   21718254.5984
  23246598.4984  -10218182.14448  -7922808.11047  23246596.8094   23246603.2094
  24388397.6154   -4620936.17148  -3560834.76847  24388397.1214   24388405.3324
  24822664.3874   -3723232.61148  -2869410.46947  24822664.9214   24822670.8614
  20950452.6234  -24076655.71249 -18756113.46849  20950452.7424   20950457.8434
  20517791.9514  -25086502.62549 -19475463.72449  20517792.3594   20517796.6144
  23185240.5614  -12193566.43348  -9482155.12847  23185240.2294   23185245.1634
  23288698.3154  -10359189.01849  -7901829.01248  23288698.7154   23288703.6254
 03 10 29  2 28 30.0000000  0  8G 7G 5G10G17G24G 4G28G 9
  21724177.4474  -14899955.82949 -11581281.93748  21724177.0084   21724183.0194
  23229328.0174  -10308936.05549  -7993525.32948  23229327.3464   23229331.9264
  24366719.0524   -4734854.96648  -3649602.52547  24366718.2904   24366727.4344
  24806530.9244   -3808016.01948  -2935475.37847  24806529.5034   24806535.8994
  20944510.1264  -24107882.91149 -18780446.32249  20944509.9984   20944515.2564
  20526047.8514  -25043119.82449 -19441658.94849  20526047.8624   20526051.8984
  23204317.4524  -12093315.75548  -9404037.77147  23204318.0824   23204322.0064
  23298066.7064  -10309959.26149  -7863468.17348  23298067.8934   23298072.3494
 03 10 29  2 29  0.0000000  0  8G 7G 5G10G17G24G 4G28G 9
  21730135.8204  -14868647.07549 -11556885.52748  21730135.1444   21730141.0224
  23212104.0934  -10399451.24849  -8064056.53447  23212103.4424   23212108.8914
  24345037.0584   -4848800.45448  -3738391.07147  24345035.2694   24345042.9404
  24790425.2804   -3892639.77647  -3001415.89647  24790425.4414   24790433.9574
  20938645.1184  -24138704.04449 -18804462.76449  20938645.1934   20938650.4634
  20534368.7254  -24999391.57249 -19407584.98949  20534369.0094   20534373.1264
  23223441.7344  -11992817.02548  -9325727.12347  23223441.3744   23223444.8324
  23307505.2314  -10260363.28249  -7824821.97047  23307504.2144   23307511.0034
 03 10 29  2 29 30.0000000  0  8G 7G 5G10G17G24G 4G28G 9
  21736123.1924  -14837185.10649 -11532369.72148  21736122.0484   21736128.0714
  23194923.5294  -10489729.31148  -8134402.98947  23194923.4174   23194928.2314
  24323347.2914   -4962773.55848  -3827201.16747  24323347.1274   24323354.6854
  24774352.7554   -3977106.74947  -3067234.22047  24774350.3674   24774360.7014
  20932856.5884  -24169123.18849 -18828165.96649  20932856.6404   20932861.7154
  20542754.7104  -24955323.64749 -19373246.34549  20542754.8634   20542758.8704
  23242612.8994  -11892076.24548  -9247227.87047  23242612.8824   23242617.4844
  23317011.4854  -10210407.44949  -7785895.35648  23317010.6784   23317016.7154
 03 10 29  2 30  0.0000000  0  8G 7G 5G10G17G24G 4G28G 9
  21742140.5674  -14805561.58649 -11507728.02648  21742140.1614   21742144.8374
  23177792.2354  -10579759.70349  -8204556.43948  23177792.0804   23177796.7964
  24301654.7924   -5076763.91048  -3916024.67647  24301654.5874   24301664.4854
  24758310.1374   -4061408.50848  -3132923.77647  24758311.2914   24758316.6324
  20927145.7544  -24199133.12649 -18851550.30749  20927145.6764   20927151.0654
  20551206.2774  -24910910.85349 -19338638.97349  20551206.7004   20551210.6514
  23261828.9184  -11791087.92348  -9168535.73047  23261828.9514   23261834.6264
  23326586.4134  -10160086.93549  -7746684.57647  23326585.9174   23326590.5044
 03 10 29  2 30 30.0000000  0  8G 7G 5G10G17G24G 4G28G 9
  21748187.3234  -14773783.93849 -11482966.23948  21748187.6034   21748192.7184
  23160704.3944  -10669547.98748  -8274521.22747  23160704.0034   23160710.0824
  24279958.2294   -5190776.90948  -4004865.83447  24279959.2594   24279967.3404
  24742296.6864   -4145552.14847  -3198490.16747  24742296.7494   24742305.1024
  20921511.2074  -24228742.55149 -18874622.56349  20921511.3564   20921516.6044
  20559721.1824  -24866163.39049 -19303770.82749  20559721.5564   20559725.5704
  23281092.3234  -11689862.19748  -9089658.60747  23281093.9824   23281095.2844
  23336229.2874  -10109412.56049  -7707198.06048  23336228.7314   23336235.1554
 03 10 29  2 31  0.0000000  0  8G 7G 5G10G17G24G 4G28G 9
  21754265.2034  -14741847.04049 -11458080.36348  21754264.6874   21754269.6534
  23143666.5214  -10759087.57749  -8344292.25948  23143665.5474   23143672.8614
  24258261.8754   -5304805.27548  -4093718.97147  24258259.7594   24258268.4034
  24726317.5484   -4229532.22448  -3263929.06147  24726316.8444   24726326.2414
  20915953.6794  -24257947.18149 -18897379.39549  20915953.6424   20915959.2074
  20568300.4314  -24821079.07049 -19268640.18949  20568301.0284   20568304.7724
  23300401.1824  -11588396.73648  -9010594.67547  23300400.2984   23300406.1424
  23345939.0104  -10058382.23448  -7667434.18348  23345938.7604   23345945.9494
 03 10 29  2 31 30.0000000  0  8G 7G 5G10G17G24G 4G28G 9
  21760372.2354  -14709750.51249 -11433070.09548  21760372.3404   21760377.5364
  23126674.7754  -10848376.00549  -8413867.54748  23126675.2844   23126681.0544
  24236558.7564   -5418846.41948  -4182582.08447  24236558.5304   24236566.6764
  24710367.5944   -4313348.48948  -3329240.30347  24710368.2184   24710374.7424
  20910472.8444  -24286748.44649 -18919821.91749  20910472.7394   20910478.3834
  20576943.4964  -24775660.46549 -19233249.07349  20576943.6734   20576947.9814
  23319753.6174  -11486694.05048  -8931345.88547  23319754.6074   23319759.2524
  23355717.5044  -10006999.26649  -7627395.51548  23355718.3374   23355725.3874
 03 10 29  2 32  0.0000000  0  8G 7G 5G10G17G24G 4G28G 9
  21766510.9384  -14677494.01349 -11407935.18148  21766510.4694   21766515.7274
  23109732.5664  -10937411.28249  -8483245.60948  23109732.2324   23109738.3784
  24214855.8404   -5532898.08048  -4271453.39547  24214854.5784   24214863.3124
  24694450.3334   -4397000.09648  -3394423.24147  24694448.8194   24694455.4564
  20905068.9614  -24315147.33849 -18941950.90249  20905068.7184   20905074.1524
  20585649.5384  -24729910.03449 -19197599.39049  20585649.9544   20585653.7164
  23339152.2294  -11384756.59848  -8851914.14947  23339151.2914   23339156.7484
  23365562.7854   -9955266.85549  -7587084.55248  23365561.9534   23365567.6514
 03 10 29  2 32 30.0000000  0  8G 7G 5G10G17G24G 4G28G 9
  21772679.9864  -14645076.14049 -11382674.52448  21772679.5224   21772684.4174
  23092837.8734  -11026190.13549  -8552423.83148  23092837.5084   23092842.9494
  24193151.6694   -5646956.64748  -4360330.09847  24193149.8884   24193157.3764
  24678563.0024   -4480485.58348  -3459476.73447  24678562.6774   24678568.7104
  20899741.6964  -24343143.53149 -18963766.09549  20899741.4164   20899746.5544
  20594418.4934  -24683829.41449 -19161692.41549  20594418.7454   20594422.6724
  23358594.7944  -11282585.86148  -8772300.65347  23358594.0454   23358600.1554
  23375472.9924   -9903186.99649  -7546502.84948  23375471.6934   23375478.3424
 03 10 29  2 33  0.0000000  0  8G 7G 5G10G17G24G 4G28G 9
  21778879.7094  -14612497.14949 -11357288.31948  21778879.1974   21778884.8244
  23075992.1314  -11114711.69249  -8621401.59448  23075991.5714   23075998.2604
  24171447.1324   -5761020.30148  -4449210.78547  24171444.1594   24171451.5564
  24662707.3194   -4563804.81948  -3524400.63847  24662707.6374   24662714.3984
  20894490.0964  -24370738.66549 -18985268.77949  20894490.2984   20894495.7264
  20603249.1374  -24637421.77249 -19125530.61849  20603249.6674   20603253.6014
  23378081.5614  -11180184.90648  -8692507.76447  23378080.8074   23378085.6844
  23385448.9994   -9850763.57249  -7505653.44348  23385448.4904   23385454.0204
 03 10 29  2 33 30.0000000  0  8G 7G 5G10G17G24G 4G28G 9
  21785109.5114  -14579756.96749 -11331776.50948  21785109.7704   21785114.6884
  23059197.3984  -11202973.20849  -8690176.71348  23059196.6844   23059202.8314
  24149740.5344   -5875086.60948  -4538093.54647  24149738.7914   24149744.1834
  24646882.6194   -4646957.93948  -3589195.09947  24646882.7804   24646891.1074
  20889315.1374  -24397933.81349 -19006459.77849  20889315.2394   20889320.5704
  20612142.2124  -24590690.05549 -19089116.29449  20612142.3044   20612146.6674
  23397610.1604  -11077556.63748  -8612537.74247  23397610.1994   23397616.7714
  23395489.9174   -9797999.78249  -7464538.81548  23395490.1884   23395494.0844
 03 10 29  2 34  0.0000000  0  8G 7G 5G10G17G24G 4G28G 9
  21791370.1374  -14546853.97249 -11306137.82448  21791370.3054   21791375.7864
  23042451.8114  -11290971.36749  -8758746.63248  23042452.0234   23042457.5784
  24128032.7424   -5989152.08848  -4626975.66147  24128032.9684   24128041.3734
  24631091.5994   -4729943.05248  -3653858.65447  24631091.3504   24631098.8624
  20884216.1134  -24424729.07649 -19027339.18349  20884216.1134   20884221.0844
  20621096.1614  -24543635.48749 -19052450.39949  20621096.6594   20621100.6774
  23417182.8364  -10974702.05448  -8532391.38247  23417181.9944   23417188.2904
  23405594.2034   -9744897.73349  -7423160.60147  23405594.1484   23405599.4454
 03 10 29  2 34 30.0000000  0  8G 7G 5G10G17G24G 4G28G 9
  21797663.5754  -14513784.76949 -11280369.63048  21797662.6434   21797669.0214
  23025756.7744  -11378701.19249  -8827107.45948  23025756.4694   23025761.9524
  24106328.7874   -6103211.16848  -4715852.76647  24106329.0074   24106333.9944
  24615333.2344   -4812756.57648  -3718388.53647  24615332.2114   24615338.1724
  20879193.8334  -24451122.22749 -19047905.25249  20879193.7504   20879198.8954
  20630112.3394  -24496257.61249 -19015532.57449  20630112.1594   20630116.4314
  23436798.9724  -10871620.97048  -8452068.51847  23436798.9814   23436804.1544
  23415763.9554   -9691457.45049  -7381518.82948  23415764.2974   23415769.1214
 03 10 29  2 35  0.0000000  0  8G 7G 5G10G17G24G 4G28G 9
  21803987.3084  -14480553.47649 -11254475.13348  21803986.8724   21803991.8804
  23009113.8824  -11466164.89449  -8895260.92448  23009113.1674   23009118.9134
  24084623.6234   -6217265.88248  -4804726.48147  24084623.7604   24084632.4714
  24599605.5884   -4895402.34748  -3782787.66347  24599604.7084   24599612.4614
  20874246.8794  -24477118.92549 -19068162.39849  20874246.6954   20874252.2174
  20639187.9234  -24448563.54849 -18978368.36749  20639188.1544   20639192.5074
  23456455.8584  -10768320.28448  -8371574.54347  23456455.7774   23456460.5234
  23425994.6714   -9637686.41948  -7339619.33347  23425995.4804   23425999.6084
 03 10 29  2 35 30.0000000  0  8G 7G 5G10G17G24G 4G28G 9
  21810342.6374  -14447157.50549 -11228452.30948  21810341.8004   21810347.2954
  22992521.6224  -11553358.39549  -8963203.85148  22992520.7424   22992525.5744
  24062921.0574   -6331311.51648  -4893593.11947  24062921.0934   24062930.1704
  24583911.1714   -4977877.94148  -3847054.20347  24583909.7434   24583917.4314
  20869375.4204  -24502717.96349 -19088109.68249  20869375.2134   20869380.3864
  20648324.1544  -24400553.70749 -18940958.10349  20648324.3274   20648328.1154
  23476156.0884  -10664800.11348  -8290909.53847  23476153.4774   23476160.5514
  23436291.2784   -9583585.47048  -7297462.74747  23436291.4914   23436295.2134
 03 10 29  2 36  0.0000000  0  8G 7G 5G10G17G24G 4G28G 9
  21816728.7314  -14413595.30049 -11202299.96348  21816728.4864   21816733.9964
  22975981.7904  -11640278.01849  -9030933.36948  22975981.2404   22975987.2594
  24041221.9884   -6445344.26348  -4982449.72247  24041221.2624   24041229.4614
  24568247.5034   -5060181.29248  -3911186.52147  24568248.3404   24568254.9474
  20864579.5184  -24527918.82149 -19107746.69849  20864579.2874   20864584.9144
  20657519.7934  -24352229.14349 -18903302.59849  20657519.8834   20657524.3954
  23495895.8774  -10561061.70648  -8210074.46347  23495895.9354   23495901.3054
  23446649.1114   -9529156.56549  -7255050.62547  23446648.2994   23446654.1024
 03 10 29  2 36 30.0000000  0  8G 7G 5G10G17G24G 4G28G 9
  21823147.0624  -14379867.60849 -11176018.65848  21823146.9504   21823152.2674
  22959492.8394  -11726922.52849  -9098448.50848  22959492.5214   22959497.9914
  24019525.6494   -6559362.74248  -5071295.17347  24019525.2544   24019531.8184
  24552620.3254   -5142313.36048  -3975185.40047  24552618.9634   24552625.6154
  20859859.5674  -24552723.97749 -19127075.37149  20859859.6544   20859864.4844
  20666774.7224  -24303593.74749 -18865404.88449  20666774.7964   20666779.3034
  23515678.1534  -10457109.02048  -8129072.45347  23515677.4844   23515681.9744
  23457067.9314   -9474404.14549  -7212386.41747  23457066.5464   23457073.7114
 03 10 29  2 37  0.0000000  0  8G 7G 5G10G17G24G 4G28G 9
  21829597.4654  -14345971.12049 -11149605.82948  21829596.9174   21829602.6254
  22943058.9744  -11813286.97749  -9165745.42448  22943057.9154   22943063.0584
  23997831.7374   -6673361.66648  -5160125.44547  23997830.9844   23997837.9624
  24537024.5394   -5224270.48848  -4039047.97047  24537024.2574   24537029.3184
  20855214.8734  -24577131.45449 -19146094.16749  20855215.0484   20855220.3144
  20676089.2694  -24254647.22049 -18827264.73149  20676088.9834   20676093.2874
  23535500.8604  -10352941.68048  -8047903.14547  23535500.4894   23535505.5514
  23467548.6984   -9419328.43749  -7169470.28947  23467548.8744   23467551.8464
 03 10 29  2 37 30.0000000  0  8G 7G 5G10G17G24G 4G28G 9
  21836079.3784  -14311908.54749 -11123063.57948  21836079.0064   21836084.1164
  22926677.3774  -11899372.06949  -9232824.65648  22926676.7764   22926682.9054
  23976142.1334   -6787341.38348  -5248940.71747  23976141.6654   23976149.4964
  24521459.5134   -5306055.41448  -4102776.35647  24521460.6404   24521466.9194
  20850645.1464  -24601145.32249 -19164806.25549  20850645.1064   20850650.5014
  20685461.5984  -24205395.16549 -18788886.50949  20685461.3824   20685465.6934
  23555362.7794  -10248565.04548  -7966570.77547  23555361.8314   23555367.9734
  23478088.8974   -9363935.65849  -7126307.09347  23478089.0374   23478094.4264
 03 10 29  2 38  0.0000000  0  8G 7G 5G10G17G24G 4G28G 9
  21842593.4844  -14277677.87549 -11096390.33548  21842593.4494   21842598.3124
  22910349.4564  -11985174.55149  -9299683.67848  22910348.9564   22910355.0684
  23954457.6644   -6901297.53148  -5337737.63447  23954457.3054   23954463.1814
  24505931.6104   -5387665.93448  -4166368.88447  24505929.2154   24505937.1174
  20846150.4614  -24624765.09949 -19183211.25749  20846150.2964   20846155.6364
  20694891.3554  -24155838.53549 -18750270.95149  20694891.7284   20694895.8694
  23575263.4094  -10143980.17248  -7885076.12247  23575264.4104   23575270.6364
  23488691.0894   -9308227.45349  -7082898.09547  23488691.5164   23488694.5064
 03 10 29  2 38 30.0000000  0  8G 7G 5G10G17G24G 4G28G 9
  21849140.0724  -14243274.81549 -11069582.77148  21849139.5954   21849144.7554
  22894076.9394  -12070688.02249  -9366317.50148  22894076.3914   22894080.4884
  23932777.8444   -7015223.82548  -5426511.27947  23932776.6164   23932784.3664
  24490434.6984   -5469097.81248  -4229822.22047  24490434.6814   24490439.9474
  20841731.3524  -24647988.16249 -19201307.12849  20841730.7644   20841736.3934
  20704380.1574  -24105976.10049 -18711417.10449  20704380.3244   20704384.2094
  23595205.4344  -10039185.71948  -7803418.15347  23595206.0604   23595212.2024
  23499350.8344   -9252202.86249  -7039242.56047  23499351.3174   23499357.0404
 03 10 29  2 39  0.0000000  0  8G 7G 5G10G17G24G 4G28G 9
  21855718.9254  -14208703.09449 -11042643.77948  21855718.2484   21855723.9534
  22877858.9824  -12155914.73349  -9432727.87748  22877857.3684   22877863.9004
  23911102.8924   -7129121.86448  -5515262.90647  23911103.0654   23911110.1784
  24474973.0484   -5550354.72548  -4293139.16347  24474971.9914   24474978.5894
  20837386.6894  -24670819.24249 -19219097.55449  20837386.7764   20837391.7654
  20713925.6234  -24055814.20149 -18672329.90949  20713925.8584   20713929.7744
  23615186.6194   -9934188.10248  -7721601.88147  23615185.5034   23615191.6324
  23510071.4854   -9195869.29649  -6995346.30347  23510070.7134   23510075.5394
 03 10 29  2 39 30.0000000  0  8G 7G 5G10G17G24G 4G28G 9
  21862329.9484  -14173962.14349 -11015572.93048  21862329.4214   21862335.0024
  22861695.1574  -12240851.82749  -9498912.56848  22861696.1454   22861700.7704
  23889435.0134   -7242989.04448  -5603990.51647  23889433.7714   23889441.4974
  24459542.2814   -5631435.79648  -4356319.20047  24459542.1774   24459548.5074
  20833116.3204  -24693259.58549 -19236583.51349  20833116.1084   20833121.3574
  20723527.9944  -24005355.47749 -18633011.42549  20723528.1964   20723531.7724
  23635203.9634   -9828989.89648  -7639629.30747  23635204.7554   23635211.3434
  23520849.5274   -9139229.91949  -6951211.73447  23520848.7754   23520855.0154
 03 10 29  2 40  0.0000000  0  8G 7G 5G10G17G24G 4G28G 9
  21868973.9804  -14139048.24849 -10988367.30448  21868973.5674   21868978.7874
  22845589.3124  -12325494.02949  -9564867.47548  22845588.4004   22845593.6814
  23867774.9214   -7356819.12148  -5692689.20147  23867773.6454   23867781.4594
  24444147.0104   -5712337.33348  -4419359.30347  24444147.6384   24444153.8214
  20828920.9494  -24715307.14749 -19253763.41049  20828920.8694   20828925.8564
  20733186.4604  -23954598.94849 -18593460.87849  20733186.6684   20733190.5564
  23655261.9294   -9723590.19848  -7557499.74047  23655261.6494   23655266.6784
  23531685.9134   -9082284.43949  -6906838.63347  23531684.9694   23531691.6674
 03 10 29  2 40 30.0000000  0  8G 7G 5G10G17G24G 4G28G 9
  21875650.8274  -14103961.57849 -10961027.06148  21875650.0764   21875655.8604
  22829537.6634  -12409839.96049  -9630591.52348  22829538.8704   22829543.5754
  23846120.6114   -7470609.95748  -5781357.29147  23846119.5834   23846127.4774
  24428786.8694   -5793059.60848  -4482259.74147  24428787.1504   24428793.1684
  20824799.9474  -24736963.20949 -19270638.24149  20824800.1334   20824804.6474
  20742900.9614  -23903547.89149 -18553680.83049  20742901.5234   20742905.3244
  23675355.8844   -9617992.18148  -7475215.64147  23675356.2384   23675362.6854
  23542579.9194   -9025036.57249  -6862229.90647  23542580.4554   23542584.8134
 03 10 29  2 41  0.0000000  0  8G 7G 5G10G17G24G 4G28G 9
  21882360.8644  -14068702.28349 -10933552.30048  21882359.6264   21882364.9764
  22813544.6804  -12493887.34249  -9696082.95348  22813543.7374   22813548.1084
  23824474.6214   -7584359.95448  -5869993.55447  23824474.3174   23824481.1244
  24413459.6834   -5873602.56548  -4545020.42447  24413458.4604   24413463.8784
  20820753.2674  -24758229.53549 -19287209.38349  20820752.8004   20820757.6244
  20752671.3964  -23852205.44849 -18513673.73149  20752671.6294   20752675.7684
  23695488.4424   -9512198.77348  -7392779.28147  23695488.8924   23695494.1004
  23553529.9054   -8967490.34848  -6817388.69947  23553529.3954   23553535.1394
 03 10 29  2 41 30.0000000  0  8G 7G 5G10G17G24G 4G28G 9
  21889103.2994  -14033268.11849 -10905941.26948  21889102.6374   21889107.9124
  22797608.2954  -12577632.55849  -9761338.91448  22797608.2224   22797613.2614
  23802838.3184   -7698064.40648  -5958594.31647  23802836.9244   23802842.6674
  24398169.0224   -5953963.94948  -4607639.64347  24398167.2274   24398174.1134
  20816780.0834  -24779105.68649 -19303476.49349  20816780.3164   20816785.4604
  20762496.6334  -23800572.16149 -18473439.99649  20762496.8404   20762501.0754
  23715658.0454   -9406210.99648  -7310191.46547  23715656.5604   23715663.9244
  23564536.5674   -8909646.97948  -6772315.96547  23564537.1244   23564542.8234
 03 10 29  2 42  0.0000000  0  8G 7G 5G10G17G24G 4G28G 9
  21895879.1164  -13997661.61549 -10878195.94948  21895878.8804   21895884.0964
  22781729.4364  -12661076.09949  -9826359.80548  22781728.4194   22781734.3904
  23781208.6564   -7811723.85748  -6047160.01647  23781207.5684   23781214.0634
  24382909.4134   -6034146.19348  -4670119.27347  24382909.0964   24382914.4534
  20812881.1454  -24799595.62949 -19319442.65649  20812881.4094   20812886.2254
  20772376.4594  -23748653.37549 -18432983.79849  20772376.5744   20772380.6194
  23735862.3144   -9300034.14448  -7227456.31947  23735861.0194   23735868.7214
  23575600.6204   -8851512.51049  -6727016.37747  23575599.3934   23575603.9194
 03 10 29  2 42 30.0000000  0  8G 7G 5G10G17G24G 4G28G 9
  21902688.4654  -13961878.43549 -10850312.96748  21902688.1474   21902693.6384
  22765909.2954  -12744211.86549  -9891140.87048  22765909.0914   22765913.8694
  23759590.4254   -7925331.79648  -6135685.58647  23759588.5294   23759596.0694
  24367685.9174   -6114145.15648  -4732456.07147  24367686.7134   24367691.9194
  20809055.8884  -24819696.79149 -19335105.87749  20809055.9404   20809060.9524
  20782310.6624  -23696447.97549 -18392304.27149  20782310.9624   20782315.1434
  23756103.0674   -9193666.92548  -7144572.84547  23756102.7034   23756109.6144
  23586717.8484   -8793086.22849  -6681489.40447  23586716.5514   23586722.4724
 03 10 29  2 43  0.0000000  0  8G 7G 5G10G17G24G 4G28G 9
  21909531.2154  -13925919.68949 -10822293.17648  21909531.0204   21909536.0804
  22750147.5144  -12827039.57849  -9955681.89748  22750146.9534   22750152.0634
  23737980.1584   -8038886.99648  -6224170.05947  23737979.7104   23737986.9414
  24352497.6164   -6193961.83548  -4794650.82747  24352496.9244   24352504.9044
  20805304.8314  -24839411.62849 -19350468.05349  20805304.3044   20805309.4784
  20792299.0554  -23643960.01349 -18351404.56549  20792299.3484   20792303.2614
  23776379.5724   -9087113.23848  -7061544.05647  23776379.3454   23776385.7204
  23597890.7284   -8734372.94748  -6635738.80347  23597890.3864   23597895.8754
 03 10 29  2 43 30.0000000  0  8G 7G 5G10G17G24G 4G28G 9
  21916407.1654  -13889786.65949 -10794137.57648  21916406.2114   21916412.3484
  22734444.3914  -12909558.46049 -10019982.25448  22734444.9674   22734448.8454
  23716383.0754   -8152388.20648  -6312612.45947  23716381.8894   23716388.3224
  24337343.3204   -6273597.37848  -4856704.43547  24337342.7744   24337349.1324
  20801625.8714  -24858742.86249 -19365531.31949  20801625.6914   20801630.4744
  20802340.0424  -23591193.38449 -18310287.71149  20802340.3324   20802344.3854
  23796691.6934   -8980377.49348  -6978373.41147  23796690.7524   23796697.2204
  23609117.1864   -8675377.47548  -6589768.32547  23609116.9834   23609121.9564
 03 10 29  2 44  0.0000000  0  8G 7G 5G10G17G24G 4G28G 9
  21923317.0634  -13853472.56649 -10765840.90548  21923316.9554   21923322.3824
  22718801.8064  -12991760.21249 -10084035.52148  22718801.7274   22718807.5594
  23694794.3624   -8265826.59448  -6401005.90447  23694794.0784   23694800.4404
  24322226.1294   -6353045.04848  -4918611.66547  24322224.1914   24322230.6474
  20798021.1864  -24877685.28549 -19380291.62949  20798021.2304   20798026.3774
  20812434.8064  -23538144.49749 -18268950.92449  20812435.0384   20812438.9804
  23817038.5024   -8873455.93748  -6895057.98047  23817037.8674   23817042.6284
  23620398.5494   -8616096.72249  -6543575.52447  23620399.2434   23620403.6254
 03 10 29  2 44 30.0000000  0  8G 7G 5G10G17G24G 4G28G 9
  21930261.2794  -13816981.35349 -10737406.20248  21930260.9594   21930266.1904
  22703219.5464  -13073646.30749 -10147842.81748  22703220.0724   22703225.5534
  23673220.8674   -8379204.10148  -6489351.93347  23673219.7214   23673226.6114
  24307141.5954   -6432308.81248  -4980375.58847  24307140.1684   24307146.6544
  20794489.6054  -24896244.82449 -19394753.57849  20794489.3384   20794494.1974
  20822582.2554  -23484820.11849 -18227399.46449  20822582.6104   20822586.3454
  23837418.8544   -8766355.46148  -6811603.12247  23837418.3894   23837423.9524
  23631731.9454   -8556538.24648  -6497166.34447  23631731.7404   23631737.1894
 03 10 29  2 45  0.0000000  0  8G 7G 5G10G17G24G 4G28G 9
  21937239.7864  -13780310.54849 -10708831.55948  21937239.6094   21937243.6544
  22687698.1834  -13155213.28549 -10211401.43748  22687697.3454   22687703.4794
  23651657.8234   -8492515.75448  -6577646.63147  23651656.6804   23651663.3674
  24292092.8084   -6511386.27748  -5041994.30347  24292092.2254   24292099.9094
  20791030.5604  -24914420.62349 -19408916.51049  20791030.2994   20791035.4364
  20832782.1924  -23431220.66149 -18185633.65749  20832782.3554   20832786.0384
  23857832.4964   -8659076.42348  -6728009.12447  23857832.0854   23857839.1604
  23643117.9064   -8496703.36948  -6450541.77247  23643117.7224   23643123.0744
 03 10 29  2 45 30.0000000  0  8G 7G 5G10G17G24G 4G28G 9
  21944251.5674  -13743462.27649 -10680118.63348  21944251.6284   21944256.4744
  22672236.5104  -13236460.76149 -10274711.11248  22672236.3884   22672241.6274
  23630107.7694   -8605761.46148  -6665889.95647  23630108.4074   23630115.2064
  24277080.8334   -6590279.37648  -5103469.37647  24277080.0534   24277085.4214
  20787644.1034  -24932216.27349 -19422783.22349  20787644.1844   20787649.4004
  20843032.5654  -23377351.35049 -18143657.57749  20843033.5034   20843037.5124
  23878280.5484   -8551623.88348  -6644279.94047  23878279.7244   23878287.5794
  23654556.1184   -8436597.69448  -6403706.18947  23654557.0994   23654560.5404
 03 10 29  2 46  0.0000000  0  8G 7G 5G10G17G24G 4G28G 9
  21951298.1234  -13706433.62949 -10651265.15948  21951297.0694   21951303.2684
  22656837.5364  -13317384.24649 -10337768.33048  22656836.4764   22656842.3644
  23608571.0584   -8718936.04548  -6754077.87947  23608570.6304   23608577.7434
  24262103.5044   -6668985.35748  -5164798.64947  24262102.2834   24262109.8474
  20784330.1724  -24949630.38349 -19436352.63749  20784330.3304   20784335.3984
  20853335.6484  -23323212.01649 -18101471.09449  20853335.8404   20853339.7434
  23898761.9164   -8443997.92448  -6560415.60947  23898761.0914   23898767.4564
  23666044.2244   -8376221.98448  -6356660.17847  23666044.1344   23666050.7294
 03 10 29  2 46 30.0000000  0  8G 7G 5G10G17G24G 4G28G 9
  21958378.6784  -13669221.48249 -10622268.69948  21958378.7154   21958384.4484
  22641501.2574  -13397979.39749 -10400569.70548  22641500.3224   22641505.1234
  23587049.0684   -8832034.10348  -6842206.15847  23587048.8674   23587054.7684
  24247161.7534   -6747501.38148  -5225979.86147  24247160.9664   24247168.5314
  20781089.4594  -24966661.71449 -19449623.77449  20781089.4164   20781094.2084
  20863689.0654  -23268802.56449 -18059074.12649  20863689.1724   20863693.8054
  23919275.5954   -8336198.71548  -6476416.30347  23919274.1944   23919280.7934
  23677585.2804   -8315576.97948  -6309404.33847  23677584.6274   23677590.5224
 03 10 29  2 47  0.0000000  0  8G 7G 5G10G17G24G 4G28G 9
  21965495.1064  -13631829.89549 -10593132.41148  21965494.2264   21965498.7734
  22626226.8864  -13478247.93049 -10463116.54948  22626226.5434   22626230.1194
  23565542.2464   -8945057.32748  -6930276.12747  23565540.9664   23565547.7894
  24232256.3784   -6825831.19348  -5287015.99947  24232255.5054   24232261.6164
  20777920.2224  -24983315.55249 -19462600.76649  20777920.2434   20777925.0104
  20874093.1104  -23214129.72849 -18016471.92749  20874093.2044   20874097.3444
  23939819.4714   -8228233.14048  -6392287.35847  23939819.8454   23939826.3924
  23689175.7214   -8254669.96648  -6261944.32447  23689175.3504   23689180.8784
 03 10 29  2 47 30.0000000  0  8G 7G 5G10G17G24G 4G28G 9
  21972644.8034  -13594255.34849 -10563853.55548  21972644.3174   21972650.5104
  22611014.7524  -13558184.83849 -10525405.01048  22611014.6664   22611019.2534
  23544049.0424   -9058000.02548  -7018283.32747  23544048.5584   23544055.0234
  24217385.0054   -6903971.33148  -5347904.29947  24217385.6194   24217392.9054
  20774823.2824  -24999590.40349 -19475282.44449  20774823.1034   20774828.4394
  20884547.3284  -23159192.90749 -17973664.02549  20884547.3264   20884551.5724
  23960397.5344   -8120100.10748  -6308027.91947  23960396.0164   23960402.5994
  23700815.4794   -8193501.14348  -6214280.30447  23700814.9804   23700820.7194
 03 10 29  2 48  0.0000000  0  8G 7G 5G10G17G24G 4G28G 9
  21979830.0214  -13556496.91849 -10534431.42448  21979829.0844   21979835.4664
  22595866.8054  -13637787.19849 -10587432.77648  22595866.1824   22595869.6014
  23522572.9574   -9170859.10848  -7106225.39247  23522572.5844   23522579.0044
  24202553.2274   -6981921.14948  -5408644.31947  24202552.9134   24202559.6394
  20771798.4074  -25015486.98349 -19487669.36849  20771798.0974   20771803.0734
  20895051.2724  -23103994.30249 -17930652.13149  20895051.2314   20895055.0944
  23981005.1574   -8011802.49748  -6223640.25447  23981003.7044   23981009.9974
  23712504.5794   -8132073.58348  -6166414.69147  23712504.2904   23712511.1304
 03 10 29  2 48 30.0000000  0  8G 7G 5G10G17G24G 4G28G 9
  21987050.1804  -13518554.45949 -10504865.88848  21987049.7234   21987055.5884
  22580783.2104  -13717053.05249 -10649198.33448  22580783.2414   22580789.2494
  23501113.3054   -9283631.70348  -7194100.04347  23501112.8344   23501118.2504
  24187756.3114   -7059680.51448  -5469235.94447  24187755.6334   24187762.0794
  20768844.7654  -25031006.69949 -19499762.63349  20768844.5394   20768849.7154
  20905604.5754  -23048536.41449 -17887438.20549  20905604.7964   20905608.7974
  24001644.8184   -7903342.53347  -6139126.05747  24001643.8954   24001649.6504
  23724242.8804   -8070390.68548  -6118350.10247  23724242.7794   23724247.1714
 03 10 29  2 49  0.0000000  0  8G 7G 5G10G17G24G 4G28G 9
  21994305.0334  -13480428.45049 -10475157.33448  21994304.9594   21994311.2874
  22565763.8634  -13795981.35749 -10710700.87148  22565762.6804   22565767.0174
  23479668.9584   -9396316.58548  -7281906.38147  23479668.6824   23479676.4414
  24172994.2684   -7137249.89548  -5529679.54047  24172994.4174   24173001.0734
  20765962.8444  -25046152.03949 -19511564.18249  20765962.7954   20765967.4434
  20916206.2544  -22992822.89349 -17844025.08049  20916206.5634   20916210.8804
  24022313.2584   -7794724.21847  -6054488.49046  24022313.5834   24022320.4734
  23736028.9714   -8008456.68148  -6070089.87047  23736029.1104   23736032.4014
 03 10 29  2 49 30.0000000  0  8G 7G 5G10G17G24G 4G28G 9
  22001596.2184  -13442116.23249 -10445303.67248  22001595.7484   22001600.9044
  22550809.3084  -13874567.59249 -10771936.86248  22550808.3434   22550814.0304
  23458244.1564   -9508908.59048  -7369640.34447  23458242.8324   23458249.1624
  24158270.9814   -7214626.64148  -5589973.01547  24158270.1394   24158276.5994
  20763152.0514  -25060922.00349 -19523073.22949  20763152.0194   20763157.0174
  20926856.8044  -22936853.72049 -17800412.75049  20926857.0704   20926861.1574
  24043014.5394   -7685947.51648  -5969727.49147  24043011.4734   24043017.1534
  23747861.7434   -7946272.42448  -6021634.60747  23747861.6484   23747866.5054
 03 10 29  2 50  0.0000000  0  8G 7G 5G10G17G24G 4G28G 9
  22008921.3674  -13403621.12849 -10415307.50048  22008920.6944   22008925.9674
  22535919.0884  -13952813.29649 -10832907.49248  22535918.0284   22535923.5514
  23436835.0914   -9621408.88748  -7457302.83847  23436834.9794   23436840.9914
  24143583.1384   -7291814.40348  -5650119.23647  24143582.8594   24143588.1494
  20760411.6994  -25075321.63649 -19534293.69849  20760411.9954   20760417.0144
  20937554.9304  -22880635.41649 -17756606.28349  20937555.0404   20937559.2804
  24063742.0304   -7577019.09448  -5884848.27447  24063742.2214   24063747.9454
  23759741.7354   -7883844.87648  -5972989.77747  23759740.8754   23759745.7954
 03 10 29  2 50 30.0000000  0  8G 7G 5G10G17G24G 4G28G 9
  22016282.3234  -13364938.46449 -10385165.18548  22016282.2014   22016288.2554
  22521095.9014  -14030711.91849 -10893607.69648  22521094.6634   22521099.4944
  23415445.6564   -9733810.22648  -7544888.23547  23415446.1024   23415451.9414
  24128930.0364   -7368808.44348  -5710114.48247  24128929.3564   24128934.9564
  20757743.2154  -25089347.66949 -19545223.05949  20757742.9524   20757747.8644
  20948300.7374  -22824165.92549 -17712604.09449  20948300.7214   20948304.8854
  24084498.8904   -7467937.11848  -5799849.36847  24084499.1634   24084505.4194
  23771667.5944   -7821172.89148  -5924154.46547  23771666.5414   23771671.7794
 03 10 29  2 51  0.0000000  0  8G 7G 5G10G17G24G 4G28G 9
  22023679.2024  -13326066.50549 -10354875.36848  22023678.7524   22023684.3914
  22506337.9344  -14108260.07849 -10954034.79248  22506338.6474   22506342.7024
  23394076.9324   -9846108.44148  -7632393.26447  23394076.2844   23394081.8344
  24114316.9424   -7445607.05448  -5769957.45847  24114315.6154   24114321.6684
  20755144.8084  -25103000.24549 -19555861.41249  20755144.8064   20755149.6934
  20959093.7714  -22767446.22349 -17668406.93549  20959094.3684   20959098.3154
  24105286.6104   -7358702.62548  -5714731.64747  24105287.7494   24105293.7044
  23783640.1674   -7758258.54348  -5875130.32447  23783639.3954   23783643.5474
 03 10 29  2 51 30.0000000  0  8G 7G 5G10G17G24G 4G28G 9
  22031111.9394  -13287007.20849 -10324439.56548  22031111.2024   22031117.9504
  22491648.1214  -14185457.92549 -11014188.92248  22491647.7404   22491652.9514
  23372725.7444   -9958303.58248  -7719817.95947  23372726.1644   23372731.8844
  24099738.5774   -7522212.48348  -5829649.91947  24099736.5854   24099744.0074
  20752617.5104  -25116283.05249 -19566211.63349  20752617.3534   20752622.1044
  20969934.3534  -22710481.38949 -17624018.76649  20969934.3564   20969938.4624
  24126101.2844   -7249320.74148  -5629499.07347  24126101.7594   24126106.4234
  23795656.9234   -7695107.51648  -5825921.72547  23795656.1944   23795661.8604
 03 10 29  2 52  0.0000000  0  8G 7G 5G10G17G24G 4G28G 9
  22038580.8654  -13247758.51149 -10293856.17948  22038579.6634   22038586.3574
  22477025.9584  -14262301.71249 -11074067.16448  22477024.9634   22477030.4104
  23351397.0824  -10070391.22748  -7807158.90247  23351397.3894   23351403.1374
  24085197.3434   -7598622.48948  -5889190.07447  24085197.1094   24085203.5644
  20750160.2544  -25129195.68849 -19576273.40849  20750160.0564   20750164.8324
  20980820.6344  -22653272.24649 -17579440.22349  20980821.1674   20980824.9794
  24146942.3924   -7139792.28348  -5544152.27847  24146943.2354   24146948.5044
  23807718.2284   -7631721.46148  -5776529.99547  23807717.3194   23807723.9704
 03 10 29  2 52 30.0000000  0  8G 7G 5G10G17G24G 4G28G 9
  22046086.0544  -13208319.15949 -10263124.24148  22046085.5744   22046091.1684
  22462470.3424  -14338788.51649 -11133667.22148  22462469.9764   22462474.9014
  23330088.4784  -10182367.54848  -7894413.08847  23330087.9874   23330093.7314
  24070694.3604   -7674836.27748  -5948577.35447  24070693.8864   24070702.0004
  20747773.1254  -25141738.98249 -19586047.38949  20747772.9754   20747778.0254
  20991753.1284  -22595820.38749 -17534672.55249  20991753.7154   20991757.3504
  24167815.1464   -7030119.37248  -5458692.92347  24167814.2694   24167819.9214
  23819824.4604   -7568102.88348  -5726957.07647  23819823.7264   23819830.0354
 03 10 29  2 53  0.0000000  0  8G 7G 5G10G17G24G 4G28G 9
  22053626.4554  -13168692.71449 -10232246.52248  22053625.8434   22053631.7554
  22447982.7894  -14414919.61549 -11192990.12248  22447982.4474   22447988.1744
  23308801.1304  -10294233.58448  -7981581.35147  23308800.7304   23308807.0014
  24056227.7954   -7750857.25548  -6007814.39047  24056226.5894   24056234.1714
  20745455.5744  -25153918.04449 -19595537.55549  20745455.4574   20745460.4794
  21002731.1124  -22538131.92949 -17489720.52149  21002731.2844   21002735.2994
  24188710.4854   -6920308.16448  -5373125.82147  24188709.7054   24188717.1624
  23831973.4184   -7504258.53248  -5677208.22847  23831973.3934   23831980.0084
 03 10 29  2 53 30.0000000  0  8G 7G 5G10G17G24G 4G28G 9
  22061203.3424  -13128875.89749 -10201220.45048  22061202.4984   22061208.7954
  22433564.9964  -14490690.60949 -11252032.41948  22433563.8484   22433569.4404
  23287535.1954  -10405984.08348  -8068659.58647  23287534.7394   23287541.6944
  24041799.9034   -7826682.49648  -6066898.93547  24041800.1974   24041805.3334
  20743207.4424  -25165731.57249 -19604742.88649  20743207.3004   20743212.4384
  21013753.7024  -22480206.61949 -17444583.92849  21013754.3154   21013758.5474
  24209633.6124   -6810358.55748  -5287450.85747  24209633.5024   24209639.9754
  23844166.7144   -7440189.20548  -5627284.09147  23844165.8294   23844172.5264
 03 10 29  2 54  0.0000000  0  8G 7G 5G10G17G24G 4G28G 9
  22068817.3204  -13088866.84849 -10170044.59948  22068816.4464   22068822.2084
  22419214.7814  -14566097.45949 -11310790.96648  22419214.7364   22419219.1554
  23266292.6174  -10517614.68948  -8155644.39347  23266292.9394   23266298.8414
  24027408.9674   -7902310.05648  -6125829.40047  24027407.4734   24027414.6304
  20741029.0424  -25177179.22749 -19613663.12049  20741028.9204   20741033.9614
  21024821.4294  -22422045.31649 -17399263.44149  21024821.8314   21024825.6904
  24230582.0694   -6700271.55348  -5201668.87147  24230582.1794   24230588.7864
  23856400.2144   -7375896.58648  -5577185.92947  23856400.5554   23856405.5534
 03 10 29  2 54 30.0000000  0  8G 7G 5G10G17G24G 4G28G 9
  22076467.7014  -13048663.92649 -10138717.67148  22076466.6694   22076472.8324
  22404935.5754  -14641137.02149 -11369263.31148  22404935.4604   22404939.6594
  23245074.3144  -10629121.49248  -8242532.72847  23245073.3694   23245079.2144
  24013054.7064   -7977738.58048  -6184604.77947  24013055.7344   24013060.0034
  20738920.1174  -25188261.34049 -19622298.51849  20738920.1374   20738925.0284
  21035934.2704  -22363649.56849 -17353760.26949  21035934.3134   21035938.4344
  24251557.0054   -6590048.67648  -5115780.97547  24251556.3374   24251563.1164
  23868676.5034   -7311383.03848  -5526915.64147  23868676.3964   23868682.5964
 03 10 29  2 55  0.0000000  0  8G 7G 5G10G17G24G 4G28G 9
  22084154.0524  -13008272.08149 -10107243.54048  22084153.1634   22084158.5884
  22390726.4294  -14715812.41049 -11427451.88848  22390724.6664   22390729.5754
  23223877.2364  -10740507.07148  -8329326.60647  23223877.6034   23223883.9554
  23998738.2964   -8052972.92248  -6243228.87047  23998736.8454   23998741.7434
  20736879.7714  -25198984.36249 -19630654.10749  20736879.6724   20736884.5624
  21047089.4824  -22305026.78049 -17308080.19349  21047090.1904   21047094.0454
  24272556.0984   -6479697.68448  -5029793.28847  24272554.9304   24272562.1894
  23880994.2884   -7246656.78048  -5476479.60147  23880994.8074   23880998.6714
 03 10 29  2 55 30.0000000  0  8G 7G 5G10G17G24G 4G28G 9
  22091878.1074  -12967683.13449 -10075615.82948  22091877.2004   22091882.4544
  22376585.9894  -14790113.42649 -11485348.74648  22376585.5854   22376590.7274
  23202706.6664  -10851760.95448  -8416017.87147  23202707.0764   23202712.0714
  23984459.6914   -8128005.51948  -6301695.78947  23984458.0464   23984465.9854
  20734908.6524  -25209341.97249 -19638724.96149  20734908.6144   20734913.4974
  21058289.4764  -22246171.63249 -17262219.05349  21058289.4954   21058293.6734
  24293579.5574   -6369213.52847  -4943701.81347  24293579.0004   24293586.6154
  23893351.5614   -7181713.60948  -5425874.52147  23893351.2294   23893358.1504
 03 10 29  2 56  0.0000000  0  8G 7G 5G10G17G24G 4G28G 9
  22099638.4394  -12926900.70049 -10043837.33548  22099637.6054   22099643.4104
  22362517.5654  -14864042.51449 -11542955.78748  22362517.2374   22362522.0444
  23181561.1684  -10962884.32549  -8502607.45447  23181560.2314   23181567.6614
  23970219.5314   -8202839.77148  -6360008.07147  23970217.1424   23970223.8154
  20733006.3364  -25219340.04149 -19646515.65149  20733005.9514   20733011.1874
  21069532.1374  -22187090.78749 -17216182.04049  21069532.6364   21069536.4644
  24314628.8294   -6258602.96147  -4857511.87647  24314630.2354   24314636.4384
  23905750.8074   -7116560.66948  -5375106.02147  23905750.7344   23905756.1324
 03 10 29  2 56 30.0000000  0  8G 7G 5G10G17G24G 4G28G 9
  22107435.6994  -12885923.68549 -10011907.22048  22107435.3674   22107441.3404
  22348521.6914  -14937596.92649 -11600270.88248  22348520.8074   22348525.3534
  23160440.0764  -11073873.57949  -8589092.50947  23160439.8204   23160446.7684
  23956015.8364   -8277475.01048  -6418165.33047  23956015.0224   23956021.1434
  20731171.6274  -25228979.00449 -19654026.52149  20731171.7824   20731176.9234
  21080817.6284  -22127785.59949 -17169970.22249  21080817.9254   21080822.2034
  24335702.9084   -6147867.71947  -4771224.75347  24335700.6354   24335707.5364
  23918187.9644   -7051200.62448  -5324176.10747  23918187.2244   23918193.1244
 03 10 29  2 57  0.0000000  0  8G 7G 5G10G17G24G 4G28G 9
  22115271.3464  -12844750.50849  -9979824.27048  22115270.3314   22115275.7244
  22334595.9424  -15010773.37749 -11657291.44748  22334595.1344   22334600.1004
  23139346.3194  -11184724.87549  -8675470.08047  23139344.8434   23139352.4654
  23941852.6914   -8351909.60648  -6476166.25747  23941851.5634   23941858.1714
  20729406.0774  -25238258.97449 -19661257.65849  20729405.8184   20729410.6164
  21092145.3874  -22068257.71949 -17123584.87549  21092145.4294   21092149.7204
  24356796.4644   -6037009.10647  -4684841.53747  24356796.5344   24356803.7264
  23930664.9214   -6985635.60848  -5273086.48647  23930664.3764   23930669.7184
 03 10 29  2 57 30.0000000  0  8G 7G 5G10G17G24G 4G28G 9
  22123143.1174  -12803383.27249  -9947590.08948  22123143.0864   22123147.8694
  22320743.0824  -15083571.46149 -11714017.19248  22320743.0534   22320747.0964
  23118278.1844  -11295437.99949  -8761739.98647  23118278.5914   23118283.9004
  23927724.3544   -8426145.89348  -6534012.64147  23927724.5584   23927731.6064
  20727707.4094  -25247184.01049 -19668212.22049  20727707.4534   20727712.4654
  21103514.5354  -22008511.48949 -17077029.38649  21103514.6774   21103518.9114
  24377913.4764   -5926032.33747  -4598366.24746  24377911.5154   24377920.6814
  23943178.3004   -6919871.29148  -5221841.55947  23943179.2984   23943184.3634
 03 10 29  2 58  0.0000000  0  8G 7G 5G10G17G24G 4G28G 9
  22131053.3584  -12761816.68549  -9915200.57948  22131052.5104   22131058.1564
  22306963.9974  -15155984.55049 -11770442.95048  22306962.7694   22306967.6544
  23097237.8194  -11406005.22349  -8847896.19548  23097237.7774   23097243.4474
  23913636.7894   -8500178.50448  -6591700.33447  23913636.2474   23913642.7344
  20726077.3494  -25255750.53149 -19674887.42849  20726077.3494   20726082.2394
  21114926.0434  -21948544.67249 -17030302.00649  21114926.4144   21114930.1914
  24399056.7774   -5814934.89547  -4511796.90746  24399055.3674   24399062.2154
  23955732.3654   -6853905.99248  -5170440.04047  23955732.1994   23955736.8604
 03 10 29  2 58 30.0000000  0  8G 7G 5G10G17G24G 4G28G 9
  22139000.2484  -12720053.97749  -9882658.23348  22138999.5334   22139004.8424
  22293256.5794  -15228014.54049 -11826570.18648  22293256.2754   22293261.1744
  23076225.2894  -11516427.54449  -8933939.51147  23076225.2954   23076231.1114
  23899586.4974   -8574011.25448  -6649232.28347  23899586.3414   23899593.3024
  20724514.3734  -25263964.09049 -19681287.59649  20724514.3014   20724519.2544
  21126378.2514  -21888363.25949 -16983407.40449  21126378.2684   21126382.5974
  24420218.5684   -5703723.41747  -4425138.70547  24420218.3454   24420225.4194
  23968321.0684   -6787746.76948  -5118887.36147  23968320.8554   23968327.6704
 03 10 29  2 59  0.0000000  0  9G 7G 5G10G17G30G24G 4G28G 9
  22146985.2054  -12678093.26649  -9849961.61448  22146984.9084   22146989.9844
  22279623.4554  -15299657.58349 -11882395.90348  22279622.5174   22279626.8354
  23055240.3644  -11626700.53949  -9019866.44248  23055239.4134   23055246.0754
  23885575.8134   -8647642.36348  -6706607.11947  23885576.0724   23885581.5524
  24843222.7934   -2815825.02447  -2149724.64746  24843223.2574   24843228.3624
  20723018.7624  -25271824.30149 -19687412.42949  20723018.6834   20723023.6004
  21137871.1374  -21827968.18049 -16936346.31749  21137871.2464   21137875.4734
  24441403.2274   -5592398.85648  -4338392.38447  24441405.2144   24441410.2704
  23980947.6094   -6721395.08948  -5067184.75047  23980947.9074   23980953.2244
 03 10 29  2 59 30.0000000  0  9G 7G 5G10G17G30G24G 4G28G 9
  22155008.2524  -12635932.35949  -9817108.98748  22155007.7024   22155014.0174
  22266064.4054  -15370909.64549 -11937916.96848  22266063.7334   22266068.5884
  23034285.7524  -11736819.47549  -9105673.35248  23034284.3654   23034290.8974
  23871602.5934   -8721069.86948  -6763823.30147  23871602.2974   23871609.3904
  24823340.6424   -2920307.05948  -2231139.14646  24823341.1034   24823345.5514
  20721590.1734  -25279330.87349 -19693261.70049  20721590.1084   20721594.9664
  21149404.3574  -21767360.02349 -16889119.19049  21149404.1244   21149408.5444
  24462609.6194   -5480962.32748  -4251558.81546  24462608.5484   24462617.1004
  23993610.4684   -6654852.62848  -5015333.49447  23993610.6154   23993615.9044
 03 10 29  3  0  0.0000000  0  9G 7G 5G10G17G30G24G 4G28G 9
  22163068.5484  -12593572.71249  -9784101.49748  22163068.1744   22163073.6934
  22252579.5234  -15441770.88749 -11993133.49548  22252579.4134   22252584.0394
  23013360.2614  -11846783.61949  -9191359.63948  23013358.9914   23013365.5374
  23857668.9144   -8794295.37048  -6820882.07247  23857667.9644   23857674.9374
  24803481.9554   -3024662.41847  -2312454.97846  24803480.1914   24803484.9554
  20720228.2234  -25286487.05349 -19698837.93949  20720228.0714   20720233.3634
  21160977.6864  -21706542.67449 -16841729.06049  21160978.1004   21160981.7074
  24483835.7554   -5369417.94948  -4164641.19746  24483833.5444   24483841.3244
  24006308.9984   -6588124.56948  -4963337.61247  24006308.8824   24006313.0614
 03 10 29  3  0 30.0000000  0  9G 7G 5G10G17G30G24G 4G28G 9
  22171169.4774  -12551004.18349  -9750931.25148  22171169.3554   22171174.3424
  22239172.0984  -15512228.73549 -12048035.69048  22239172.0544   22239176.3564
  22992467.4724  -11956580.28649  -9276915.42348  22992465.1954   22992471.4964
  23843773.2374   -8867308.71548  -6877775.52147  23843773.4104   23843780.0924
  24783649.2324   -3128879.17347  -2393662.73046  24783650.6214   24783654.9054
  20718934.9564  -25293284.71449 -19704134.81449  20718934.8334   20718939.5734
  21172591.3104  -21645509.12549 -16794170.45349  21172591.8684   21172595.6764
  24505084.2304   -5257758.34548  -4077633.78246  24505084.7434   24505088.7374
  24019042.3484   -6521204.41448  -4911192.02547  24019042.6924   24019048.8704
 03 10 29  3  1  0.0000000  0  9G 7G 5G10G17G30G24G 4G28G 9
  22179306.1924  -12508244.76349  -9717612.25848  22179305.9894   22179311.8614
  22225837.5404  -15582299.74649 -12102636.44748  22225837.8764   22225842.3324
  22971602.6814  -12066225.09949  -9362352.88948  22971601.8534   22971607.1924
  23829917.4614   -8940128.20548  -6934517.91547  23829916.1004   23829923.2664
  24763840.7904   -3232973.11147  -2474774.76247  24763841.5114   24763848.4364
  20717705.5804  -25299743.47549 -19709167.60949  20717705.5554   20717710.4054
  21184243.3034  -21584279.74749 -16746459.25749  21184243.7714   21184247.5614
  24526351.0824   -5146004.27048  -3990552.77546  24526351.0314   24526355.3554
  24031810.6784   -6454113.59948  -4858913.47047  24031809.3154   24031816.0114
 03 10 29  3  1 30.0000000  0  9G 7G 5G10G17G30G24G 4G28G 9
  22187481.2424  -12465284.49449  -9684136.75348  22187481.0174   22187487.1034
  22212579.9004  -15651972.23949 -12156926.68748  22212579.1884   22212584.1134
  22950767.9484  -12175705.57249  -9447662.29448  22950768.4494   22950774.3094
  23816099.2524   -9012744.12448  -6991101.68647  23816099.0634   23816105.0014
  24744059.3734   -3336932.74748  -2555782.22246  24744058.7884   24744064.9514
  20716542.5934  -25305855.20549 -19713929.98449  20716542.6644   20716547.5624
  21195933.5254  -21522847.44449 -16698589.93749  21195933.7664   21195937.8524
  24547635.8604   -5034148.95348  -3903392.85246  24547635.2224   24547638.0854
  24044611.3704   -6386846.15348  -4806497.26847  24044611.5034   24044615.9754
 03 10 29  3  2  0.0000000  0  9G 7G 5G10G17G30G24G 4G28G 9
  22195694.6014  -12422120.38449  -9650502.40648  22195694.3654   22195700.2494
  22199398.2734  -15721242.00649 -12210903.10448  22199397.7384   22199402.2054
  22929966.6544  -12285016.38949  -9532839.49048  22929965.1534   22929971.2124
  23802319.4214   -9085153.91548  -7047524.82047  23802319.3954   23802325.3254
  24724302.2724   -3440752.94747  -2636680.95247  24724302.0604   24724305.7404
  20715446.0234  -25311619.04549 -19718421.28249  20715445.9224   20715450.8664
  21207662.4484  -21461211.81749 -16650562.17849  21207662.9894   21207666.8194
  24568939.6994   -4922192.86448  -3816154.36346  24568936.7454   24568944.8494
  24057444.7194   -6319402.61548  -4753943.87347  24057445.0744   24057449.8744
 03 10 29  3  2 30.0000000  0  9G 7G 5G10G17G30G24G 4G28G 9
  22203947.1414  -12378752.83849  -9616709.56148  22203946.9844   22203952.8414
  22186292.5334  -15790107.60449 -12264564.59348  22186293.0924   22186297.7604
  22909197.8774  -12394155.54648  -9617882.93148  22909197.8324   22909202.8084
  23788579.7924   -9157357.87148  -7103787.56247  23788578.8224   23788585.7704
  24704572.0544   -3544432.34147  -2717469.97946  24704571.9174   24704576.6924
  20714414.5454  -25317037.19249 -19722643.20949  20714414.6944   20714419.5194
  21219429.1324  -21399376.10549 -16602378.50849  21219429.2984   21219433.9624
  24590264.0584   -4810139.13348  -3728839.82746  24590262.9484   24590269.7394
  24070312.0874   -6251786.84448  -4701256.28547  24070311.1214   24070316.5754
 03 10 29  3  3  0.0000000  0  9G 7G 5G10G17G30G24G 4G28G 9
  22212238.2104  -12335183.35549  -9582759.35048  22212237.1074   22212244.0444
  22173265.1874  -15858568.72249 -12317910.90248  22173265.4624   22173269.2684
  22888463.6734  -12503122.15649  -9702791.92148  22888461.1914   22888468.7214
  23774878.6214   -9229358.01548  -7159891.50947  23774878.2934   23774882.9804
  24684869.2734   -3647970.48147  -2798148.99147  24684870.1524   24684874.7794
  20713449.2544  -25322112.99249 -19726598.37049  20713449.0994   20713453.8664
  21231233.6834  -21337344.49049 -16554042.19049  21231233.8934   21231237.9264
  24611604.8154   -4697992.22448  -3641452.73646  24611604.0224   24611609.0104
  24083210.1914   -6184004.21148  -4648438.64447  24083209.3834   24083215.6974
 03 10 29  3  3 30.0000000  0  9G 7G 5G10G17G30G24G 4G28G 9
  22220568.7734  -12291408.35849  -9548648.99648  22220568.5744   22220574.9354
  22160315.5764  -15926620.26949 -12370938.06248  22160315.8054   22160319.9714
  22867760.8004  -12611910.17049  -9787561.73448  22867759.1634   22867766.4114
  23761216.3694   -9301150.91348  -7215833.95347  23761216.0374   23761222.4274
  24665191.7524   -3751362.01447  -2878713.74246  24665194.3314   24665201.6174
  20712548.4874  -25326844.79249 -19730285.48049  20712548.3764   20712553.0914
  21243075.3404  -21275116.03049 -16505552.48649  21243075.3774   21243079.7294
  24632964.4764   -4585751.47548  -3553992.48347  24632964.8984   24632967.7764
  24096139.5594   -6116054.75148  -4595491.00647  24096140.6014   24096145.6174
 03 10 29  3  4  0.0000000  0  9G 7G 5G10G17G30G24G 4G28G 9
  22228937.1344  -12247429.47649  -9514379.76448  22228936.8624   22228943.0854
  22147444.3254  -15994261.86849 -12423645.78248  22147444.6294   22147448.2514
  22847093.9194  -12720518.69649  -9872191.70048  22847093.4014   22847098.3424
  23747594.1074   -9372738.32448  -7271616.29447  23747592.7344   23747598.7744
  24645548.4024   -3854606.39948  -2959163.78347  24645548.0514   24645554.7954
  20711712.8014  -25331236.25149 -19733707.39149  20711712.9504   20711717.6234
  21254953.4634  -21212695.06849 -16456912.77849  21254953.7004   21254957.8914
  24654339.9244   -4473421.49348  -3466462.71647  24654338.4724   24654345.3664
  24109101.4974   -6047943.86448  -4542417.58647  24109101.0674   24109107.2164
 03 10 29  3  4 30.0000000  0  9G 7G 5G10G17G30G24G 4G28G 9
  22237345.1374  -12203247.13249  -9479952.00248  22237346.0624   22237351.0754
  22134650.2224  -16061492.72049 -12476033.44248  22134650.5114   22134655.1854
  22826460.3554  -12828945.61849  -9956680.14848  22826461.3724   22826465.3284
  23734010.0004   -9444120.96348  -7327239.05247  23734009.8024   23734015.8334
  24625928.6384   -3957702.29947  -3039498.23047  24625929.7144   24625935.8804
  20710941.8744  -25335289.13649 -19736865.47649  20710941.5104   20710946.4564
  21266868.5894  -21150084.61849 -16408125.42249  21266868.4664   21266872.3804
  24675730.5324   -4361005.61647  -3378866.02946  24675731.4264   24675735.9484
  24122092.1634   -5979675.36548  -4489221.38147  24122091.8284   24122099.3544
 03 10 29  3  5  0.0000000  0  9G 7G 5G10G17G30G24G 4G28G 9
  22245792.5054  -12158858.25749  -9445363.29348  22245792.8264   22245797.6244
  22121935.6274  -16128307.70049 -12528097.04548  22121935.5504   22121939.9944
  22805863.1914  -12937185.59449 -10041022.91548  22805862.8444   22805867.6474
  23720466.1954   -9515296.06648  -7382700.10747  23720464.9844   23720471.1584
  24606340.3944   -4060644.63848  -3119712.83847  24606341.5724   24606345.3684
  20710234.9944  -25339002.82849 -19739759.25449  20710234.9354   20710239.6044
  21278818.1334  -21087284.25949 -16359190.08049  21278818.9284   21278822.7214
  24697140.4104   -4248503.85647  -3291202.42746  24697137.6654   24697146.9644
  24135113.6634   -5911249.93348  -4435902.86847  24135113.8444   24135119.5804
 03 10 29  3  5 30.0000000  0  9G 7G 5G10G17G30G24G 4G28G 9
  22254278.5024  -12114263.68249  -9410614.29248  22254278.9694   22254284.1754
  22109300.6494  -16194706.14149 -12579836.06548  22109300.4104   22109304.9654
  22785300.9564  -13045236.92849 -10125218.70248  22785300.2274   22785307.8244
  23706959.9544   -9586264.89748  -7438000.42647  23706960.4594   23706967.0434
  24586779.3164   -4163432.31147  -3199807.08747  24586778.8524   24586785.2384
  20709592.4104  -25342379.94549 -19742390.76849  20709592.2884   20709596.7124
  21290804.0954  -21024297.39949 -16310109.41649  21290804.7834   21290808.6694
  24718564.7754   -4135920.00647  -3203474.90446  24718566.6424   24718568.4034
  24148163.2814   -5842671.86348  -4382465.42247  24148163.5414   24148168.4084
 03 10 29  3  6  0.0000000  0  9G 7G 5G10G17G30G24G 4G28G 9
  22262804.1224  -12069460.19649  -9375702.50848  22262804.1264   22262809.5574
  22096744.9964  -16260683.28249 -12631246.80948  22096744.9164   22096749.8364
  22764777.1824  -13153093.92249 -10209263.05648  22764776.9914   22764782.4044
  23693495.5314   -9657024.11348  -7493137.40547  23693495.6514   23693502.5734
  24567251.1324   -4266060.05948  -3279776.65347  24567253.0804   24567257.8164
  20709014.1264  -25345418.73149 -19744758.64149  20709014.0584   20709018.6774
  21302825.9224  -20961123.37349 -16260882.91449  21302826.1684   21302830.5984
  24740002.7714   -4023253.46947  -3115682.94646  24740004.3254   24740009.2454
  24161242.8744   -5773941.58548  -4328909.37947  24161242.9744   24161248.3624
 03 10 29  3  6 30.0000000  0  8G 7G 5G10G17G30G24G 4G 9
  22271369.3474  -12024451.22249  -9340630.61348  22271368.2204   22271374.4884
  22084269.7634  -16326240.98049 -12682330.69748  22084270.0074   22084274.9314
  22744289.5754  -13260757.68849 -10293156.84848  22744289.3374   22744295.7894
  23680070.0204   -9727577.78448  -7548114.23647  23680070.1114   23680075.3654
  24547753.0284   -4368529.41948  -3359622.80847  24547753.4784   24547755.5654
  20708498.9534  -25348125.06249 -19746867.46049  20708498.9644   20708503.8464
  21314882.2334  -20897768.51549 -16211515.49649  21314882.1514   21314886.8624
  24174348.1684   -5705066.36048  -4275240.38247  24174348.3494   24174355.0764
 03 10 29  3  7  0.0000000  0  9G 7G 5G10G17G30G24G 4G28G 9
  22279974.2044  -11979233.47149  -9305396.01848  22279974.5094   22279978.8744
  22071875.7144  -16391374.13349 -12733083.78648  22071876.3254   22071880.2494
  22723838.9844  -13368222.43749 -10376895.54248  22723838.0454   22723844.8734
  23666683.4624   -9797922.76448  -7602928.43647  23666683.9084   23666688.8084
  24528283.4674   -4470835.06048  -3439341.42847  24528284.0374   24528287.5624
  20708047.3854  -25350497.48549 -19748716.09549  20708047.7244   20708052.2084
  21326972.2214  -20834231.81049 -16162006.37949  21326972.7884   21326977.2734
  24782927.6794   19833608.17957  15474079.07156  24782926.1524   24782931.9054
  24187482.8844   -5636046.38748  -4221458.58547  24187480.8584   24187489.0814
 03 10 29  3  7 30.0000000  0  9G 7G 5G10G17G30G24G 4G28G 9
  22288618.4574  -11933806.24849  -9269998.21548  22288617.8814   22288623.9054
  22059562.4894  -16456080.31849 -12783504.16348  22059562.1724   22059566.5284
  22703428.5704  -13475484.99849 -10460476.69848  22703427.7084   22703432.2894
  23653337.2754   -9868058.57948  -7657579.65747  23653337.0084   23653341.9824
  24508849.0174   -4572974.34048  -3518930.41147  24508847.9844   24508850.9754
  20707659.2094  -25352537.32649 -19750305.57149  20707659.1904   20707664.3214
  21339097.6954  -20770515.38549 -16112357.22449  21339097.7864   21339102.0494
  24804407.9204   19946501.20147  15562047.51546  24804410.5124   24804415.3964
  24200643.9834   -5566884.68848  -4167566.37947  24200644.5604   24200650.2624
 03 10 29  3  8  0.0000000  0  9G 7G 5G10G17G30G24G 4G28G 9
  22297302.9724  -11888171.91149  -9234439.02348  22297302.1044   22297307.8814
  22047331.0324  -16520360.47249 -12833592.57148  22047330.6684   22047334.5894
  22683054.6014  -13582545.30949 -10543900.24748  22683053.3194   22683060.8214
  23640029.9964   -9937987.79448  -7712069.88747  23640030.3374   23640036.2204
  24489440.1274   -4674947.65247  -3598389.98646  24489442.0444   24489447.3694
  20707333.7494  -25354248.48349 -19751638.93149  20707333.7514   20707338.5704
  21351255.8124  -20706624.15849 -16062571.86849  21351255.8184   21351260.4524
  24825905.4724   20059463.19147  15650069.72647  24825904.5854   24825912.5744
  24213831.9304   -5497587.01348  -4113568.19947  24213831.7314   24213835.9184
 03 10 29  3  8 30.0000000  0  9G 7G 5G10G17G30G24G 4G28G 9
  22306027.0004  -11842322.77649  -9198712.44948  22306028.0184   22306033.0504
  22035181.4824  -16584205.35149 -12883341.80148  22035181.2924   22035185.0834
  22662722.0354  -13689393.10749 -10627158.21648  22662721.5114   22662727.6104
  23626763.6884  -10007703.09748  -7766393.45347  23626764.1964   23626768.0694
  24470072.4914   -4776745.23848  -3677712.80347  24470072.1304   24470077.1624
  20707071.6734  -25355625.10849 -19752711.61249  20707071.5854   20707076.3944
  21363447.9114  -20642552.72349 -16012646.08849  21363448.5844   21363452.0794
  24847414.9634   20172498.82947  15738149.35847  24847413.3064   24847423.5554
  24227044.2664   -5428149.22148  -4059460.86847  24227044.1074   24227048.6274
 03 10 29  3  9  0.0000000  0  9G 7G 5G10G17G30G24G 4G28G 9
  22314791.3674  -11796267.62149  -9162825.34748  22314791.8124   22314796.5664
  22023113.2614  -16647621.80349 -12932757.18848  22023112.6464   22023117.6674
  22642429.2724  -13796034.74749 -10710255.53448  22642427.3464   22642434.2894
  23613535.3474  -10077213.64848  -7820557.43947  23613536.0054   23613541.2614
  24450730.5114   -4878373.99948  -3756903.87347  24450729.5554   24450735.1834
  20706871.3144  -25356678.32949 -19753532.29549  20706871.2004   20706876.0154
  21375672.6574  -20578312.74249 -15962588.96949  21375673.1684   21375677.0504
  24868937.1134   20285596.51048  15826277.30147  24868935.8654   24868946.0754
  24240281.6054   -5358583.75448  -4005254.03447  24240282.1264   24240289.2964
 03 10 29  3  9 30.0000000  0  9G 7G 5G10G17G30G24G 4G28G 9
  22323596.4964  -11749999.95449  -9126772.65548  22323595.9184   22323600.9214
  22011128.2134  -16710602.16949 -12981832.77148  22011128.1904   22011133.0394
  22622177.1634  -13902461.21149 -10793185.18248  22622176.3094   22622182.5714
  23600347.3194  -10146513.02648  -7874556.90847  23600348.3934   23600353.3574
  24431426.6784   -4979825.20948  -3835956.70947  24431425.1044   24431429.2784
  20706732.9344  -25357403.45749 -19754097.31549  20706732.9584   20706738.1654
  21387930.3344  -20513900.18649 -15912397.38349  21387930.6414   21387934.6264
  24890471.0634   20398759.70548  15914456.31247  24890470.2794   24890478.5974
  24253545.1964   -5288887.87748  -3950945.57747  24253544.3664   24253550.3714
 03 10 29  3 10  0.0000000  0  9G 7G 5G10G17G30G24G 4G28G 9
  22332439.8664  -11703521.52149  -9090555.72948  22332440.2714   22332446.0874
  21999226.8784  -16773146.23949 -13030568.38248  21999226.8094   21999231.4924
  22601966.0364  -14008671.63649 -10875946.49848  22601964.5794   22601971.0364
  23587200.8844  -10215603.48148  -7928393.57647  23587200.5034   23587206.8294
  24412153.3484   -5081098.78548  -3914871.14147  24412154.1924   24412159.9704
  20706657.2464  -25357804.24749 -19754409.61449  20706656.8524   20706661.8064
  21400218.9964  -20449319.32949 -15862074.65449  21400219.3584   21400223.7074
  24912017.6944   20511983.79748  16002682.73847  24912016.6414   24912024.5004
  24266832.1004   -5219066.76848  -3896539.51647  24266832.0284   24266835.6804
 03 10 29  3 10 30.0000000  0  9G 7G 5G10G17G30G24G 4G28G 9
  22341324.7094  -11656830.34949  -9054173.02648  22341325.0244   22341330.0334
  21987408.3594  -16835250.67449 -13078961.42048  21987408.1474   21987412.7004
  22581796.2034  -14114661.66949 -10958536.07448  22581796.0784   22581801.0624
  23574093.8054  -10284483.24148  -7982066.05047  23574093.4584   23574098.6554
  24392917.8314   -5182190.50348  -3993643.80147  24392918.2734   24392922.4904
  20706642.2474  -25357880.70249 -19754469.17649  20706642.5274   20706647.4594
  21412540.4894  -20384570.65849 -15811621.15549  21412540.9004   21412544.8394
  24933574.5844   20625267.76548  16090955.85446  24933574.0264   24933581.2494
  24280141.5174   -5149122.03548  -3842037.14747  24280140.1244   24280146.7304
 03 10 29  3 11  0.0000000  0  9G 7G 5G10G17G30G24G 4G28G 9
  22350251.0584  -11609925.59549  -9017623.89548  22350250.1524   22350255.9644
  21975674.8484  -16896913.15149 -13127010.07348  21975674.3984   21975679.3414
  22561670.5514  -14220427.83649 -11040951.20648  22561669.5924   22561673.4664
  23561026.8874  -10353151.47648  -8035573.71547  23561025.0624   23561031.3814
  24373715.6184   -5283097.47248  -4072272.53647  24373716.2804   24373718.1874
  20706689.1134  -25357633.45149 -19754276.50549  20706689.5654   20706694.6014
  21424893.2834  -20319655.68849 -15761038.07349  21424893.3704   21424897.8314
  24955143.6444   20738609.76148  16179274.22346  24955142.4084   24955151.0614
  24293474.4434   -5079056.25948  -3787440.46947  24293474.2524   24293478.8394
 03 10 29  3 11 30.0000000  0  9G 7G 5G10G17G30G24G 4G28G 9
  22359216.6344  -11562809.22449  -8980909.86448  22359217.2734   22359223.0594
  21964025.5524  -16958133.88449 -13174714.50948  21964024.9634   21964029.1014
  22541585.8044  -14325969.92949 -11123191.73848  22541584.9424   22541590.4704
  23547998.5764  -10421610.91948  -8088918.69647  23547999.5384   23548003.0864
  24354548.7324   -5383819.70648  -4150757.35547  24354548.2544   24354553.7454
  20706797.3194  -25357066.67449 -19753834.85549  20706797.1934   20706802.4314
  21437276.8304  -20254579.09849 -15710329.05448  21437277.2344   21437281.6824
  24976721.3074   20852004.96948  16267634.04346  24976721.9334   24976729.5074
  24306829.0044   -5008875.18348  -3732753.90447  24306827.3704   24306836.1074
 03 10 29  3 12  0.0000000  0  9G 7G 5G10G17G30G24G 4G28G 9
  22368223.9264  -11515477.13449  -8944027.74648  22368223.3024   22368229.1204
  21952460.2414  -17018906.88549 -13222070.06448  21952460.0854   21952464.2034
  22521545.4664  -14431281.23749 -11205252.43548  22521544.7464   22521550.8564
  23535011.0564  -10489857.41348  -8142097.72247  23535011.0934   23535015.5014
  24335415.7324   -5484350.99147  -4229093.31047  24335415.1844   24335421.2234
  20706966.5074  -25356178.25749 -19753142.57049  20706966.4834   20706971.3814
  21449691.9354  -20189339.26549 -15659492.83248  21449692.4904   21449695.9424
  24998312.1054   20965454.52948  16356036.25846  24998309.9414   24998318.2674
  24320206.8964   -4938578.25648  -3677977.13647  24320207.9244   24320212.0624
 03 10 29  3 12 30.0000000  0  8G 7G 5G10G17G30G24G 4G 9
  22377267.9474  -11467950.10249  -8906993.73548  22377267.1554   22377273.3894
  21940976.9534  -17079251.60449 -13269091.90248  21940976.7894   21940981.1604
  22501545.5874  -14536379.92149 -11287147.45548  22501545.3184   22501552.1134
  23522062.0984  -10557912.41449  -8195127.54947  23522061.5614   23522067.2584
  24316320.3884   -5584710.02248  -4307295.11147  24316320.2354   24316325.4974
  20707192.3264  -25354990.90549 -19752217.35349  20707192.4614   20707197.0094
  21462133.8434  -20123959.27849 -15608547.40448  21462132.9844   21462137.6724
  24333600.7724   -4868189.90648  -3623129.05447  24333600.5554   24333605.9764
 03 10 29  3 13  0.0000000  0  8G 7G 5G10G17G30G24G 4G 9
  22386356.8284  -11420187.94649  -8869776.50248  22386355.6934   22386362.2294
  21929583.7434  -17139126.38749 -13315747.54748  21929582.9434   21929587.7084
  22481594.5394  -14641223.08649 -11368843.36748  22481593.9714   22481600.4784
  23509155.3144  -10625735.56949  -8247976.70247  23509154.7574   23509160.6024
  24297260.9664   -5684854.51647  -4385329.67047  24297260.7264   24297267.8264
  20707482.5374  -25353466.15249 -19751029.22649  20707482.2094   20707487.3494
  21474608.3764  -20058401.49449 -15557463.42448  21474608.8064   21474613.2034
  24347019.8844   -4797673.26948  -3568181.06747  24347018.8554   24347026.2544
 03 10 29  3 13 30.0000000  0  8G 7G 5G10G17G30G24G 4G 9
  22395486.6994  -11372213.61349  -8832393.93548  22395485.4804   22395491.5984
  21918275.2134  -17198552.48249 -13362053.57348  21918274.6404   21918278.8454
  22461687.8634  -14745831.37949 -11450356.26048  22461687.5804   22461694.2824
  23496289.7164  -10693350.66549  -8300663.73247  23496288.4624   23496294.4604
  24278242.8844   -5784805.19748  -4463213.23047  24278243.1964   24278247.8164
  20707832.2704  -25351628.76249 -19749597.48849  20707832.1644   20707837.0414
  21487113.3264  -19992691.35249 -15506260.73848  21487112.6154   21487116.8374
  24360457.0634   -4727054.71748  -3513153.60847  24360457.5524   24360465.3024
 03 10 29  3 14  0.0000000  0  8G 7G 5G10G17G30G24G 4G 9
  22404657.3284  -11324021.75249  -8794841.86848  22404657.5144   22404662.7094
  21907052.8324  -17257523.20049 -13408004.75548  21907052.1994   21907056.7504
  22441828.5914  -14850196.83049 -11531679.93048  22441828.1434   22441834.1234
  23483462.7674  -10760752.21049  -8353184.36847  23483461.9084   23483465.9974
  24259260.5244   -5884554.76248  -4540940.12747  24259260.1064   24259269.2854
  20708241.7764  -25349475.72349 -19747919.78649  20708241.8434   20708246.7724
  21499646.3564  -19926825.79849 -15454936.94348  21499646.9914   21499651.1974
  24373916.7854   -4656332.52148  -3458045.42047  24373916.7294   24373922.1674
 03 10 29  3 14 30.0000000  0  8G 7G 5G10G17G30G24G 4G 9
  22413869.0034  -11275613.97149  -8757121.55948  22413868.2794   22413873.6724
  21895917.8614  -17316038.79449 -13453601.30148  21895917.1504   21895921.8384
  22422014.3974  -14954318.76049 -11612813.84448  22422013.6474   22422019.5744
  23470676.1794  -10827942.61749  -8405540.47947  23470675.9454   23470681.7934
  24240319.0314   -5984102.77848  -4618509.89047  24240318.7004   24240324.0234
  20708710.9414  -25347010.39049 -19745998.73949  20708710.8014   20708715.7434
  21512209.3064  -19860808.99849 -15403495.29448  21512209.4214   21512213.8554
  24387393.5684   -4585511.93448  -3402860.57247  24387392.8744   24387398.8954
 03 10 29  3 15  0.0000000  0  8G 7G 5G10G17G30G24G 4G 9
  22423121.2294  -11226989.72049  -8719232.56648  22423121.3784   22423126.7964
  21884869.9444  -17374097.00049 -13498841.44948  21884869.2524   21884874.3304
  22402247.8024  -15058194.06549 -11693755.58448  22402247.7754   22402253.4984
  23457931.3234  -10894921.42449  -8457731.71447  23457930.8494   23457936.1814
  24221410.4694   -6083446.61347  -4695920.62947  24221412.9264   24221417.1524
  20709239.1614  -25344234.04449 -19743835.34749  20709239.2824   20709244.0474
  21524800.4934  -19794642.59049 -15351937.06748  21524800.2034   21524804.2094
  24400887.8334   -4514595.72248  -3347601.19847  24400887.5494   24400893.7814
 03 10 29  3 15 30.0000000  0  8G 7G 5G10G17G30G24G 4G 9
  22432416.0974  -11178146.29349  -8681172.79248  22432415.8474   22432421.5434
  21873910.2504  -17431693.36849 -13543721.72348  21873909.1994   21873913.9164
  22382529.2214  -15161817.22949 -11774500.85748  22382528.7264   22382534.0594
  23445226.1264  -10961686.10949  -8509756.09347  23445224.9094   23445229.4174
  24202548.1244   -6182581.10248  -4773168.16447  24202548.4424   24202554.8214
  20709827.0524  -25341145.89149 -19741428.98749  20709826.8704   20709831.5264
  21537419.4724  -19728326.62949 -15300262.30948  21537419.7914   21537424.1154
  24414400.6084   -4443584.54148  -3292267.79347  24414400.2534   24414406.0484
 03 10 29  3 16  0.0000000  0  8G 7G 5G10G17G30G24G 4G 9
  22441752.8114  -11129085.41049  -8642943.55648  22441752.2144   22441757.0174
  21863036.9124  -17488828.50549 -13588242.59048  21863036.7884   21863040.9754
  22362858.3674  -15265187.74949 -11855049.26448  22362858.4644   22362863.5134
  23432561.8344  -11028238.76649  -8561615.25048  23432561.6074   23432565.1764
  24183722.4294   -6281506.28348  -4850252.62047  24183723.9404   24183727.6144
  20710472.9844  -25337749.67849 -19738782.58049  20710473.2374   20710477.8314
  21550066.7364  -19661864.98949 -15248474.03548  21550067.1704   21550071.6594
  24427931.8864   -4372483.67348  -3236864.54847  24427931.7744   24427936.7304
 03 10 29  3 16 30.0000000  0  8G 7G 5G10G17G30G24G 4G 9
  22451129.3474  -11079806.69649  -8604544.58848  22451128.5094   22451134.9474
  21852252.5904  -17545500.20549 -13632402.34748  21852252.1504   21852256.9314
  22343235.9094  -15368302.75849 -11935398.57348  22343235.4184   22343241.0044
  23419937.0704  -11094579.59149  -8613309.36448  23419936.9574   23419941.1274
  24164937.8744   -6380219.27448  -4927171.77447  24164939.1284   24164945.5704
  20711177.7954  -25334047.09949 -19735897.45349  20711177.6834   20711182.5284
  21562740.9904  -19595259.68049 -15196573.80348  21562741.6614   21562745.5854
  24441477.5054   -4301296.32448  -3181393.88947  24441478.5414   24441481.4234
 03 10 29  3 17  0.0000000  0  8G 7G 5G10G17G30G24G 4G 9
  22460549.0674  -11030308.59949  -8565974.67048  22460548.4404   22460553.2334
  21841557.4034  -17601705.49749 -13676198.67348  21841556.8604   21841560.9594
  22323663.1934  -15471157.90549 -12015545.39148  22323661.9504   22323668.0864
  23407354.2554  -11160707.22149  -8664837.33048  23407352.8164   23407358.2334
  24146194.9794   -6478716.63148  -5003922.84047  24146195.5934   24146200.1824
  20711940.6724  -25330038.52449 -19732773.88149  20711940.5454   20711945.0954
  21575443.2014  -19528511.64249 -15144562.35948  21575443.5934   21575447.6774
  24455040.2394   -4230024.58048  -3125857.51147  24455040.7564   24455045.9394
 03 10 29  3 17 30.0000000  0  8G 7G 5G10G17G30G24G 4G 9
  22470009.7564  -10980592.32549  -8527234.75248  22470008.8324   22470015.8314
  21830950.7664  -17657443.95149 -13719631.22948  21830950.3924   21830955.3584
  22304140.6434  -15573751.81349 -12095488.65548  22304139.0864   22304145.1124
  23394810.5854  -11226623.06649  -8716200.26348  23394810.3554   23394815.4424
  24127492.9944   -6576997.21748  -5080505.07447  24127493.8744   24127497.6204
  20712761.1264  -25325726.71449 -19729414.02949  20712761.1104   20712765.7554
  21588171.6224  -19461624.13649 -15092442.24248  21588171.3104   21588175.4934
  24468617.2164   -4158672.93848  -3070258.81447  24468616.9064   24468622.3074
 03 10 29  3 18  0.0000000  0  8G 7G 5G10G17G30G24G 4G 9
  22479512.4564  -10930654.57549  -8488322.24748  22479512.9814   22479519.1384
  21820433.7734  -17712710.88249 -13762696.36848  21820433.2564   21820437.1904
  22284668.3274  -15676078.96249 -12175224.04948  22284668.0794   22284672.8134
  23382307.2204  -11292324.35449  -8767396.02048  23382307.5824   23382312.2864
  24108832.4214   -6675055.65548  -5156914.13147  24108832.7944   24108838.4194
  20713639.4764  -25321110.53949 -19725817.00249  20713639.6244   20713644.0964
  21600926.0564  -19394596.27849 -15040212.75448  21600926.5774   21600930.8124
  24482211.7884   -4087241.58948  -3014598.06647  24482212.2004   24482216.9314
 03 10 29  3 18 30.0000000  0  8G 7G 5G10G17G30G24G 4G 9
  22489057.0824  -10880497.02949  -8449238.47748  22489055.2484   22489062.0164
  21810006.6674  -17767506.05649 -13805393.90048  21810006.6594   21810010.0924
  22265246.9444  -15778138.27949 -12254750.75648  22265246.4664   22265252.1204
  23369845.4854  -11357812.92448  -8818426.02348  23369845.4384   23369850.7854
  24090214.8094   -6772891.42148  -5233149.72947  24090216.3024   24090219.5684
  20714574.9464  -25316193.47149 -19721985.51649  20714574.9374   20714580.0504
  21613707.2704  -19327432.09649 -14987877.03948  21613707.8844   21613712.0744
  24495818.9204   -4015735.64348  -2958879.14847  24495818.7334   24495822.9304
 03 10 29  3 19  0.0000000  0  8G 7G 5G10G17G30G24G 4G 9
  22498643.3984  -10830118.68049  -8409982.65548  22498643.1074   22498649.5864
  21799669.9304  -17821827.80249 -13847722.52648  21799668.9374   21799673.3784
  22245877.1814  -15879926.22849 -12334065.98948  22245876.6364   22245882.5594
  23357423.3374  -11423088.60748  -8869290.14147  23357423.5924   23357427.6094
  24071640.1424   -6870501.41748  -5309209.39247  24071640.5244   24071645.5024
  20715567.8814  -25310976.65849 -19717920.46249  20715567.9074   20715572.8294
  21626513.8874  -19260132.91949 -14935436.13648  21626514.5654   21626518.3864
  24509437.1764   -3944157.53348  -2903103.97047  24509437.5064   24509443.7404
 03 10 29  3 19 30.0000000  0  8G 7G 5G10G17G30G24G 4G 9
  22508272.7134  -10779516.95249  -8370552.77848  22508272.5074   22508278.7524
  21789423.2164  -17875671.98249 -13889679.02548  21789422.6654   21789426.5324
  22226559.8034  -15981437.86449 -12413165.92848  22226559.9364   22226564.1824
  23345042.8254  -11488148.53349  -8919986.13048  23345042.9024   23345048.1394
  24053109.8714   -6967880.85348  -5385089.40947  24053110.0014   24053115.3564
  20716617.9054  -25305459.49249 -19713621.36949  20716617.7074   20716622.5584
  21639346.6824  -19192698.37849 -14882889.75648  21639346.8014   21639350.9324
  24523073.9854   -3872507.92548  -2847273.09347  24523073.5034   24523079.2324
 03 10 29  3 20  0.0000000  0  8G 7G 5G10G17G30G24G 4G 9
  22517943.3174  -10728697.09949  -8330952.93548  22517944.1944   22517950.1944
  21779267.0224  -17929042.21549 -13931266.21648  21779266.6304   21779270.9374
  22207294.8294  -16082675.60849 -12492052.43848  22207293.8154   22207300.3174
  23332702.3314  -11552998.59149  -8970518.61247  23332701.4884   23332708.0854
  24034622.9534   -7065032.58048  -5460791.95447  24034622.1584   24034627.4434
  20717723.4984  -25299648.78549 -19709093.54349  20717723.4644   20717728.2874
  21652203.6194  -19125136.01549 -14830243.77048  21652203.7924   21652207.6024
  24536719.5734   -3800795.36148  -2791393.18747  24536719.5524   24536724.9294
 03 10 29  3 20 30.0000000  0  9G 7G 5G10G17G30G24G 4G13G 9
  22527657.1914  -10677650.95849  -8291176.75848  22527656.2484   22527663.1874
  21769203.3424  -17981929.03949 -13972476.72448  21769202.7214   21769207.0794
  22188083.9174  -16183628.96949 -12570717.35648  22188083.2424   22188088.8754
  23320402.6224  -11617630.92248  -9020881.41348  23320402.1404   23320407.9554
  24016179.8894   -7161946.37948  -5536309.16447  24016179.5294   24016187.6114
  20718886.5814  -25293538.20749 -19704332.05149  20718886.1554   20718890.7154
  21665085.4584  -19057439.88049 -14777493.54948  21665085.3684   21665090.2304
  25191479.635    -1043894.63418
  24550378.0154   -3729015.42248  -2735460.76047  24550378.7734   24550385.4164
 03 10 29  3 21  0.0000000  0  9G 7G 5G10G17G30G24G 4G13G 9
  22537412.7724  -10626385.74749  -8251229.88448  22537413.1024   22537417.9784
  21759230.1724  -18034338.28849 -14013315.08848  21759229.5954   21759233.9584
  22168926.5824  -16284302.65449 -12649164.36048  22168925.7924   22168931.4234
  23308144.7564  -11682053.15049  -9071080.52648  23308144.2624   23308149.1094
  23997782.6554   -7258627.31348  -5611644.86647  23997783.9734   23997787.1794
  20720104.2694  -25287136.82349 -19699343.95549  20720104.5614   20720109.3094
  21677990.9944  -18989619.37049 -14724646.41348  21677991.4994   21677995.1984
  25184649.992    -1079786.55218
  24564050.6084   -3657178.58848  -2679484.02447  24564049.8364   24564054.6614
 03 10 29  3 21 30.0000000  0  9G 7G 5G10G17G30G24G 4G13G 9
  22547210.4514  -10574896.84349  -8211108.70748  22547210.1704   22547216.2444
  21749348.8374  -18086263.30649 -14053776.13448  21749348.6614   21749353.1064
  22149823.5724  -16384689.33649 -12727387.71748  22149822.4314   22149828.3314
  23295925.7574  -11746261.08449  -9121112.63848  23295925.1424   23295930.9904
  23979429.7504   -7355068.40648  -5686793.72547  23979429.8794   23979436.6714
  20721378.4174  -25280442.38649 -19694127.51049  20721378.2964   20721383.4474
  21690921.2054  -18921672.21849 -14671700.58848  21690921.3674   21690925.5284
  25177883.469    -1115339.55318
  24577730.0274   -3585283.51148  -2623461.85647  24577730.9494   24577737.0894
 03 10 29  3 22  0.0000000  0  9G 7G 5G10G17G30G24G 4G13G 9
  22557051.8574  -10523182.16049  -8170811.60348  22557051.8864   22557058.3044
  21739559.8224  -18137701.01849 -14093857.45548  21739560.0694   21739564.5134
  22130776.6304  -16484784.58249 -12805383.99148  22130775.7364   22130780.3694
  23283748.8234  -11810252.87549  -9170976.32348  23283748.4364   23283754.6244
  23961125.3754   -7451265.44348  -5761752.34847  23961125.2854   23961129.1704
  20722708.4594  -25273454.34449 -19688682.28249  20722708.2614   20722713.0794
  21703875.0244  -18853598.49249 -14618656.14348  21703875.5234   21703880.1744
  25171184.236    -1150549.65418
  24591420.3004   -3513331.64848  -2567395.46947  24591420.3274   24591427.5594
 03 10 29  3 22 30.0000000  0  9G 7G 5G10G17G30G24G 4G13G 9
  22566935.9714  -10471245.06949  -8130341.18448  22566935.9304   22566940.9324
  21729864.6724  -18188653.01349 -14133560.30348  21729864.1234   21729868.8364
  22111784.1814  -16584589.12949 -12883153.74448  22111783.5214   22111788.5604
  23271611.7674  -11874032.26949  -9220674.51448  23271610.7614   23271616.4934
  23942866.3694   -7547219.61648  -5836521.78847  23942866.1724   23942870.8844
  20724093.1394  -25266178.19149 -19683012.55349  20724092.7434   20724097.2814
  21716852.1794  -18785403.69349 -14565517.35948  21716852.2624   21716856.3474
  25164548.682    -1185418.270 8
  24605123.6934   -3441329.58148  -2511289.95947  24605122.7944   24605130.4374
 03 10 29  3 23  0.0000000  0  9G 7G 5G10G17G30G24G 4G13G 9
  22576862.1104  -10419083.09749  -8089695.53548  22576860.3424   22576867.0204
  21720261.7194  -18239116.21549 -14172882.26148  21720261.1164   21720265.8084
  22092847.9784  -16684097.76949 -12960692.92948  22092847.0234   22092853.1624
  23259515.0474  -11937597.14649  -9270205.54348  23259515.5504   23259521.1074
  23924651.0824   -7642926.23648  -5911098.27847  23924652.2814   23924657.5514
  20725532.5304  -25258613.49249 -19677117.97949  20725532.6164   20725537.2204
  21729852.3764  -18717087.59649 -14512284.05348  21729852.2914   21729856.7394
  25157979.022    -1219940.89418
  24618835.7574   -3369278.42248  -2455146.24147  24618836.6784   24618840.4724
 03 10 29  3 23 30.0000000  0  9G 7G 5G10G17G30G24G 4G13G 9
  22586829.6374  -10366698.73349  -8048876.59548  22586829.1364   22586835.5974
  21710752.0074  -18289091.34449 -14211823.90748  21710751.7484   21710756.0104
  22073968.8144  -16783310.54049 -13038001.55848  22073968.4584   22073973.5994
  23247460.6194  -12000950.53649  -9319571.77848  23247459.4244   23247465.6754
  23906486.5744   -7738385.35448  -5985481.95847  23906487.5714   23906493.0404
  20727026.3624  -25250764.28649 -19671001.71649  20727026.1184   20727030.7214
  21742874.8924  -18648654.77149 -14458959.78648  21742874.8324   21742879.5604
  25151474.3644   -1254118.20848   -899937.85347  25151474.4464   25151480.7864
  24632552.8084   -3297183.75248  -2398968.54047  24632553.6174   24632560.6874
 03 10 29  3 24  0.0000000  0  9G 7G 5G10G17G30G24G 4G13G 9
  22596842.3404  -10314085.82349  -8007879.57348  22596841.2374   22596848.1184
  21701336.2894  -18338570.75149 -14250379.28048  21701336.3174   21701340.1214
  22055146.7434  -16882218.82749 -13115072.93848  22055145.6974   22055151.9674
  23235445.5824  -12064086.39749  -9368768.52248  23235444.8964   23235450.4614
  23888370.0614   -7833588.73448  -6059666.30947  23888372.0884   23888378.1044
  20728574.6424  -25242626.32049 -19664660.44349  20728574.7384   20728579.3564
  21755919.7044  -18580101.30849 -14405541.51948  21755919.7964   21755924.2354
  25145038.5734   -1287941.70148   -926293.78047  25145038.5724   25145044.4374
  24646282.1754   -3225042.77248  -2342754.79047  24646282.9264   24646287.3294
 03 10 29  3 24 30.0000000  0  9G 7G 5G10G17G30G24G 4G13G 9
  22606896.7064  -10261249.63749  -7966708.56348  22606896.7834   22606901.5124
  21692014.4044  -18387558.38049 -14288551.44948  21692014.0054   21692018.4444
  22036382.9464  -16980825.26449 -13191909.10148  22036381.3204   22036388.2164
  23223471.6184  -12127010.59749  -9417800.32848  23223470.8504   23223475.5574
  23870301.8644   -7928539.23348  -6133653.65647  23870302.4804   23870308.2364
  20730176.8664  -25234206.67649 -19658099.68649  20730177.0694   20730181.3244
  21768986.3224  -18511434.43549 -14352034.87148  21768987.0384   21768991.2794
  25138668.0884   -1321415.28748   -952377.05347  25138666.9824   25138676.1224
  24660018.5294   -3152864.07948  -2286511.71147  24660019.2604   24660023.6684
 03 10 29  3 25  0.0000000  0  9G 7G 5G10G17G30G24G 4G13G 9
  22616994.1254  -10208185.41749  -7925359.86848  22616993.9234   22616999.2254
  21682786.6824  -18436048.56849 -14326335.99448  21682786.3434   21682791.3414
  22017676.9624  -17079122.31949 -13268504.19248  22017676.5924   22017682.0214
  23211538.2294  -12189718.32749  -9466663.45448  23211537.1474   23211542.5274
  23852283.3794   -8023229.97148  -6207438.55247  23852284.7364   23852288.0464
  20731833.3484  -25225502.75349 -19651317.41149  20731833.1654   20731838.0424
  21782075.3284  -18442651.60149 -14298437.88348  21782075.7364   21782080.2464
  25132366.6094   -1354531.85848   -978182.09147  25132365.9474   25132373.3404
  24673756.8404   -3080646.08148  -2230237.91747  24673758.2584   24673764.1954
 03 10 29  3 25 30.0000000  0  9G 7G 5G10G17G30G24G 4G13G 9
  22627134.9754  -10154897.22049  -7883836.64348  22627134.7874   22627140.4344
  21673653.7024  -18484043.42849 -14363734.57048  21673653.3554   21673657.3574
  21999030.7994  -17177111.63849 -13344859.49548  21999029.8964   21999034.9374
  23199646.1394  -12252214.20449  -9515361.50148  23199646.0934   23199651.2684
  23834311.2644   -8117662.65048  -6281022.41747  23834313.5854   23834319.2064
  20733542.5234  -25216520.61249 -19644318.34049  20733542.4404   20733546.9474
  21795184.9014  -18373759.06849 -14244755.40948  21795185.8714   21795189.9604
  25126132.0474   -1387293.70748  -1003710.75246  25126131.5854   25126140.1634
  24687510.1724   -3008396.48848  -2173939.53547  24687509.7564   24687514.4874
 03 10 29  3 26  0.0000000  0  9G 7G 5G10G17G30G24G 4G13G 9
  22637318.6284  -10101380.65149  -7842135.48248  22637317.2664   22637324.6254
  21664616.1214  -18531537.65249 -14400743.04948  21664615.4624   21664620.1794
  21980443.1424  -17274786.33449 -13420969.63048  21980443.0274   21980448.5114
  23187793.3654  -12314494.70949  -9563891.72648  23187793.6564   23187799.3934
  23816393.8784   -8211830.77848  -6354400.08247  23816393.9564   23816398.1504
  20735305.1974  -25207257.48849 -19637100.32649  20735305.1124   20735309.6194
  21808316.7454  -18304754.40249 -14190985.56448  21808316.7684   21808321.1294
  25119966.3874   -1419694.61748  -1028958.13546  25119968.7304   25119972.7814
  24701263.3604   -2936114.19148  -2117615.67847  24701263.3674   24701269.6054
 03 10 29  3 26 30.0000000  0  9G 7G 5G10G17G30G24G 4G13G 9
  22647545.2884  -10047637.92849  -7800258.07248  22647544.7734   22647551.0454
  21655673.2334  -18578531.48749 -14437361.61048  21655672.7764   21655677.3034
  21961916.8074  -17372146.13649 -13496834.40248  21961916.6024   21961921.9404
  23175983.9414  -12376561.68449  -9612255.57748  23175982.9684   23175988.8804
  23798523.9504   -8305734.01248  -6427571.40647  23798525.0184   23798530.0384
  20737120.4994  -25197717.54549 -19629666.60549  20737120.4714   20737125.2574
  21821468.2834  -18235641.93249 -14137131.71548  21821468.8014   21821472.3874
  25113869.0904   -1451734.69848  -1053924.39346  25113867.2454   25113875.5344
  24715022.9634   -2863804.49648  -2061270.45747  24715022.8274   24715028.6074
 03 10 29  3 27  0.0000000  0  9G 7G 5G10G17G30G24G 4G13G 9
  22657814.9514   -9993668.46049  -7758203.99148  22657815.5064   22657821.3724
  21646826.4754  -18625023.52549 -14473589.15748  21646825.6324   21646830.6404
  21943450.7214  -17469187.91949 -13572451.37348  21943450.1114   21943455.1284
  23164212.6444  -12438415.54049  -9660453.34648  23164213.0584   23164216.7934
  23780705.9174   -8399369.66748  -6500534.15847  23780706.0874   23780710.8964
  20738988.4624  -25187902.03349 -19622018.15949  20738988.4164   20738992.8874
  21834640.3154  -18166423.15849 -14083195.02548  21834640.2064   21834644.9074
  25107841.0284   -1483411.75948  -1078607.75247  25107841.0864   25107847.8274
  24728786.4274   -2791470.16448  -2004906.01947  24728787.1684   24728795.4334
 03 10 29  3 27 30.0000000  0  9G 7G 5G10G17G30G24G 4G13G 9
  22668129.2254   -9939472.24749  -7715973.21648  22668128.6044   22668134.3104
  21638074.5824  -18671012.76149 -14509424.91148  21638074.3294   21638078.9634
  21925044.7374  -17565908.78549 -13647818.27048  21925043.8464   21925049.6524
  23152483.0824  -12500056.23449  -9708485.01848  23152483.0444   23152487.5074
  23762939.7024   -8492735.21948  -6573286.49247  23762938.6104   23762943.7164
  20740908.3204  -25177812.42449 -19614156.12849  20740908.4154   20740913.1304
  21847832.3774  -18097099.95149 -14029176.96148  21847831.7654   21847836.1604
  25101883.2734   -1514723.41248  -1103006.38747  25101883.5564   25101889.0204
  24742558.5254   -2719114.42848  -1948525.04147  24742558.0424   24742563.7944
 03 10 29  3 28  0.0000000  0  9G 7G 5G10G17G30G24G 4G13G 9
  22678486.2204   -9885043.55849  -7673561.28948  22678486.6344   22678492.6124
  21629420.0454  -18716491.74749 -14544863.07148  21629419.7854   21629425.0054
  21906701.9034  -17662300.74549 -13722928.88348  21906701.4884   21906707.3554
  23140795.3254  -12561478.72049  -9756346.66548  23140795.3374   23140799.8434
  23745225.4044   -8585822.95948  -6645822.33747  23745225.2604   23745228.4394
  20742881.1284  -25167445.02149 -19606077.63349  20742880.9804   20742885.8384
  21861043.9454  -18027668.82449 -13975074.80848  21861044.3744   21861048.6764
  25095994.9864   -1545662.35348  -1127114.62546  25095996.1484   25096002.2384
  24756329.1584   -2646734.75748  -1892125.24047  24756328.8684   24756335.9914
 03 10 29  3 28 30.0000000  0  9G 7G 5G10G17G30G24G 4G13G 9
  22688887.4174   -9830388.81249  -7630973.21948  22688887.6704   22688893.4894
  21620862.1184  -18761465.86749 -14579907.83248  21620861.2554   21620866.3104
  21888421.4754  -17758367.41549 -13797786.00948  21888420.3144   21888426.5784
  23129147.5584  -12622689.31249  -9804043.18948  23129146.4864   23129151.1994
  23727563.6484   -8678636.65748  -6718144.63447  23727563.6934   23727569.4464
  20744905.1774  -25156808.15049 -19597789.16949  20744905.3184   20744909.9964
  21874276.0624  -17958138.03949 -13920894.99948  21874275.2554   21874279.9744
  25090177.7734   -1576232.94348  -1150935.82247  25090177.0344   25090182.8604
  24770107.5424   -2574340.73048  -1835714.30747  24770108.2714   24770111.7634
 03 10 29  3 29  0.0000000  0  9G 7G 5G10G17G30G24G 4G13G 9
  22699330.5614   -9775507.63149  -7588208.69948  22699329.5454   22699335.4464
  21612400.3284  -18805933.16949 -14614557.66648  21612399.8494   21612404.5164
  21870202.5914  -17854106.14449 -13872387.60948  21870201.7604   21870207.8994
  23117538.8204  -12683688.32549  -9851574.85648  23117538.1214   23117544.8934
  23709954.1344   -8771173.93148  -6790251.57447  23709954.4624   23709959.5334
  20746980.4304  -25145903.38449 -19589291.94549  20746980.3094   20746985.1844
  21887525.4624  -17888509.22049 -13866638.79248  21887526.4884   21887530.1024
  25084429.7484   -1606433.13648  -1174468.36746  25084432.8844   25084438.1184
  24783884.7634   -2501935.14348  -1779294.40247  24783883.7374   24783890.9084
 03 10 29  3 29 30.0000000  0  9G 7G 5G10G17G30G24G 4G13G 9
  22709818.6464   -9720392.77549  -7545262.10948  22709818.0854   22709824.5684
  21604036.3984  -18849885.11249 -14648805.92648  21604035.7984   21604040.4304
  21852048.2314  -17949506.85949 -13946725.81648  21852047.7484   21852053.3854
  23105973.3464  -12744468.94849  -9898936.35248  23105971.8314   23105977.6694
  23692400.1574   -8863425.03348  -6862135.50047  23692400.2284   23692404.2134
  20749107.6244  -25134725.19249 -19580581.67149  20749107.5044   20749112.2374
  21900795.0754  -17818777.11149 -13812302.10348  21900795.7934   21900799.0944
  25078756.3884   -1636253.91748  -1197705.30647  25078758.2404   25078761.2134
  24797666.1204   -2429514.07348  -1722862.44947  24797667.5944   24797671.3434
 03 10 29  3 30  0.0000000  0  9G 7G 5G10G17G30G24G 4G13G 9
  22720349.9564   -9665050.59849  -7502138.37248  22720349.0154   22720354.7644
  21595769.4674  -18893327.09049 -14682656.80948  21595769.2424   21595773.7644
  21833957.9634  -18044573.35949 -14020803.59248  21833956.6944   21833962.3484
  23094447.1074  -12805037.82649  -9946132.85848  23094446.0174   23094452.0844
  23674896.7154   -8955394.08948  -6933799.65847  23674898.2554   23674903.3884
  20751285.6924  -25123281.61649 -19571664.59749  20751285.5754   20751289.7374
  21914082.9034  -17748949.91549 -13757891.33148  21914082.8474   21914087.1324
  25073152.8154   -1665699.35547  -1220649.77947  25073153.3184   25073157.9184
  24811448.9804   -2357086.98748  -1666425.75347  24811448.4604   24811455.7054
 03 10 29  3 30 30.0000000  0  9G 7G 5G10G17G30G24G 4G13G 9
  22730925.6564   -9609475.65449  -7458833.26548  22730923.9664   22730931.1744
  21587601.6744  -18936252.04749 -14716104.82348  21587601.2294   21587604.9154
  21815931.9804  -18139297.69149 -14094614.75148  21815932.1324   21815937.5404
  23082961.6644  -12865390.00149  -9993160.48948  23082962.2854   23082968.0644
  23657452.2164   -9047073.30448  -7005237.97047  23657452.6724   23657455.6804
  20753514.1974  -25111569.45349 -19562538.23749  20753513.9954   20753518.8494
  21927389.3854  -17679024.28449 -13703403.84448  21927389.1144   21927393.7114
  25067622.4744   -1694762.54747  -1243296.36546  25067621.9534   25067628.4274
  24825233.4494   -2284651.47748  -1609982.54347  24825232.7754   24825237.5814
 03 10 29  3 31  0.0000000  0  9G 7G 5G10G17G30G24G 4G13G 9
  22741543.7884   -9553675.95449  -7415353.01048  22741542.3444   22741549.8024
  21579529.9524  -18978667.04649 -14749155.46648  21579529.5484   21579534.1194
  21797971.3054  -18233685.54749 -14168163.72548  21797970.8024   21797975.7024
  23071517.2544  -12925533.40149 -10040025.44348  23071516.7734   23071521.0944
  23640059.5354   -9138468.22548  -7076454.77747  23640060.0134   23640065.3464
  20755791.9524  -25099598.36749 -19553210.11549  20755792.0914   20755796.8534
  21940712.5274  -17609010.01049 -13648847.28348  21940712.7764   21940717.4504
  25062163.8814   -1723449.39448  -1265649.72547  25062163.0034   25062168.8224
  24839016.5214   -2212218.75948  -1553541.49047  24839017.4844   24839022.0374
 03 10 29  3 31 30.0000000  0  9G 7G 5G10G17G30G24G 4G13G 9
  22752206.7044   -9497640.99749  -7371689.45148  22752204.8314   22752212.2684
  21571557.9074  -19020560.15949 -14781799.44749  21571557.7914   21571562.2054
  21780076.0024  -18327723.50149 -14241440.03848  21780075.7204   21780081.4354
  23060113.1654  -12985458.38149 -10086720.21148  23060112.1914   23060118.7424
  23622725.6334   -9229566.02948  -7147440.03547  23622725.6224   23622728.0854
  20758121.1174  -25087359.28849 -19543673.17249  20758120.5974   20758125.6384
  21954054.3914  -17538898.48449 -13594214.94748  21954054.8584   21954059.1394
  25056778.9734   -1751747.55647  -1287700.20547  25056779.6744   25056784.6264
  24852801.1644   -2139781.48948  -1497096.86847  24852800.5804   24852806.8784
 03 10 29  3 32  0.0000000  0  9G 7G 5G10G17G30G24G 4G13G 9
  22762912.7834   -9441379.16249  -7327849.09948  22762911.1924   22762918.3654
  21563684.0044  -19061939.21249 -14814042.86049  21563683.1954   21563687.7674
  21762247.3284  -18421417.58149 -14314448.39748  21762246.3804   21762251.2984
  23048750.3744  -13045173.69149 -10133251.58248  23048749.3584   23048755.0244
  23605444.9764   -9320372.87748  -7218198.58747  23605444.5054   23605449.9284
  20760499.0254  -25074863.14749 -19533935.91649  20760498.8034   20760503.5694
  21967412.7794  -17468700.10449 -13539514.93348  21967412.6274   21967416.9984
  25051464.4224   -1779663.77447  -1309453.05446  25051467.0634   25051474.6034
  24866583.2774   -2067351.25048  -1440657.76047  24866582.9194   24866590.6564
 03 10 29  3 32 30.0000000  0  9G 7G 5G10G17G30G24G 4G13G 9
  22773663.4604   -9384882.84449  -7283826.03948  22773663.3144   22773669.4494
  21555909.0294  -19102794.67849 -14845878.28549  21555908.8544   21555913.6824
  21744485.0184  -18514757.52149 -14387180.80648  21744483.8084   21744489.8634
  23037428.6864  -13104672.16649 -10179614.01148  23037427.1214   23037431.7874
  23588222.2284   -9410878.84148  -7288722.67447  23588221.7974   23588225.7484
  20762926.9684  -25062103.60849 -19523993.41849  20762926.8164   20762931.4224
  21980788.7004  -17398409.11149 -13484742.75248  21980789.1254   21980793.4694
  25046227.3554   -1807188.66447  -1330900.96046  25046227.6794   25046233.4824
  24880367.0554   -1994923.62548  -1384220.70847  24880367.2864   24880369.8844
 03 10 29  3 33  0.0000000  0  9G 7G 5G10G17G30G24G 4G13G 9
  22784459.0564   -9328157.00449  -7239624.12748  22784457.8274   22784465.6694
  21548233.4424  -19143130.49449 -14877308.79149  21548233.7064   21548237.6564
  21726789.9204  -18607745.72849 -14459639.12748  21726789.2174   21726794.1564
  23026146.4064  -13163958.78149 -10225811.34748  23026145.5214   23026150.9634
  23571056.2654   -9501086.24848  -7359014.14947  23571057.7114   23571059.4484
  20765404.1474  -25049087.17749 -19513850.75049  20765403.8874   20765408.1644
  21994180.9444  -17328032.17349 -13429903.60448  21994182.0174   21994185.7924
  25041064.1924   -1834325.19248  -1352046.21747  25041064.4524   25041071.1164
  24894147.1434   -1922506.71348  -1327791.89447  24894146.9184   24894152.4464
 03 10 29  3 33 30.0000000  0  9G 7G 5G10G17G30G24G 4G13G 9
  22795297.3414   -9271199.65849  -7195241.82748  22795296.3954   22795303.5634
  21540657.6594  -19182943.58449 -14908331.97649  21540656.9684   21540661.0374
  21709162.6184  -18700377.65749 -14531819.83248  21709162.4434   21709166.9474
  23014905.3404  -13223032.19449 -10271842.54748  23014905.8214   23014908.3264
  23553948.0204   -9590991.01848  -7429069.75347  23553948.0224   23553951.4134
  20767929.3444  -25035814.20949 -19503508.17649  20767929.7224   20767934.2054
  22007589.8684  -17257569.22049 -13374997.43548  22007590.0074   22007594.3474
  25035976.3764   -1861069.63848  -1372886.01647  25035977.8824   25035981.6854
  24907925.4474   -1850101.53948  -1271372.32747  24907924.1394   24907930.9864
 03 10 29  3 34  0.0000000  0  9G 7G 5G10G17G30G24G 4G13G 9
  22806179.7794   -9214012.23149  -7150680.24048  22806179.7404   22806184.8214
  21533180.6634  -19222233.88449 -14938947.79249  21533180.3974   21533184.5384
  21691603.5644  -18792652.18249 -14603722.04048  21691602.7944   21691607.6534
  23003704.1134  -13281894.14049 -10317708.97748  23003703.4374   23003709.8444
  23536896.7254   -9680592.00948  -7498888.67047  23536896.4274   23536900.2524
  20770504.1774  -25022287.79949 -19492968.11749  20770503.8884   20770508.5374
  22021014.6094  -17187023.46649 -13320026.73348  22021014.4344   22021018.8704
  25030959.4324   -1887421.41347  -1393419.81446  25030960.7384   25030965.0974
  24921700.0404   -1777712.58748  -1214965.40947  24921700.6524   24921705.4234
 03 10 29  3 34 30.0000000  0  9G 7G 5G10G17G30G24G 4G13G 9
  22817106.7344   -9156589.74849  -7105935.49948  22817106.4254   22817113.3034
  21525804.9284  -19260995.92449 -14969151.97949  21525804.4144   21525808.3844
  21674113.3674  -18884561.62149 -14675339.76448  21674112.8964   21674118.3154
  22992543.9804  -13340539.98449 -10363407.01048  22992542.7084   22992549.0694
  23519905.4714   -9769881.92148  -7568465.18547  23519906.6744   23519910.1554
  20773126.8684  -25008504.42649 -19482227.82649  20773126.4814   20773131.4054
  22034454.7634  -17116391.72049 -13264989.03048  22034454.8614   22034459.0174
  25026022.6164   -1913373.74347  -1413642.37647  25026022.4074   25026028.9874
  24935472.3584   -1705337.89748  -1158569.54747  24935471.7544   24935477.7224
 03 10 29  3 35  0.0000000  0  9G 7G 5G10G17G30G24G 4G13G 9
  22828078.3134   -9098934.84548  -7061009.64948  22828077.6844   22828084.2744
  21518528.9874  -19299230.47549 -14998945.13049  21518528.1184   21518532.7604
  21656693.2214  -18976106.06649 -14746673.08348  21656692.2844   21656697.7314
  22981423.9894  -13398972.71149 -10408938.98648  22981424.3224   22981429.2424
  23502973.5304   -9858861.03748  -7637799.53247  23502973.9414   23502978.8994
  20775797.3224  -24994468.16249 -19471290.48049  20775797.7574   20775802.4404
  22047911.3204  -17045678.34349 -13209887.71548  22047911.6164   22047915.5294
  25021159.3994   -1938927.85547  -1433554.62746  25021159.9134   25021167.0234
  24949240.1024   -1632983.04348  -1102189.21847  24949239.0054   24949247.4484
 03 10 29  3 35 30.0000000  0  9G 7G 5G10G17G30G24G 4G13G 9
  22839093.4514   -9041048.26048  -7015903.28248  22839092.3224   22839100.9604
  21511353.7024  -19336937.72349 -15028327.39949  21511352.9244   21511357.5284
  21639342.1534  -19067283.87049 -14817720.69448  21639341.7784   21639347.4054
  22970345.6954  -13457193.60849 -10454305.88548  22970344.7694   22970350.3854
  23486100.4154   -9947527.80748  -7706890.44147  23486101.7994   23486106.0614
  20778516.1344  -24980182.03949 -19460158.43749  20778516.1474   20778521.0414
  22061382.4044  -16974886.06749 -13154724.92348  22061383.0264   22061387.3964
  25016372.4544   -1964082.43648  -1453155.57047  25016372.7604   25016378.5294
  24963005.8654   -1560652.14248  -1045827.47147  24963005.6354   24963010.9204
 03 10 29  3 36  0.0000000  0  9G 7G 5G10G17G30G24G 4G13G 9
  22850153.9784   -8982930.70749  -6970616.91648  22850153.0534   22850159.6054
  21504278.3454  -19374117.33949 -15057298.52749  21504277.9024   21504282.1764
  21622062.2584  -19158092.99749 -14888481.02848  21622061.1994   21622066.9024
  22959307.2454  -13515203.54049 -10499508.41548  22959306.4624   22959310.6274
  23469289.2644  -10035880.37048  -7775736.58147  23469287.6364   23469292.7864
  20781281.8124  -24965648.73449 -19448833.78749  20781281.7044   20781286.1844
  22074868.1004  -16904017.07549 -13099502.36048  22074868.7214   22074873.4894
  25011661.7734   -1988836.41147  -1472444.33347  25011659.7104   25011668.6074
  24976764.5284   -1488348.66748   -989487.11047  24976765.2744   24976770.6194
 03 10 29  3 36 30.0000000  0  9G 7G 5G10G17G30G24G 4G13G 9
  22861256.7024   -8924578.88548  -6925148.00748  22861257.2654   22861262.5614
  21497304.7254  -19410764.53549 -15085854.78149  21497304.1444   21497308.9564
  21604853.1564  -19248527.88249 -14958949.73948  21604852.1854   21604857.6264
  22948308.2524  -13572999.71049 -10544544.36548  22948307.3474   22948313.4564
  23452535.3034  -10123913.31748  -7844333.61447  23452536.1514   23452538.9884
  20784094.8314  -24950866.56449 -19437315.21149  20784094.3904   20784099.4794
  22088369.3684  -16833069.90849 -13044218.87648  22088369.3574   22088374.7864
  25007029.1174   -2013184.83347  -1491417.08547  25007029.0514   25007035.7124
  24990518.5044   -1416072.49148   -933168.06947  24990518.2954   24990523.7334
 03 10 29  3 37  0.0000000  0  9G 7G 5G10G17G30G24G 4G13G 9
  22872405.6504   -8865991.74548  -6879495.74747  22872405.3354   22872411.6274
  21490432.3974  -19446877.16549 -15113994.49249  21490432.0724   21490436.5124
  21587715.3354  -19338584.88649 -15029123.99948  21587714.5594   21587720.9214
  22937349.9624  -13630581.40949 -10589413.20248  22937349.9424   22937355.2334
  23435845.0034  -10211622.88448  -7912678.69647  23435845.1034   23435849.1364
  20786955.1524  -24935835.85349 -19425602.97349  20786954.8064   20786959.4484
  22101884.6534  -16762045.20049 -12988874.97048  22101884.7564   22101889.3244
  25002473.2714   -2037124.86547  -1510071.61847  25002472.5654   25002476.5854
  25004265.9544   -1343825.35248   -876871.59447  25004266.3204   25004272.3374
 03 10 29  3 37 30.0000000  0  9G 7G 5G10G17G30G24G 4G13G 9
  22883597.3214   -8807173.90748  -6833663.71247  22883598.2874   22883605.1094
  21483661.8374  -19482458.97649 -15141720.58149  21483661.1984   21483666.3314
  21570649.5134  -19428265.95349 -15099005.31248  21570649.0204   21570654.5284
  22926433.1254  -13687953.51249 -10634118.70848  22926432.5284   22926438.2614
  23419214.1854  -10299011.49248  -7980773.66747  23419215.1084   23419221.0244
  20789861.0744  -24920563.29949 -19413702.27849  20789860.9744   20789865.9734
  22115413.7054  -16690949.39249 -12933475.66148  22115414.3444   22115418.4034
  24997993.1434   -2060659.66847  -1528410.37847  24997994.6914   24998002.6894
  25018008.6114   -1271614.87548   -820603.69747  25018009.7294   25018013.6744
 03 10 29  3 38  0.0000000  0  9G 7G 5G10G17G30G24G 4G13G 9
  22894835.4294   -8748121.09948  -6787648.59547  22894835.2144   22894842.2014
  21476993.0084  -19517504.28449 -15169028.61749  21476992.4754   21476997.0594
  21553657.3024  -19517564.26049 -15168588.38348  21553656.3624   21553661.2304
  22915555.9244  -13745112.35749 -10678658.05848  22915555.2054   22915561.1184
  23402648.5244  -10386072.27948  -8048613.19847  23402649.0654   23402653.6974
  20792814.0354  -24905046.38849 -19401611.18449  20792814.0854   20792818.5314
  22128956.5604  -16619779.69749 -12878018.78348  22128957.1214   22128961.8604
  24993593.7874   -2083782.83447  -1546428.37846  24993595.2774   24993598.1264
  25031740.8534   -1199439.58648   -764363.23047  25031739.8504   25031746.8644
 03 10 29  3 38 30.0000000  0  9G 7G 5G10G17G30G24G 4G13G 9
  22906120.2634   -8688824.43448  -6741443.46547  22906120.2154   22906125.0664
  21470427.8254  -19552003.14249 -15195910.84249  21470427.4724   21470431.7984
  21536738.7944  -19606468.15849 -15237864.11148  21536738.1894   21536743.8234
  22904721.4714  -13802049.28049 -10723024.46848  22904721.0274   22904727.3644
  23386146.2734  -10472794.04748  -8116188.57647  23386147.0494   23386150.5014
  20795814.8104  -24889277.31249 -19389323.59949  20795814.8264   20795819.3924
  22142515.5044  -16548528.99549 -12822498.79048  22142516.4564   22142521.0564
  24989272.4844   -2106483.72547  -1564117.37146  24989274.2154   24989282.4854
  25045472.0874   -1127293.70948   -708145.72947  25045470.7154   25045476.3574
