     2.11           OBSERVATION DATA    G (GPS)             RINEX VERSION / TYPE
teqc  2018Jan11                         20190202 20:51:22UTCPGM / RUN BY / DATE
Linux 2.4.21-27.ELsmp|Opteron|gcc -static|Linux 64|=+       COMMENT
teqc  2018Jan11                         20190102 01:02:26UTCCOMMENT
teqc  2018Jan11     NOAA/NOS/NGS/CORS   20190101 01:29:36UTCCOMMENT
Spider V7.1.0.7428                      2019 01 01 01:02    COMMENT
BIT 2 OF LLI FLAGS DATA COLLECTED UNDER A/S CONDITION       COMMENT
SNR is mapped to RINEX snr flag value [1-9]                 COMMENT
LX:    >= 25dBHz -> 1; 26-27dBHz -> 2; 28-31dBHz -> 3       COMMENT
       32-35dBHz -> 4; 36-38dBHz -> 5; 39-41dBHz -> 6       COMMENT
       42-44dBHz -> 7; 45-48dBHz -> 8; >= 49dBHz -> 9       COMMENT
Product                                                     COMMENT
NYIL                                                        MARKER NAME
NYIL                                                        MARKER NUMBER
Stephen Roden       NYSDOT                                  OBSERVER / AGENCY
355174              LEICA GRX1200GGPRO  9.20/3.823          REC # / TYPE / VERS
200326              LEIAT504GG      LEIS                    ANT # / TYPE
  1249891.1850 -4440006.9000  4391037.3870                  APPROX POSITION XYZ
        0.0000        0.0000        0.0000                  ANTENNA: DELTA H/E/N
     1     1                                                WAVELENGTH FACT L1/2
     8    C1    L1    D1    S1    P2    L2    D2    S2      # / TYPES OF OBSERV
    30.0000                                                 INTERVAL
teqc.e windowed: start @ 2019 Jan  1 00:00:00.000           COMMENT
teqc.e windowed: delta = 3600.000 sec                       COMMENT
teqc.e edited: all SBAS satellites excluded                 COMMENT
teqc.e edited: all QZSS satellites excluded                 COMMENT
Forced Modulo Decimation to 30 seconds                      COMMENT
  2019     1     1     0     0    0.0000000     GPS         TIME OF FIRST OBS
                                                            END OF HEADER
 19  1  1  0  0  0.0000000  0  8G07G08G09G16G21G23G26G27
  23004558.060   120889777.257 9      2947.402          49.500    23004555.120
  94199815.78946      2296.672          40.750
  21527126.100   113125843.111 9      2737.633          50.250    21527127.160
  88150035.33348      2133.215          47.250
  21219392.720   111508680.932 9       -46.570          50.250    21219392.600
  86889880.84549       -36.289          49.000
  21007465.480   110395026.275 9     -2095.051          50.500    21007462.360
  86022110.91048     -1632.512          47.250
  25157265.440   132202324.195 6      -571.773          41.750    25157262.640
 103014783.48644      -445.539          35.750
  21372571.640   112313651.837 9     -1707.867          51.000    21372566.700
  87517115.74348     -1330.809          46.500
  22883471.140   120253503.829 8     -2816.602          47.250    22883472.060
  93704055.41446     -2194.754          41.500
  20440314.580   107414625.998 9       885.453          51.500    20440314.300
  83699701.27749       689.965          51.000
 19  1  1  0  0 30.0000000  0  8G07G08G09G16G21G23G26G27
  22987741.420   120801406.076 8      2943.211          48.750    22987738.440
  94130955.13646      2293.410          41.000
  21511538.720   113043930.876 9      2722.492          50.250    21511539.680
  88086207.62448      2121.418          47.000
  21219717.800   111510389.473 9       -67.902          50.500    21219717.780
  86891212.16749       -52.914          49.000
  21019451.360   110458012.594 9     -2104.625          50.500    21019448.240
  86071191.15448     -1639.973          47.250
  25160572.600   132219702.016 6      -587.453          39.500    25160569.220
 103028324.62944      -457.754          35.000
  21382372.020   112365152.685 9     -1726.230          51.250    21382367.000
  87557246.26048     -1345.117          46.500
  22899561.140   120338055.918 8     -2820.965          48.250    22899561.920
  93769940.17147     -2198.156          42.250
  20435319.800   107388378.470 9       863.723          51.250    20435319.560
  83679248.67449       673.031          51.250
 19  1  1  0  1  0.0000000  0  8G07G08G09G16G21G23G26G27
  22970943.440   120713132.816 9      2940.992          49.250    22970940.600
  94062170.77046      2291.680          41.500
  21496032.400   112962445.374 9      2709.277          50.000    21496033.440
  88022712.43748      2111.125          47.250
  21220159.980   111512712.908 9       -87.469          50.250    21220159.940
  86893022.63449       -68.160          49.250
  21031487.240   110521261.843 9     -2112.391          50.500    21031484.180
  86120476.27648     -1646.020          47.250
  25163964.920   132237527.528 6      -601.328          41.250    25163961.140
 103042214.64244      -468.570          33.500
  21392271.780   112417176.283 9     -1742.508          51.250    21392266.820
  87597784.12448     -1357.797          46.500
  22915670.080   120422708.199 8     -2823.258          47.750    22915670.920
  93835902.96747     -2199.941          42.000
  20430444.580   107362759.718 9       843.813          51.500    20430444.480
  83659286.02949       657.516          51.250
 19  1  1  0  1 30.0000000  0  8G07G08G09G16G21G23G26G27
  22954163.880   120624955.675 9      2937.438          49.250    22954161.100
  93993461.31446      2288.910          41.000
  21480607.080   112881385.545 9      2694.691          50.250    21480608.180
  87959548.95548      2099.754          47.000
  21220718.600   111515648.085 9      -108.098          50.250    21220718.560
  86895309.77448       -84.234          48.750
  21043572.340   110584769.257 9     -2121.363          50.500    21043569.140
  86169962.57648     -1653.012          46.750
  25167441.600   132255796.858 6      -616.250          41.250    25167437.640
 103056450.48244      -480.203          33.000
  21402269.900   112469717.331 9     -1760.078          51.250    21402265.060
  87638725.19448     -1371.488          46.250
  22931797.300   120507456.463 8     -2826.645          47.500    22931797.940
  93901940.58646     -2202.582          41.500
  20425688.620   107337767.184 9       822.520          51.500    20425688.500
  83639811.33349       640.926          51.000
 19  1  1  0  2  0.0000000  0  8G07G08G09G16G21G23G26G27
  22937402.540   120536874.830 9      2934.582          49.250    22937400.160
  93924826.90846      2286.688          41.000
  21465263.220   112800752.628 9      2680.871          50.500    21465264.240
  87896718.11448      2088.992          47.250
  21221393.320   111519193.478 9      -128.090          50.500    21221393.220
  86898072.42748       -99.813          48.750
  21055705.840   110648531.708 9     -2129.332          50.250    21055702.620
  86219647.59548     -1659.219          47.250
  25171001.980   132274507.772 6      -630.891          41.750    25170997.960
 103071030.43944      -491.602          32.250
  21412365.800   112522772.723 9     -1776.824          51.000    21412361.240
  87680067.05548     -1384.543          46.250
  22947942.020   120592298.388 8     -2829.527          47.250    22947942.640
  93968051.17747     -2204.828          42.000
  20421051.740   107313399.966 9       802.086          51.500    20421051.640
  83620823.89249       625.004          51.250
 19  1  1  0  2 30.0000000  0  8G07G08G09G16G21G23G26G27
  22920660.480   120448894.989 9      2930.980          49.500    22920658.020
  93856271.19246      2283.883          41.000
  21450001.480   112720551.249 9      2666.121          50.500    21450002.460
  87834223.54348      2077.496          47.250
  21222184.660   111523352.006 9      -148.902          50.500    21222184.400
  86901312.82348      -116.031          48.750
  21067888.240   110712550.786 9     -2138.176          50.500    21067885.080
  86269532.58548     -1666.113          46.750
  25174647.060   132293664.355 6      -646.137          41.000    25174643.220
 103085957.66743      -503.484          30.500
  21422559.740   112576343.538 9     -1794.266          51.000    21422555.340
  87721810.53648     -1398.133          45.750
  22964104.980   120677235.868 8     -2832.828          47.000    22964105.900
  94034236.21647     -2207.402          42.250
  20416534.600   107289661.670 9       780.816          51.750    20416534.420
  83602326.53149       608.430          51.000
 19  1  1  0  3  0.0000000  0  8G07G08G09G16G21G23G26G27
  22903937.660   120361015.688 9      2927.852          49.000    22903935.420
  93787793.82447      2281.441          42.250
  21434821.880   112640781.797 9      2651.984          50.250    21434822.800
  87772065.53748      2066.480          47.250
  21223092.240   111528121.516 9      -168.898          50.250    21223091.940
  86905029.32948      -131.613          48.750
  21080118.740   110776822.456 9     -2146.395          50.000    21080115.500
  86319614.40348     -1672.520          46.750
  25178376.220   132313263.640 6      -660.344          40.500    25178373.200
 103101229.81744      -514.559          32.250
  21432851.100   112630425.961 9     -1811.063          50.500    21432846.820
  87763952.68048     -1411.219          45.750
  22980285.780   120762265.947 8     -2835.605          48.000    22980286.620
  94100493.40647     -2209.566          42.500
  20412136.800   107266550.736 9       760.082          51.500    20412136.600
  83584318.02049       592.270          51.250
 19  1  1  0  3 30.0000000  0  8G07G08G09G16G21G23G26G27
  22887232.960   120273232.338 9      2924.500          49.000    22887230.660
  93719391.23546      2278.828          41.750
  21419723.600   112561440.475 9      2637.461          50.000    21419724.600
  87710241.15948      2055.164          47.500
  21224114.780   111533495.641 9      -189.270          50.250    21224114.640
  86909216.95448      -147.488          48.750
  21092395.900   110841339.230 9     -2154.668          50.500    21092392.640
  86369887.21648     -1678.965          46.750
  25182189.040   132333299.227 6      -675.266          41.500    25182185.480
 103116841.95944      -526.180          34.250
  21443238.440   112685012.209 9     -1828.043          50.500    21443234.220
  87806487.39648     -1424.453          45.500
  22996482.960   120847381.391 8     -2838.797          47.750    22996483.500
  94166817.12746     -2212.055          41.500
  20407857.260   107244061.373 9       739.277          51.500    20407857.020
  83566793.86949       576.059          51.250
 19  1  1  0  4  0.0000000  0  8G07G08G09G16G21G23G26G27
  22870548.500   120185554.531 9      2920.855          49.500    22870546.220
  93651070.87446      2275.992          41.500
  21404708.660   112482536.916 9      2622.832          50.250    21404709.780
  87648757.89348      2043.766          47.250
  21225253.960   111539482.075 9      -209.598          50.500    21225253.740
  86913881.70048      -163.328          48.500
  21104720.940   110906107.245 9     -2163.020          50.500    21104717.640
  86420355.80448     -1685.473          46.750
  25186086.360   132353778.684 6      -689.766          41.500    25186082.700
 103132799.98144      -537.484          33.250
  21453722.920   112740108.079 9     -1844.980          50.500    21453718.680
  87849419.24348     -1437.652          45.250
  23012697.640   120932589.098 8     -2841.844          48.000    23012698.040
  94233212.75146     -2214.422          41.500
  20403697.520   107222201.976 9       718.184          51.500    20403697.340
  83549760.58949       559.625          51.250
 19  1  1  0  4 30.0000000  0  8G07G08G09G16G21G23G26G27
  22853883.880   120097980.319 9      2917.254          49.500    22853881.440
  93582831.24246      2273.180          41.750
  21389776.760   112404069.730 9      2608.168          50.000    21389777.900
  87587614.64848      2032.340          47.500
  21226508.940   111546076.992 9      -229.988          50.250    21226508.720
  86919020.59649      -179.215          49.000
  21117092.640   110971121.018 9     -2171.223          50.250    21117089.400
  86471015.88248     -1691.863          47.000
  25190067.360   132374698.344 6      -704.824          40.250    25190063.880
 103149101.05244      -549.215          32.500
  21464303.480   112795708.206 9     -1861.762          50.500    21464299.040
  87892743.99348     -1450.727          45.500
  23028928.780   121017884.509 8     -2844.840          47.500    23028929.320
  94299676.69946     -2216.762          41.750
  20399657.060   107200969.286 9       697.207          51.500    20399656.880
  83533215.64849       543.277          51.500
 19  1  1  0  5  0.0000000  0  8G07G08G09G16G21G23G26G27
  22837239.260   120010512.967 9      2913.996          49.250    22837236.740
  93514674.87346      2270.641          41.000
  21374928.600   112326042.536 9      2593.668          50.000    21374929.780
  87526814.26548      2021.039          47.500
  21227879.960   111553281.806 9      -250.246          50.500    21227879.900
  86924634.73949      -195.000          49.000
  21129511.100   111036380.807 9     -2179.313          50.000    21129507.960
  86521867.65548     -1698.168          46.750
  25194132.160   132396059.667 6      -719.316          39.750    25194128.860
 103165746.24143      -560.504          30.750
  21474979.780   112851812.040 9     -1878.422          50.500    21474975.220
  87936461.23748     -1463.711          45.000
  23045176.760   121103268.233 8     -2847.414          48.000    23045177.440
  94366209.47146     -2218.766          41.000
  20395736.320   107180365.375 9       676.387          51.500    20395736.000
  83517160.67349       527.055          51.250
 19  1  1  0  5 30.0000000  0  8G07G08G09G16G21G23G26G27
  22820615.980   119923156.387 9      2909.797          49.500    22820613.260
  93446604.78846      2267.371          41.250
  21360165.100   112248459.649 9      2578.484          50.250    21360166.300
  87466360.09448      2009.207          47.750
  21229367.460   111561098.361 9      -271.125          50.500    21229367.500
  86930725.55749      -211.266          49.000
  21141976.560   111101887.147 9     -2187.852          50.500    21141973.540
  86572911.55448     -1704.824          46.750
  25198280.980   132417864.012 6      -734.438          39.250    25198277.780
 103182736.61344      -572.297          33.000
  21485751.720   112908419.697 9     -1895.566          50.000    21485747.260
  87980571.07348     -1477.070          45.250
  23061441.780   121188741.461 8     -2850.746          47.750    23061442.360
  94432811.98646     -2221.363          41.000
  20391935.620   107160392.729 9       655.035          51.750    20391935.260
  83501597.58549       510.414          51.250
 19  1  1  0  6  0.0000000  0  8G07G08G09G16G21G23G26G27
  22804013.600   119835911.970 9      2906.594          49.500    22804011.240
  93378622.15646      2264.879          41.250
  21345486.320   112171322.268 9      2564.156          50.250    21345487.580
  87406253.08748      1998.043          47.250
  21230971.120   111569525.735 9      -290.746          50.500    21230971.140
  86937292.33848      -226.555          48.750
  21154488.480   111167637.791 9     -2195.387          50.500    21154485.440
  86624145.82248     -1710.691          46.000
  25202513.680   132440110.905 5      -748.230          38.500    25202511.460
 103200071.88745      -583.035          37.750
  21496619.160   112965529.037 9     -1911.609          50.500    21496614.740
  88025071.83148     -1489.570          45.000
  23077723.340   121274302.614 8     -2852.941          47.250    23077723.960
  94499483.00046     -2223.074          41.750
  20388254.960   107141050.930 9       634.613          51.750    20388254.540
  83486526.06549       494.500          51.000
 19  1  1  0  6 30.0000000  0  8G07G08G09G16G21G23G26G27
  22787431.600   119748772.707 9      2902.957          49.500    22787428.980
  93310721.42946      2262.043          41.750
  21330891.380   112094624.957 9      2549.227          50.500    21330892.440
  87346488.97348      1986.410          47.500
  21232689.380   111578555.428 9      -310.953          50.250    21232689.440
  86944328.46749      -242.301          49.250
  21167045.220   111233623.282 9     -2203.324          50.500    21167042.040
  86675563.09448     -1716.875          46.500
  25206829.900   132462791.418 5      -763.230          38.750    25206827.660
 103217745.02044      -594.730          33.250
  21507580.160   113023129.804 9     -1928.207          50.250    21507575.680
  88069955.52147     -1502.504          44.750
  23094020.220   121359942.508 8     -2855.930          48.250    23094020.360
  94566215.39846     -2225.398          40.250
  20384692.840   107122332.184 9       613.621          51.500    20384692.300
  83471940.03749       478.145          51.250
 19  1  1  0  7  0.0000000  0  8G07G08G09G16G21G23G26G27
  22770870.540   119661744.574 9      2898.453          49.250    22770867.960
  93242907.32046      2258.535          41.250
  21316381.400   112018373.530 9      2533.660          50.500    21316382.180
  87287072.28948      1974.281          47.250
  21234523.080   111588191.592 9      -331.875          50.500    21234523.200
  86951837.15449      -258.605          49.000
  21179646.980   111299845.694 9     -2211.906          50.500    21179643.720
  86727164.97648     -1723.563          46.000
  25211229.540   132485910.056 6      -778.832          40.750    25211227.000
 103235759.52044      -606.883          33.500
  21518635.080   113081224.323 9     -1945.270          50.000    21518630.700
  88115223.95748     -1515.797          45.500
  23110332.620   121445664.675 8     -2859.457          47.000    23110332.900
  94633011.87946     -2228.152          41.000
  20381250.160   107104241.212 9       591.957          51.500    20381249.660
  83457843.18449       461.266          51.250
 19  1  1  0  7 30.0000000  0  9G07G08G09G16G21G23G26G27G30
  22754332.440   119574835.946 9      2895.066          49.750    22754329.940
  93175186.31647      2255.891          42.000
  21301957.720   111942576.444 9      2519.031          50.500    21301958.480
  87228009.65748      1962.883          47.500
  21236473.460   111598440.212 9      -351.668          50.250    21236473.440
  86959823.09348      -274.031          48.750
  21192294.760   111366310.292 9     -2219.410          50.250    21192291.420
  86778955.56448     -1729.414          46.250
  25215713.620   132509472.442 6      -792.914          40.250    25215710.540
 103254119.80144      -617.859          33.250
  21529784.820   113139816.855 9     -1961.238          50.500    21529780.600
  88160880.45548     -1528.238          45.250
  23126661.580   121531474.575 8     -2861.684          46.750    23126661.880
  94699876.74446     -2229.883          41.250
  20377928.220   107086784.678 9       571.340          51.500    20377927.840
  83444240.69649       445.195          51.250
  25569990.000   134371202.226 5      3355.129          37.250    25569989.980
 104704835.40042      2614.391          26.750
 19  1  1  0  8  0.0000000  0  9G07G08G09G16G21G23G26G27G30
  22737816.220   119488042.433 9      2891.063          49.250    22737813.760
  93107555.01447      2252.777          42.250
  21287619.680   111867230.181 9      2503.668          50.250    21287620.600
  87169298.31548      1950.910          47.500
  21238539.060   111609294.835 9      -372.352          50.500    21238538.940
  86968281.23348      -290.148          48.750
  21204987.100   111433009.525 9     -2227.605          50.250    21204983.920
  86830928.99048     -1735.801          46.250
  25220280.640   132533472.388 5      -807.676          37.750    25220277.700
 103272821.06043      -629.363          30.000
  21541027.900   113198899.555 9     -1977.910          50.500    21541023.680
  88206918.92248     -1541.230          45.500
  23143005.740   121617365.195 8     -2864.734          46.500    23143006.520
  94766804.47946     -2232.266          41.000
  20374725.900   107069956.701 9       550.082          51.500    20374725.660
  83431128.00649       428.637          51.250
  25550834.040   134270536.520 5      3356.203          37.250    25550834.000
 104626394.64543      2615.234          30.750
 19  1  1  0  8 30.0000000  0  9G07G08G09G16G21G23G26G27G30
  22721322.260   119401366.203 9      2886.973          50.000    22721319.860
  93040015.12247      2249.586          42.750
  21273367.760   111792336.462 9      2488.547          50.250    21273368.780
  87110939.60348      1939.129          47.750
  21240719.820   111620755.310 9      -392.449          50.250    21240719.700
  86977211.47148      -305.809          48.750
  21217723.920   111499941.992 9     -2235.285          50.250    21217720.740
  86883084.15548     -1741.781          46.250
  25224930.160   132557909.515 5      -822.090          38.750    25224928.220
 103291862.96044      -640.594          33.250
  21552363.880   113258470.479 9     -1994.133          50.750    21552359.680
  88253337.82048     -1553.875          45.250
  23159365.440   121703335.896 8     -2867.324          47.250    23159365.880
  94833794.63846     -2234.281          39.000
  20371643.380   107053757.823 9       529.277          51.500    20371643.200
  83418505.51649       412.422          51.250
  25531669.300   134169826.795 5      3357.656          36.500

 19  1  1  0  9  0.0000000  0  9G07G08G09G16G21G23G26G27G30
  22704849.600   119314800.327 9      2882.813          49.750    22704846.860
  92972561.19147      2246.344          42.000
  21259200.820   111717889.039 9      2473.211          50.250    21259201.880
  87052928.63448      1927.176          47.750
  21243014.080   111632812.529 9      -412.789          50.250    21243013.920
  86986606.70148      -321.656          48.250
  21230503.240   111567097.239 9     -2243.133          50.500    21230500.080
  86935412.91948     -1747.895          46.000
  25229661.620   132582774.897 5      -837.055          38.750    25229660.220
 103311238.63444      -652.254          34.750
  21563790.920   113318518.905 9     -2010.430          51.000    21563786.540
  88300128.79348     -1566.574          45.500
  23175738.720   121789377.020 8     -2870.125          46.750    23175739.040
  94900839.67246     -2236.461          40.500
  20368678.980   107038179.444 9       508.086          51.750    20368678.860
  83406366.53349       395.906          51.500
  25512495.200   134069065.460 5      3358.637          36.500    25512493.800
 104469398.2544       2617.121          15.500
 19  1  1  0  9 30.0000000  0  9G07G08G09G16G21G23G26G27G30
  22688401.680   119228366.347 9      2879.035          50.250    22688398.720
  92905210.05046      2243.398          41.750
  21245123.020   111643909.603 9      2458.242          50.500    21245124.040
  86995282.34948      1915.512          47.500
  21245425.560   111645485.917 9      -432.516          50.250    21245425.540
  86996482.07048      -337.023          48.500
  21243328.400   111634493.746 9     -2250.449          50.500    21243325.200
  86987929.67448     -1753.602          45.500
  25234478.980   132608088.235 6      -851.207          40.750    25234477.060
 103330963.29944      -663.281          32.250
  21575312.320   113379062.820 9     -2026.230          51.250    21575307.740
  88347305.86448     -1578.887          45.500
  23192129.020   121875507.624 8     -2872.254          47.500    23192129.220
  94967954.42246     -2238.125          40.000
  20365836.480   107023241.716 9       487.480          51.750    20365836.320
  83394726.75449       379.855          51.250
  25493315.140   133968273.425 5      3361.051          37.000    25493314.440
 104390859.02945      2619.000          36.000
 19  1  1  0 10  0.0000000  0  9G07G08G09G16G21G23G26G27G30
  22671976.560   119142050.296 9      2875.375          50.000    22671973.440
  92837950.77847      2240.547          42.000
  21231131.620   111570384.405 9      2443.375          50.500    21231132.660
  86937990.02248      1903.930          47.250
  21247951.420   111658759.440 9      -452.465          50.250    21247951.560
  87006825.07348      -352.570          48.250
  21256196.220   111702114.442 9     -2257.699          50.250    21256192.900
  87040621.12348     -1759.250          45.500
  25239378.640   132633833.187 6      -865.363          41.000    25239375.580
 103351024.30443      -674.309          29.750
  21586924.800   113440084.526 9     -2041.969          51.500    21586919.880
  88394855.24548     -1591.145          45.250
  23208533.300   121961711.218 8     -2874.613          47.500    23208533.280
  95035126.06446     -2239.957          39.000
  20363112.860   107008929.131 9       466.719          51.500    20363112.720
  83383574.10649       363.672          51.250
  25474126.680   133867436.297 5      3361.918          36.750    25474126.420
 104312284.68645      2619.672          37.750
 19  1  1  0 10 30.0000000  0  9G07G08G09G16G21G23G26G27G30
  22655575.580   119055864.057 9      2870.855          49.750    22655573.080
  92770792.70947      2237.031          42.250
  21217228.940   111497325.373 9      2427.824          50.500    21217229.960
  86881060.93548      1891.813          48.000
  21250593.360   111672642.629 9      -472.602          50.000    21250593.380
  87017643.13648      -368.266          48.750
  21269108.260   111769967.717 9     -2265.320          50.000    21269104.900
  87093493.80348     -1765.188          46.000
  25244362.260   132660019.525 6      -879.910          40.750    25244358.400
 103371429.22344      -685.645          32.250
  21598629.800   113501592.170 9     -2058.074          51.250    21598624.500
  88442783.27348     -1603.699          45.750
  23224952.860   122047996.972 8     -2877.254          46.750    23224953.000
  95102361.70446     -2242.020          40.250
  20360510.120   106995251.853 9       445.621          51.500    20360509.980
  83372916.49749       347.238          51.500
  25454931.500   133766565.300 4      3363.406          35.750    25454931.360
 104233683.88343      2620.832          28.250
 19  1  1  0 11  0.0000000  0  9G07G08G09G16G21G23G26G27G30
  22639198.420   118969801.489 9      2866.973          50.000    22639195.740
  92703730.95647      2234.004          42.000
  21203413.880   111424726.654 9      2412.480          50.500    21203414.840
  86824490.52348      1879.855          48.250
  21253349.640   111687126.542 9      -492.594          50.500    21253349.600
  87028929.30449      -383.844          49.000
  21282062.560   111838043.680 9     -2272.715          50.250    21282059.380
  87146540.01048     -1770.945          46.250
  25249427.940   132686638.114 6      -894.242          41.250    25249424.260
 103392170.99243      -696.816          30.000
  21610425.000   113563574.812 9     -2073.699          51.250    21610419.400
  88491081.42348     -1615.875          46.000
  23241386.020   122134355.618 8     -2879.727          47.000    23241386.660
  95169654.14646     -2243.941          40.750
  20358026.720   106982201.592 9       424.801          51.750    20358026.500
  83362747.47749       331.012          51.750
  25435728.640   133665653.093 4      3365.512          35.750    25435726.720
 104155051.0434       2622.473          16.500
 19  1  1  0 11 30.0000000  0  9G07G08G09G16G21G23G26G27G30
  22622846.700   118883873.858 9      2862.176          49.250    22622844.340
  92636774.36947      2230.262          43.000
  21189688.620   111352599.726 9      2396.617          50.500    21189689.520
  86768287.73448      1867.488          48.000
  21256221.960   111702220.701 9      -513.047          50.000    21256222.020
  87040690.98149      -399.781          49.000
  21295061.140   111906351.101 9     -2280.500          50.000    21295057.920
  87199766.56748     -1777.016          46.000
  25254577.420   132713698.769 5      -909.203          38.000    25254573.360
 103413257.26943      -708.465          31.500
  21622311.880   113626040.517 9     -2089.984          51.000    21622306.260
  88539755.97248     -1628.563          45.750
  23257835.000   122220796.322 8     -2882.496          46.000    23257835.860
  95237010.54946     -2246.105          41.000
  20355664.640   106969788.426 9       403.250          51.500    20355664.300
  83353074.90449       314.223          51.500
  25416519.680   133564712.012 4      3365.703          34.250    25416522.180
 104076403.87644      2622.625          33.750
 19  1  1  0 12  0.0000000  0  8G07G08G09G16G21G23G26G27
  22606519.640   118798074.899 9      2857.863          49.500    22606517.060
  92569918.04147      2226.906          42.250
  21176051.920   111280938.573 9      2380.957          50.500    21176052.800
  86712447.89548      1855.293          48.000
  21259208.720   111717916.362 9      -533.082          50.000    21259208.980
  87052921.35648      -415.391          48.750
  21308101.660   111974879.925 9     -2287.926          49.750    21308098.400
  87253165.65548     -1782.805          45.500
  25259808.880   132741192.553 6      -923.473          39.000    25259805.880
 103434681.00843      -719.590          31.000
  21634288.560   113688979.133 9     -2105.762          50.500    21634283.160
  88588799.03848     -1640.855          45.250
  23274297.760   122307310.092 8     -2885.004          46.000    23274298.600
  95304423.86346     -2248.059          39.500
  20353422.160   106958004.250 9       382.316          51.500    20353421.760
  83343892.42449       297.906          51.500
 19  1  1  0 12 30.0000000  0  9G07G08G09G16G21G23G26G27G30
  22590216.280   118712399.933 9      2853.711          49.750    22590213.700
  92503158.32147      2223.672          42.500
  21162502.880   111209738.297 9      2365.609          50.500    21162503.740
  86656967.16548      1843.328          47.750
  21262308.380   111734206.200 9      -553.086          50.250    21262308.920
  87065614.72948      -430.980          48.250
  21321182.640   112043621.992 9     -2294.816          50.000    21321179.620
  87306730.90848     -1788.168          45.750
  25265121.640   132769112.569 6      -937.844          39.000    25265119.000
 103456436.85744      -730.789          32.000
  21646353.380   113752381.496 9     -2121.145          50.500    21646348.120
  88638203.45447     -1652.844          44.750
  23290773.160   122393889.284 8     -2887.082          45.750    23290774.400
  95371888.16346     -2249.676          39.750
  20351298.120   106946842.337 9       361.621          51.750    20351297.680
  83335194.84149       281.777          51.500
  25378079.900   133362709.234 5      3368.109          37.250    25378079.380
 103918990.68541      2624.492          25.250
 19  1  1  0 13  0.0000000  0  8G07G08G09G16G21G23G26G27
  22573940.660   118626871.404 9      2849.012          50.000    22573938.340
  92436512.73047      2220.004          42.750
  21149045.880   111139021.364 9      2349.621          50.750    21149046.640
  86601863.08348      1830.875          47.750
  21265525.060   111751110.109 9      -573.176          50.250    21265525.540
  87078786.60548      -446.633          48.000
  21334308.020   112112596.566 9     -2302.352          50.000    21334305.240
  87360477.32348     -1794.039          45.500
  25270519.420   132797478.744 6      -952.266          39.000    25270516.740
 103478540.35944      -742.027          32.250
  21658509.860   113816266.321 9     -2136.977          50.000    21658504.960
  88687983.81447     -1665.180          44.250
  23307264.680   122480553.666 8     -2889.637          46.000    23307265.960
  95439418.84045     -2251.668          38.500
  20349296.400   106936323.230 9       340.629          51.500    20349295.960
  83326998.14549       265.422          51.250
 19  1  1  0 13 30.0000000  0  8G07G08G09G16G21G23G26G27
  22557689.580   118541470.149 9      2844.676          50.250    22557687.080
  92369966.28947      2216.625          43.250
  21135677.440   111068769.046 9      2334.086          51.000    21135677.980
  86547121.03248      1818.770          48.500
  21268854.700   111768606.968 9      -592.988          50.000    21268855.040
  87092420.51948      -462.070          48.750
  21347473.360   112181781.504 9     -2309.602          49.500    21347470.820
  87414387.65748     -1799.695          46.250
  25275998.380   132826269.685 6      -966.824          40.000    25275995.500
 103500974.86943      -753.375          31.000
  21670753.620   113880610.865 9     -2152.469          49.250    21670749.320
  88738122.38947     -1677.254          44.750
  23323768.500   122567281.904 8     -2891.824          46.000    23323769.940
  95506999.27146     -2253.375          40.000
  20347412.980   106926426.390 9       319.516          51.500    20347412.580
  83319286.32849       248.973          51.500
 19  1  1  0 14  0.0000000  0  8G07G08G09G16G21G23G26G27
  22541464.680   118456207.427 9      2839.359          50.000    22541462.180
  92303527.81547      2212.488          43.250
  21122399.600   110998992.693 9      2317.578          50.750    21122399.960
  86492749.86848      1805.902          48.500
  21272298.800   111786705.279 9      -613.699          50.250    21272298.860
  87106523.09048      -478.211          48.500
  21360680.200   112251184.434 9     -2317.434          49.750    21360677.720
  87468467.86048     -1805.797          45.750
  25281559.600   132855494.377 5      -982.539          37.000    25281556.140
 103523747.35544      -765.609          33.000
  21683086.000   113945422.074 9     -2168.438          49.500    21683082.500
  88788624.59747     -1689.695          44.000
  23340286.260   122654082.279 8     -2894.883          46.250    23340287.540
  95574635.92646     -2255.758          39.500
  20345649.760   106917160.890 9       297.957          51.500    20345649.380
  83312066.47049       232.176          51.500
 19  1  1  0 14 30.0000000  0  9G07G08G09G16G21G23G26G27G30
  22525266.700   118371085.955 9      2835.039          50.500    22525263.960
  92237199.39347      2209.117          43.000
  21109212.520   110929694.367 9      2302.098          51.000    21109213.040
  86438751.19948      1793.844          48.500
  21275857.360   111805404.991 9      -633.250          50.500    21275857.300
  87121094.29148      -493.445          48.750
  21373928.520   112320804.484 9     -2324.164          50.250    21373925.840
  87522717.25848     -1811.035          45.500
  25287203.020   132885153.007 5      -995.883          37.500    25287199.960
 103546857.95644      -776.012          33.000
  21695507.200   114010698.396 9     -2183.422          49.750    21695504.220
  88839489.24347     -1701.367          44.250
  23356817.560   122740954.670 8     -2896.777          46.000    23356818.660
  95642328.69946     -2257.234          39.250
  20344006.840   106908527.348 9       277.352          51.750    20344006.500
  83305339.04749       216.113          51.500
  25301130.120   132958335.766 5      3372.523          36.750    25301128.760
 103603889.54341      2627.930          25.500
 19  1  1  0 15  0.0000000  0  9G07G08G09G16G21G23G26G27G30
  22509095.100   118286103.873 9      2830.449          49.750    22509092.340
  92170979.60347      2205.543          43.250
  21096116.100   110860872.562 9      2286.164          51.000    21096116.700
  86385123.83148      1781.422          48.250
  21279529.520   111824701.710 9      -653.027          50.250    21279529.380
  87136130.69148      -508.855          48.750
  21387217.240   112390636.646 9     -2331.320          49.750    21387214.420
  87577131.93148     -1816.617          45.750
  25292928.160   132915241.251 5     -1009.906          38.250    25292925.140
 103570303.38944      -786.934          34.000
  21708016.380   114076433.726 9     -2198.797          50.000    21708013.400
  88890711.53547     -1713.352          44.750
  23373361.740   122827894.602 8     -2899.250          45.500    23373362.720
  95710074.10146     -2259.156          40.000
  20342483.460   106900521.940 9       256.391          51.750    20342483.140
  83299101.07049       199.781          51.500
  25281878.360   132857167.397 5      3373.168          36.500    25281874.980
 103525051.42643      2628.441          30.750
 19  1  1  0 15 30.0000000  0  9G07G08G09G16G21G23G26G27G30
  22492947.700   118201248.837 9      2823.063          50.000    22492944.760
  92104858.81047      2199.789          43.000
  21083108.080   110792514.764 9      2267.680          50.750    21083108.680
  86331858.02048      1767.023          48.750
  21283312.400   111844580.729 9      -675.629          50.000    21283312.320
  87151620.83149      -526.469          49.000
  21400543.360   112460665.553 9     -2340.859          49.500    21400540.540
  87631699.91348     -1824.051          45.750
  25298733.000   132945744.112 6     -1026.809          39.250    25298729.920
 103594071.82944      -800.109          32.750
  21720610.180   114142612.075 9     -2216.660          50.000    21720606.880
  88942279.06348     -1727.273          45.250
  23389915.940   122914887.282 8     -2903.969          45.750    23389916.600
  95777860.61446     -2262.832          39.750
  20341076.900   106893130.596 9       232.980          51.500    20341076.660
  83293341.58849       181.543          51.500
  25262618.540   132755953.958 4      3371.320          35.250    25262609.800
 103446162.9114       2627.004          21.750
 19  1  1  0 16  0.0000000  0  8G07G08G09G16G21G23G26G27
  22476830.840   118116553.801 9      2816.859          50.000    22476827.660
  92038862.67847      2194.953          42.750
  21070194.660   110724653.942 9      2250.168          51.000    21070195.160
  86278979.46248      1753.375          48.500
  21287211.820   111865072.319 9      -696.848          50.000    21287211.960
  87167588.29448      -543.004          48.750
  21413912.580   112530920.821 9     -2349.184          49.750    21413909.680
  87686444.27848     -1830.535          45.500
  25304622.420   132976692.495 6     -1043.004          39.750    25304619.960
 103618187.42442      -812.730          27.250
  21733293.880   114209262.199 9     -2233.160          50.750    21733290.040
  88994214.19747     -1740.129          44.500
  23406485.860   123001962.999 8     -2907.492          46.250    23406486.940
  95845711.77346     -2265.582          39.500
  20339793.080   106886384.166 9       210.613          51.750    20339792.820
  83288084.63749       164.113          51.250
 19  1  1  0 16 30.0000000  0  8G07G08G09G16G21G23G26G27
  22460740.740   118032000.774 9      2816.070          50.250    22460737.840
  91972977.22547      2194.336          42.500
  21057372.360   110657272.093 9      2238.016          51.250    21057372.820
  86226474.13848      1743.910          48.250
  21291223.900   111886155.627 9      -712.676          50.250    21291223.940
  87184016.85148      -555.336          48.750
  21427320.660   112601380.734 9     -2352.082          49.750    21427317.800
  87741348.10548     -1832.797          45.750
  25310592.320   133008065.522 5     -1053.031          38.750    25310590.020
 103642633.99643      -820.543          29.250
  21746063.120   114276361.769 9     -2244.129          51.000    21746058.660
  89046499.57347     -1748.676          44.500
  23423067.740   123089100.833 8     -2905.559          46.250    23423068.700
  95913611.37446     -2264.074          40.000
  20338628.240   106880262.380 9       193.723          51.750    20338627.880
  83283314.41949       150.953          51.250
 19  1  1  0 17  0.0000000  0  8G07G08G09G16G21G23G26G27
  22444678.780   117947594.289 9      2810.977          50.250    22444675.680
  91907205.91847      2190.367          42.500
  21044641.860   110590373.353 9      2221.691          51.000    21044642.400
  86174345.27048      1731.188          48.500
  21295348.920   111907832.380 9      -732.656          50.500    21295348.740
  87200907.81248      -570.906          48.500
  21440767.900   112672046.239 9     -2359.207          50.000    21440765.020
  87796412.13748     -1838.344          45.500
  25316643.540   133039865.076 5     -1067.156          38.250    25316641.060
 103667412.89044      -831.555          33.250
  21758917.500   114343910.922 9     -2259.293          50.250    21758912.740
  89099135.25547     -1760.492          44.750
  23439661.780   123176302.548 8     -2907.941          46.250    23439662.800
  95981560.75646     -2265.930          39.750
  20337582.700   106874767.484 9       172.590          51.750    20337582.220
  83279032.69449       134.480          51.500
 19  1  1  0 17 30.0000000  0  8G07G08G09G16G21G23G26G27
  22428645.640   117863340.560 9      2806.109          50.500    22428642.840
  91841553.68247      2186.574          42.500
  21032004.500   110523964.064 9      2205.574          51.000    21032005.100
  86122597.79448      1718.625          48.500
  21299587.480   111930106.329 9      -752.160          50.000    21299587.220
  87218264.13548      -586.098          48.500
  21454254.980   112742920.747 9     -2365.715          49.750    21454252.040
  87851639.03148     -1843.414          45.750
  25322776.660   133072094.724 5     -1081.066          38.000    25322774.300
 103692526.90145      -842.395          36.000
  21771857.500   114411912.116 9     -2274.023          50.750    21771852.860
  89152123.17447     -1771.969          44.750
  23456268.580   123263572.028 8     -2910.051          46.000    23456269.620
  96049562.94446     -2267.574          40.500
  20336657.200   106869904.075 9       151.855          51.750    20336656.760
  83275243.02549       118.324          51.250
 19  1  1  0 18  0.0000000  0 10G07G08G09G11G16G21G23G26G27G30
  22412640.160   117779230.278 9      2800.699          50.500    22412637.100
  91776013.19747      2182.359          42.750
  21019458.540   110458034.920 9      2189.105          51.250    21019459.140
  86071224.47648      1705.797          48.250
  21303937.320   111952965.315 9      -772.219          50.500    21303937.260
  87236076.32248      -601.734          48.000
  25892365.360   136065296.154 5      3617.414          38.500

  21467779.240   112813991.605 9     -2372.738          49.750    21467776.400
  87907018.91648     -1848.887          45.500
  25328989.120   133104743.056 5     -1095.586          38.000    25328986.500
 103717967.12942      -853.711          27.500
  21784881.240   114480351.678 9     -2289.129          51.000    21784876.520
  89205452.70847     -1783.742          44.500
  23472886.260   123350897.149 8     -2912.172          46.500    23472887.100
  96117608.46546     -2269.230          39.750
  20335849.680   106865660.421 9       130.617          51.750    20335849.240
  83271936.29149       101.781          51.250
  25166255.620   132249558.829 5      3377.641          36.000    25166255.220
 103051622.39644      2631.930          32.250
 19  1  1  0 18 30.0000000  0 10G07G08G09G11G16G21G23G26G27G30
  22396664.760   117695279.176 9      2795.344          50.500    22396661.780
  91710596.76847      2178.191          43.250
  21007007.020   110392601.441 9      2172.594          51.250    21007007.560
  86020237.38048      1692.930          48.500
  21308401.000   111976422.540 9      -792.152          50.250    21308401.080
  87254354.67748      -617.266          48.500
  25871697.640   135956688.917 5      3622.102          38.750    25871698.920
 105940292.83342      2822.418          27.750
  21481343.220   112885271.247 9     -2379.797          49.750    21481340.540
  87962561.49348     -1854.391          45.750
  25335284.340   133137823.102 6     -1110.137          39.750    25335281.780
 103743743.80344      -865.039          32.500
  21797990.560   114549241.212 9     -2304.113          50.500    21797985.900
  89259132.84847     -1795.418          44.750
  23489516.980   123438291.277 8     -2914.930          45.750    23489517.640
  96185707.79346     -2271.379          40.500
  20335162.660   106862050.366 9       109.512          51.750    20335162.300
  83269123.26849        85.328          51.250
  25146969.540   132148215.102 4      3377.543          33.250    25146970.720
 102972653.26244      2631.848          32.750
 19  1  1  0 19  0.0000000  0 10G07G08G09G11G16G21G23G26G27G30
  22380719.040   117611482.912 9      2790.953          50.250    22380715.900
  91645300.96547      2174.766          43.000
  20994648.840   110327658.410 9      2156.871          51.000    20994649.180
  85969632.45148      1680.680          48.500
  21312977.140   112000470.263 9      -811.227          50.000    21312977.280
  87273093.15348      -632.125          48.250
  25851003.940   135847939.873 6      3627.879          39.250    25851001.760
 105855553.3984       2826.918          21.000
  21494945.560   112956751.737 9     -2385.719          49.750    21494942.920
  88018260.57448     -1859.004          46.000
  25341660.540   133171327.687 6     -1123.719          39.250    25341657.460
 103769851.25743      -875.629          31.500
  21811183.640   114618572.004 9     -2318.082          49.750    21811179.320
  89313156.81547     -1806.301          44.750
  23506159.120   123525746.809 8     -2915.848          45.750    23506159.960
  96253854.93046     -2272.094          40.750
  20334594.860   106859066.720 9        89.375          51.500    20334594.500
  83266798.36149        69.641          51.500
  25127680.880   132046853.350 5      3379.805          36.750    25127681.760
 102893656.59544      2633.602          32.750
 19  1  1  0 19 30.0000000  0 10G07G08G09G11G16G21G23G26G27G30
  22364802.680   117527842.280 9      2784.996          50.500    22364799.560
  91580126.46347      2170.121          43.250
  20982384.240   110263207.265 9      2139.840          51.250    20982384.400
  85919410.80548      1667.406          48.500
  21317665.300   112025106.639 9      -831.316          50.000    21317665.400
  87292290.32748      -647.777          48.250
  25830283.480   135739050.582 6      3631.629          40.250    25830281.000
 105770704.58242      2829.836          26.750
  21508585.660   113028430.379 9     -2392.875          49.750    21508582.820
  88074114.05348     -1864.578          45.250
  25348116.740   133205255.431 6     -1138.398          39.750    25348113.680
 103796288.42744      -887.066          34.750
  21824459.920   114688340.648 9     -2333.305          49.750    21824455.860
  89367521.98447     -1818.164          44.000
  23522812.580   123613262.128 8     -2918.875          45.250    23522813.520
  96322048.66946     -2274.453          40.500
  20334146.020   106856708.321 9        67.777          51.750    20334145.680
  83264960.65649        52.809          51.250
  25108388.840   131945470.113 5      3379.219          36.250    25108388.760
 102814656.69042      2633.164          27.000
 19  1  1  0 20  0.0000000  0 10G07G08G09G11G16G21G23G26G27G30
  22348917.400   117444363.971 9      2780.258          50.500    22348914.200
  91515078.43247      2166.434          43.500
  20970214.280   110199253.812 9      2123.781          51.000    20970214.460
  85869576.96048      1654.895          48.500
  21322466.140   112050335.571 9      -850.457          50.250    21322466.200
  87311949.22648      -662.699          48.000
  25809537.160   135630028.024 6      3636.129          40.750    25809534.940
 105685751.9844       2833.344          21.500
  21522264.000   113100310.746 9     -2399.051          49.750    21522261.000
  88130124.73048     -1869.391          45.250
  25354654.380   133239609.584 6     -1152.641          40.000    25354651.260
 103823057.96344      -898.160          34.000
  21837819.560   114758549.506 9     -2347.332          49.000    21837816.160
  89422230.15747     -1829.094          44.000
  23539478.000   123700841.301 8     -2920.336          45.000    23539479.380
  96390292.17746     -2275.590          40.750
  20333817.040   106854979.585 9        47.391          51.750    20333816.680
  83263613.59749        36.930          51.250
  25089093.820   131844073.319 4      3380.336          35.250    25089092.820
 102735646.26043      2634.035          29.750
 19  1  1  0 20 30.0000000  0  9G07G08G09G11G16G21G23G26G27
  22333062.900   117361047.909 9      2774.223          50.250    22333059.820
  91450156.84047      2161.727          44.000
  20958138.880   110135797.687 9      2106.688          51.000    20958139.160
  85820130.65148      1641.574          48.750
  21327379.160   112076153.817 9      -870.574          49.750    21327379.180
  87332067.33648      -678.375          48.500
  25788765.560   135520872.254 6      3640.434          41.250    25788763.620
 105600695.5914       2836.699          21.500
  21535980.160   113172389.422 9     -2406.051          49.750    21535977.000
  88186289.92848     -1874.848          45.500
  25361272.560   133274387.632 5     -1166.820          38.000    25361269.060
 103850157.73244      -909.211          35.250
  21851262.120   114829193.852 9     -2362.355          49.250    21851259.280
  89477277.65847     -1840.801          44.250
  23556155.040   123788481.383 8     -2922.781          45.500    23556156.660
  96458583.12146     -2277.496          40.250
  20333607.360   106853877.927 9        25.934          51.500    20333607.060
  83262755.17049        20.207          51.500
 19  1  1  0 21  0.0000000  0  9G07G08G09G11G16G21G23G26G27
  22317238.540   117277890.449 9      2769.473          50.500    22317235.440
  91385358.82347      2158.027          43.500
  20946157.440   110072835.223 9      2090.730          51.000    20946157.800
  85771069.00149      1629.141          49.000
  21332402.880   112102554.861 9      -889.512          49.750    21332402.980
  87352639.56648      -693.129          48.000
  25767967.940   135411579.944 7      3645.637          42.000    25767965.940
 105515532.79543      2840.762          31.500
  21549732.680   113244659.300 9     -2411.914          49.750    21549729.520
  88242604.12948     -1879.340          45.000
  25367970.040   133309583.012 5     -1180.203          38.750    25367966.420
 103877582.69744      -919.641          34.750
  21864786.600   114900265.855 9     -2375.859          49.750    21864783.820
  89532658.41147     -1851.324          43.750
  23572842.700   123876176.093 8     -2923.984          45.000    23572844.540
  96526916.62446     -2278.434          40.000
  20333515.940   106853397.351 9         5.930          51.750    20333515.600
  83262380.70449         4.621          51.250
 19  1  1  0 21 30.0000000  0 10G07G08G09G11G16G21G23G26G27G30
  22301445.060   117194895.845 9      2763.258          50.250    22301442.100
  91320687.71947      2153.188          43.500
  20934270.760   110010370.185 9      2073.391          51.000    20934271.160
  85722394.96049      1615.629          49.000
  21337537.940   112129540.111 9      -909.895          49.750    21337538.040
  87373667.03848      -709.012          48.250
  25747145.320   135302155.886 7      3649.031          43.000    25747143.520
 105430267.27643      2843.402          31.000
  21563521.800   113317121.662 9     -2419.156          49.750    21563518.720
  88299068.29748     -1885.063          45.000
  25374747.700   133345197.709 6     -1195.000          39.500    25374742.940
 103905334.37844      -931.172          34.000
  21878393.120   114971765.733 9     -2390.945          50.250    21878389.740
  89588372.57347     -1863.078          44.250
  23589541.360   123963927.130 8     -2926.594          46.250    23589543.080
  96595294.05146     -2280.465          39.250
  20333543.080   106853539.886 9       -15.703          51.750    20333542.740
  83262491.77949       -12.238          51.250
  25031189.920   131539790.293 4      3381.895          35.250    25031187.900
 102498534.9144       2635.227          22.500
 19  1  1  0 22  0.0000000  0 10G07G08G09G11G16G21G23G26G27G30
  22285683.960   117112070.921 9      2757.559          50.250    22285681.000
  91256148.82447      2148.742          43.750
  20922479.900   109948408.882 9      2056.598          51.000    20922480.340
  85674113.43549      1602.543          49.500
  21342784.900   112157113.104 9      -929.332          49.750    21342784.880
  87395152.48948      -724.160          48.000
  25726298.680   135192606.883 6      3653.395          41.750    25726296.840
 105344904.47343      2846.797          31.750
  21577348.140   113389779.569 9     -2425.539          49.500    21577345.120
  88355684.84248     -1890.066          45.500
  25381605.120   133381235.349 5     -1208.805          37.500    25381601.040
 103933415.64943      -941.930          28.250
  21892081.900   115043695.201 9     -2405.191          51.000    21892077.420
  89644421.50347     -1874.176          44.750
  23606251.460   124051738.473 8     -2928.414          46.500    23606252.840
  96663718.46446     -2281.883          39.500
  20333689.580   106854309.718 9       -36.461          51.500    20333689.240
  83263091.64949       -28.414          51.500
  25011884.060   131438337.254 5      3381.477          37.750    25011881.980
 102419474.65852      2634.918          26.250
 19  1  1  0 22 30.0000000  0 10G07G08G09G11G16G21G23G26G27G30
  22269955.580   117029417.292 9      2752.184          50.500    22269952.480
  91191743.39147      2144.555          44.250
  20910785.220   109886953.029 9      2040.184          51.000    20910785.640
  85626225.78049      1589.750          49.000
  21348143.520   112185272.690 9      -948.477          50.000    21348143.260
  87417095.00748      -739.078          47.750
  25705428.320   135082935.142 6      3657.984          41.750    25705426.720
 105259446.00444      2850.379          33.000
  21591211.380   113462631.440 9     -2431.641          49.750    21591208.300
  88412452.53947     -1894.785          44.750
  25388542.820   133417694.756 5     -1222.293          37.250    25388539.300
 103961825.65843      -952.434          31.250
  21905851.960   115116052.194 9     -2419.008          50.750    21905846.620
  89700803.56147     -1884.945          44.250
  23622972.920   124139609.245 8     -2929.707          46.250    23622974.100
  96732189.18146     -2282.891          39.500
  20333955.220   106855706.212 9       -57.074          51.500    20333954.960
  83264179.83049       -44.477          51.500
  24992577.140   131336876.747 6      3382.000          39.500    24992576.900
 102340414.50244      2635.328          33.000
 19  1  1  0 23  0.0000000  0 10G07G08G09G11G16G21G23G26G27G30
  22254259.160   116946932.203 9      2746.461          50.750    22254256.240
  91127469.30447      2140.094          44.250
  20899185.980   109825998.848 9      2023.145          51.000    20899186.420
  85578729.04449      1576.477          49.000
  21353612.640   112214012.607 9      -967.867          50.000    21353612.340
  87439489.74148      -754.188          47.750
  25684534.340   134973137.834 7      3661.773          42.750    25684532.880
 105173889.66444      2853.328          32.250
  21605110.260   113535670.941 9     -2437.961          49.500    21605107.140
  88469366.42648     -1899.711          45.500
  25395559.760   133454570.599 5     -1235.828          37.250    25395556.460
 103990560.03844      -962.988          34.250
  21919701.460   115188829.288 9     -2433.156          50.250    21919695.680
  89757512.95447     -1895.969          44.000
  23639704.260   124227533.708 8     -2931.848          45.250    23639705.600
  96800701.74046     -2284.559          40.750
  20334339.140   106857723.746 9       -77.719          51.500    20334338.840
  83265751.93749       -60.559          51.500
  24973267.720   131235405.083 5      3382.344          37.750    24973267.640
 102261345.68242      2635.590          27.500
 19  1  1  0 23 30.0000000  0 10G07G08G09G11G16G21G23G26G27G30
  22238595.080   116864617.278 9      2741.129          50.750    22238592.240
  91063327.80947      2135.945          43.750
  20887682.340   109765547.668 9      2006.777          51.000    20887682.920
  85531624.24749      1563.723          49.000
  21359191.780   112243331.530 9      -986.926          49.750    21359191.540
  87462335.64948      -769.035          47.750
  25663616.940   134863217.324 6      3665.988          41.250    25663615.600
 105088237.30044      2856.605          33.750
  21619044.580   113608896.555 9     -2443.867          49.750    21619041.520
  88526425.34648     -1904.316          45.000
  25402656.080   133491857.745 6     -1249.988          39.000    25402653.520
 104019616.10843      -974.016          29.000
  21933629.380   115262023.032 9     -2446.559          49.500    21933623.840
  89814547.00647     -1906.414          43.500
  23656445.720   124315510.892 8     -2933.398          46.000    23656446.880
  96869255.37145     -2285.770          38.750
  20334841.240   106860361.611 9       -98.172          51.750    20334840.840
  83267807.41849       -76.496          51.500
  24953956.280   131133923.349 5      3382.934          38.500    24953955.860
 102182269.05244      2636.055          33.250
 19  1  1  0 24  0.0000000  0 10G07G08G09G11G16G21G23G26G27G30
  22222964.460   116782477.416 9      2734.809          51.000    22222961.460
  90999322.72047      2131.020          43.500
  20876275.400   109705604.149 9      1989.387          51.250    20876276.040
  85484915.02849      1550.168          49.250
  21364881.440   112273231.169 9     -1006.430          50.250    21364881.280
  87485634.06348      -784.230          47.750
  25642676.820   134753178.140 6      3669.793          40.250    25642675.720
 105002492.53144      2859.578          33.500
  21633014.600   113682309.621 9     -2450.344          49.750    21633011.700
  88583630.33347     -1909.363          44.500
  25409831.560   133529566.072 5     -1263.902          38.750    25409828.880
 104048999.25041      -984.867          25.000
  21947635.880   115335634.812 8     -2460.934          48.500    21947631.760
  89871906.78447     -1917.613          43.250
  23673197.800   124403542.963 8     -2935.402          45.250    23673198.860
  96937851.81045     -2287.328          37.250
  20335461.780   106863622.053 9      -119.313          51.750    20335461.380
  83270348.02949       -92.977          51.500
  24934643.580   131032435.836 5      3383.305          38.000    24934644.160
 102103187.90344      2636.336          34.500
 19  1  1  0 24 30.0000000  0 10G07G08G09G11G16G21G23G26G27G30
  22207367.660   116700515.295 9      2729.344          51.000    22207364.620
  90935456.14547      2126.762          44.250
  20864965.580   109646170.375 9      1972.871          51.500    20864966.180
  85438603.00549      1537.297          49.250
  21370681.740   112303711.302 9     -1025.336          50.250    21370681.420
  87509384.81448      -798.969          47.750
  25621715.220   134643023.750 6      3674.008          41.250    25621714.120
 104916657.98444      2862.859          32.000
  21647020.260   113755909.782 9     -2456.121          50.000    21647017.400
  88640981.10047     -1913.863          44.750
  25417086.520   133567691.286 5     -1278.297          37.250    25417083.540
 104078707.27544      -996.078          34.750
  21961721.540   115409662.663 8     -2474.285          48.500    21961718.800
  89929590.75747     -1928.020          43.500
  23689959.840   124491630.237 7     -2936.816          43.250    23689961.340
  97006491.23146     -2288.430          39.000
  20336200.740   106867505.419 9      -139.516          51.750    20336200.340
  83273374.03649      -108.715          51.500
  24915330.100   130930944.987 5      3383.500          38.000    24915331.560
 102024104.10943      2636.492          29.500
 19  1  1  0 25  0.0000000  0 10G07G08G09G11G16G21G23G26G27G30
  22191804.140   116618727.839 9      2722.824          50.750    22191800.960
  90871725.64947      2121.676          44.500
  20853752.120   109587243.151 9      1955.230          51.000    20853752.740
  85392685.70949      1523.555          49.250
  21376591.300   112334765.429 9     -1045.258          49.750    21376590.540
  87533582.83548      -814.492          47.750
  25600731.240   134532751.402 6      3676.965          39.500    25600729.860
 104830731.44945      2865.160          36.250
  21661060.360   113829690.648 9     -2462.824          49.750    21661057.360
  88698472.68048     -1919.082          45.000
  25424419.860   133606227.126 5     -1290.980          36.750    25424416.440
 104108735.13243     -1005.961          30.750
  21975886.240   115484098.758 9     -2488.516          49.500    21975883.660
  89987592.86247     -1939.105          43.500
  23706731.600   124579766.699 7     -2939.172          44.500    23706733.120
  97075168.98145     -2290.266          38.750
  20337057.000   106872005.813 9      -160.832          51.500    20337056.760
  83276880.83349      -125.328          51.500
  24896015.740   130829446.817 6      3382.785          39.250    24896016.380
 101945014.67644      2635.938          34.000
 19  1  1  0 25 30.0000000  0  9G07G08G09G11G16G23G26G27G30
  22176274.640   116537119.739 9      2716.887          51.000    22176271.540
  90808134.93647      2117.063          44.250
  20842635.540   109528825.888 9      1938.375          51.000    20842636.320
  85347165.77949      1510.422          49.250
  21382610.260   112366394.794 9     -1064.336          50.000    21382609.440
  87558229.09648      -829.355          47.750
  25579725.580   134422365.801 5      3680.789          37.750    25579724.640
 104744716.78643      2868.148          31.000
  21675135.040   113903652.829 9     -2468.934          49.750    21675131.720
  88756105.55847     -1923.844          44.250
  21990129.500   115558942.873 9     -2501.992          50.000    21990125.960
  90045912.93647     -1949.609          43.000
  23723513.280   124667954.142 7     -2940.703          43.750    23723514.840
  97143886.43845     -2291.461          37.000
  20338031.040   106877125.072 9      -181.387          51.750    20338031.000
  83280869.87449      -141.344          51.500
  24876700.740   130727945.305 5      3383.406          38.750    24876700.980
 101865922.57844      2636.422          34.750
 19  1  1  0 26  0.0000000  0 10G07G08G09G11G16G21G23G26G27G30
  22160780.000   116455694.785 9      2711.203          50.500    22160776.840
  90744686.93347      2112.625          44.500
  20831616.840   109470922.502 9      1921.699          51.250    20831617.680
  85302046.28649      1497.430          49.250
  21388738.740   112398600.353 9     -1082.973          50.000    21388738.120
  87583324.32048      -843.879          47.250
  25558699.000   134311871.334 5      3685.359          38.500    25558697.520
 104658617.21043      2871.707          31.750
  21689244.400   113977797.625 9     -2474.348          50.000    21689240.960
  88813880.73147     -1928.063          44.750
  25439321.760   133684537.993 5     -1319.195          36.750    25439318.000
 104169754.36443     -1027.945          30.750
  22004450.440   115634194.955 9     -2515.070          50.500    22004445.920
  90104550.90347     -1959.801          43.500
  23740305.220   124756194.123 7     -2942.246          44.500    23740306.300
  97212644.85346     -2292.664          39.000
  20339123.300   106882864.742 9      -201.535          51.750    20339123.160
  83285342.34849      -157.039          51.250
  24857385.400   130626444.048 6      3383.121          40.250    24857385.540
 101786830.75142      2636.195          27.500
 19  1  1  0 26 30.0000000  0 10G07G08G09G11G16G21G23G26G27G30
  22145319.380   116374449.299 9      2704.902          50.500    22145316.520
  90681378.77047      2107.711          44.750
  20820695.120   109413528.182 9      1904.363          51.250    20820695.860
  85257323.46149      1483.918          49.500
  21394975.420   112431374.719 9     -1102.258          50.000    21394975.000
  87608862.78548      -858.906          47.750
  25537651.380   134201264.453 4      3689.922          35.500    25537650.280
 104572430.04744      2875.266          35.750
  21703387.060   114052117.637 9     -2480.555          49.500    21703383.660
  88871792.42548     -1932.902          45.250
  25446889.700   133724307.518 5     -1332.699          36.250    25446886.120
 104200743.63744     -1038.484          32.000
  22018846.940   115709846.293 9     -2528.621          50.250    22018841.780
  90163499.98947     -1970.359          43.250
  23757105.720   124844479.883 8     -2944.074          45.250    23757106.640
  97281438.97645     -2294.082          38.000
  20340332.320   106889218.035 9      -222.352          51.750    20340332.080
  83290292.96449      -173.266          51.500
  24838069.640   130524938.358 5      3383.602          38.500    24838068.320
 101707735.3574       2636.574          17.750
 19  1  1  0 27  0.0000000  0 10G07G08G09G11G16G21G23G26G27G30
  22129895.240   116293395.792 9      2698.832          50.750    22129892.480
  90618220.19947      2102.980          44.500
  20809872.520   109356654.966 9      1887.211          51.250    20809873.200
  85213006.68149      1470.555          49.250
  21401322.120   112464727.086 9     -1120.895          49.750    21401321.900
  87634851.63448      -873.430          48.000
  25516584.380   134090554.958 5      3692.020          37.250    25516583.520
 104486143.27344      2876.891          35.000
  21717564.680   114126622.040 9     -2486.223          49.750    21717561.480
  88929847.80047     -1937.320          44.500
  25454536.560   133764493.573 4     -1346.219          33.750    25454534.140
 104232057.44243     -1049.012          30.500
  22033320.400   115785904.986 9     -2541.852          49.500    22033315.480
  90222766.47747     -1980.668          43.000
  23773916.640   124932821.204 8     -2945.594          45.000    23773917.340
  97350276.32446     -2295.273          39.250
  20341660.000   106896194.681 9      -242.641          51.750    20341659.660
  83295729.32449      -189.074          51.500
  24818754.980   130423440.155 5      3383.461          38.750    24818754.180
 101628645.83144      2636.469          32.000
 19  1  1  0 27 30.0000000  0  9G07G08G09G16G21G23G26G27G30
  22114506.000   116212525.479 9      2692.184          50.500    22114503.320
  90555204.37447      2097.801          44.750
  20799147.220   109300293.247 9      1869.781          51.000    20799147.920
  85169088.47049      1456.969          49.750
  21407776.620   112498645.368 9     -1140.496          50.000    21407776.380
  87661281.46048      -888.703          47.500
  21731775.160   114201298.595 9     -2492.582          49.500    21731771.920
  88988037.31947     -1942.277          44.750
  25462260.540   133805083.548 5     -1360.152          37.500    25462258.780
 104263685.96345     -1059.863          36.250
  22047868.240   115862357.591 8     -2555.449          48.750    22047864.140
  90282339.87447     -1991.262          43.750
  23790735.960   125021206.607 8     -2947.570          45.000    23790736.460
  97419148.04645     -2296.813          37.500
  20343104.000   106903783.170 9      -263.699          51.750    20343103.660
  83301642.43249      -205.480          51.500
  24799440.480   130321940.164 6      3382.660          39.500    24799439.480
 101549554.90743      2635.840          29.250
 19  1  1  0 28  0.0000000  0 10G07G08G09G11G16G21G23G26G27G30
  22099152.940   116131844.396 9      2686.195          51.000    22099150.020
  90492335.99747      2093.137          44.500
  20788520.280   109244448.487 9      1852.840          51.250    20788521.040
  85125573.08149      1443.766          49.250
  21414339.340   112533132.206 9     -1158.891          50.000    21414338.780
  87688154.31748      -903.035          47.750
  25474390.660   133868824.286 4      3698.844          34.500    25474390.480
 104313369.27244      2882.207          32.250
  21746018.980   114276150.154 9     -2497.969          49.500    21746015.660
  89046363.21347     -1946.469          44.250
  25470062.920   133846081.540 5     -1372.531          38.250    25470060.660
 104295632.39543     -1069.508          31.750
  22062491.620   115939205.697 9     -2568.047          49.250    22062488.060
  90342221.47047     -2001.078          43.500
  23807564.260   125109639.590 7     -2948.488          44.500    23807564.820
  97488056.83345     -2297.527          37.500
  20344665.120   106911986.785 9      -283.613          51.500    20344664.700
  83308034.86449      -220.996          51.500
  24780126.560   130220443.844 5      3383.199          38.250    24780126.020
 101470466.88243      2636.258          30.250
 19  1  1  0 28 30.0000000  0 10G07G08G09G11G16G21G23G26G27G30
  22083837.840   116051362.393 9      2679.703          51.000    22083834.940
  90429622.75348      2088.082          45.000
  20777993.520   109189130.337 9      1835.262          51.000    20777994.300
  85082468.06049      1430.074          49.500
  21421011.520   112568194.302 9     -1178.301          49.750    21421011.000
  87715475.43748      -918.156          48.000
  25453266.640   133757817.980 5      3701.551          38.500    25453266.400
 104226869.16444      2884.320          32.250
  21760297.240   114351183.571 9     -2504.008          49.250    21760294.120
  89104830.80747     -1951.180          44.750
  25477943.780   133887494.428 5     -1387.180          38.500    25477941.060
 104327902.21744     -1080.922          35.000
  22077191.540   116016454.314 9     -2581.563          49.250    22077187.940
  90402415.15047     -2011.641          42.750
  23824402.360   125198127.506 7     -2950.180          42.250    23824403.400
  97557008.41746     -2298.844          39.250
  20346344.680   106920812.749 9      -304.414          51.500    20346344.200
  83314912.25249      -237.207          51.500
  24760815.020   130118960.693 5      3382.633          38.750    24760814.420
 101391389.14544      2635.809          33.750
 19  1  1  0 29  0.0000000  0 10G07G08G09G11G16G21G23G26G27G30
  22068558.140   115971066.100 9      2673.695          51.250    22068555.040
  90367054.20547      2083.402          44.250
  20767564.280   109134324.490 9      1818.621          51.250    20767565.020
  85039762.23549      1417.105          49.000
  21427789.880   112603814.719 9     -1196.254          50.000    21427789.560
  87743231.60648      -932.148          47.250
  25432122.600   133646704.777 6      3705.680          39.250    25432121.860
 104140287.23442      2887.531          26.000
  21774606.860   114426381.570 9     -2509.125          49.500    21774603.820
  89163426.65547     -1955.168          43.500
  25485899.940   133929305.219 5     -1399.840          38.000    25485896.900
 104360482.04843     -1090.789          28.250
  22091964.420   116094085.534 9     -2593.746          49.500    22091960.580
  90462906.97347     -2021.105          42.000
  23841248.160   125286654.219 7     -2951.242          43.750    23841249.580
  97625990.25545     -2299.668          37.750
  20348139.580   106930244.715 9      -323.988          51.750    20348139.000
  83322261.83249      -252.457          51.250
  24741503.260   130017476.667 5      3383.398          38.750    24741502.740
 101312310.71444      2636.410          33.000
 19  1  1  0 29 30.0000000  0 10G07G08G09G11G16G21G23G26G27G30
  22053316.180   115890969.141 9      2666.758          50.750    22053313.160
  90304640.98848      2077.992          45.000
  20757234.960   109080043.507 9      1800.789          51.250    20757235.680
  84997465.37849      1403.207          49.500
  21434676.340   112640003.445 9     -1215.250          50.000    21434675.900
  87771430.59848      -946.953          47.250
  25410961.480   133535501.881 6      3708.578          39.750    25410960.340
 104053635.69642      2889.805          26.000
  21788949.800   114501754.646 9     -2515.031          49.250    21788946.640
  89222158.91847     -1959.766          43.750
  25493933.600   133971524.434 6     -1414.164          39.250    25493930.360
 104393380.12143     -1101.949          30.000
  22106811.860   116172108.344 9     -2606.984          49.750    22106807.780
  90523703.93947     -2031.422          42.750
  23858103.580   125375230.407 7     -2953.098          44.000    23858105.240
  97695010.66145     -2301.113          38.250
  20350051.860   106940293.257 9      -344.902          51.750    20350051.260
  83330091.87149      -268.758          51.500
  24722193.600   129916004.720 5      3382.277          38.750    24722193.260
 101233241.72444      2635.531          34.000
 19  1  1  0 30  0.0000000  0 10G07G08G09G11G16G21G23G26G27G30
  22038111.400   115811067.830 9      2659.867          50.750    22038108.540
  90242380.23047      2072.625          44.750
  20747004.680   109026282.605 9      1783.074          51.500    20747005.300
  84955573.74649      1389.406          49.250
  21441669.580   112676752.840 9     -1234.563          49.750    21441669.080
  87800066.48748      -962.000          47.250
  25389782.320   133424204.553 6      3711.586          39.000    25389781.280
 103966910.51344      2892.148          34.750
  21803324.740   114577295.206 9     -2521.086          49.250    21803321.540
  89281021.69547     -1964.488          43.500
  25502043.780   134014145.160 6     -1427.313          40.250    25502040.680
 104426591.08343     -1112.195          30.250
  22121732.040   116250513.859 9     -2620.055          49.750    22121727.740
  90584799.12247     -2041.605          42.000
  23874966.840   125463849.291 7     -2954.969          42.750    23874969.060
  97764064.30045     -2302.582          38.250
  20352079.980   106950951.336 9      -365.703          51.750    20352079.520
  83338396.86149      -284.965          51.250
  24702885.480   129814540.101 5      3381.914          37.500    24702884.560
 101154178.31943      2635.254          28.750
 19  1  1  0 30 30.0000000  0 10G07G08G09G11G16G21G23G26G27G30
  22022944.460   115731366.026 9      2653.320          50.750    22022941.800
  90180274.93147      2067.520          44.500
  20736874.160   108973045.877 9      1765.758          51.500    20736874.700
  84914090.58949      1375.914          49.250
  21448769.660   112714063.829 9     -1253.059          50.000    21448769.120
  87829139.97848      -976.414          47.250
  25368585.940   133312817.260 5      3714.504          38.500    25368584.400
 103880115.23542      2894.410          27.000
  21817731.720   114653004.462 9     -2526.301          49.250    21817728.540
  89340015.92547     -1968.547          43.500
  25510231.300   134057168.653 6     -1440.945          40.000    25510228.220
 104460115.90344     -1122.820          33.500
  22136725.060   116329301.778 9     -2632.543          49.750    22136720.460
  90646192.28547     -2051.336          42.250
  23891838.740   125552512.680 7     -2956.336          44.750    23891840.540
  97833152.63345     -2303.641          38.500
  20354224.400   106962220.421 9      -385.785          51.750    20354223.840
  83347177.97549      -300.613          51.250
  24683579.240   129713086.647 5      3381.719          38.500    24683579.440
 101075123.75444      2635.109          33.750
 19  1  1  0 31  0.0000000  0 10G07G08G09G11G16G21G23G26G27G30
  22007815.720   115651864.541 9      2646.629          50.750    22007813.180
  90118325.72847      2062.383          44.750
  20726843.220   108920332.827 9      1748.477          51.250    20726843.700
  84873015.50749      1362.449          49.250
  21455976.040   112751933.866 9     -1271.625          50.000    21455975.460
  87858649.08648      -990.879          46.750
  25347372.720   133201341.594 6      3717.152          39.250    25347371.820
 103793251.16144      2896.480          35.000
  21832170.380   114728879.978 9     -2531.738          49.000    21832167.160
  89399139.70647     -1972.781          43.250
  25518494.860   134100592.454 6     -1454.043          39.500    25518491.100
 104493952.61245     -1133.023          36.000
  22151790.080   116408468.488 9     -2645.063          49.500    22151785.560
  90707880.59347     -2061.090          42.250
  23908719.500   125641218.759 8     -2957.414          45.250    23908720.960
  97902274.25345     -2304.480          37.750
  20356484.680   106974098.495 9      -405.969          51.750    20356484.060
  83356433.61749      -316.340          51.250
  24664275.540   129611644.940 5      3381.301          38.250    24664276.360
 100996078.26644      2634.781          32.250
 19  1  1  0 31 30.0000000  0 10G07G08G09G11G16G21G23G26G27G30
  21992726.060   115572568.946 9      2639.734          50.750    21992723.700
  90056536.96547      2056.938          44.250
  20716912.740   108868147.986 9      1730.727          51.250    20716913.260
  84832352.02649      1348.617          49.500
  21463289.060   112790364.329 9     -1290.398          49.750    21463288.140
  87888594.90848     -1005.508          47.000
  25326144.060   133089782.763 6      3719.930          41.750    25326143.320
 103706322.21344      2898.645          33.000
  21846640.960   114804923.473 9     -2537.617          49.250    21846637.780
  89458394.38147     -1977.414          43.500
  25526834.460   134144418.013 5     -1467.215          38.250    25526831.300
 104528102.3614      -1143.289          23.750
  22166927.200   116488014.273 9     -2657.895          49.500    22166922.680
  90769864.28347     -2071.090          42.250
  23925608.520   125729969.986 8     -2958.969          45.000    23925609.980
  97971431.06346     -2305.695          39.500
  20358861.260   106986587.576 9      -426.555          51.750    20358860.620
  83366165.38149      -332.383          51.250
  24644974.500   129510219.253 5      3380.777          37.750    24644975.260
 100917045.32145      2634.371          36.750
 19  1  1  0 32  0.0000000  0 10G07G08G09G11G16G21G23G26G27G30
  21977674.800   115493474.128 9      2633.000          50.500    21977672.380
  89994904.63748      2051.688          45.000
  20707081.800   108816485.701 9      1713.211          51.500    20707082.260
  84792095.72449      1334.969          49.500
  21470706.980   112829346.887 9     -1308.633          49.750    21470706.220
  87918970.92848     -1019.719          47.250
  25304898.880   132978136.687 6      3722.762          41.500    25304897.540
 103619325.30244      2900.852          32.000
  21861142.000   114881127.016 8     -2542.996          48.750    21861138.800
  89517773.76347     -1981.559          43.250
  25535249.280   134188638.466 5     -1480.863          38.500    25535245.920
 104562559.93344     -1153.922          33.000
  22182134.680   116567929.628 9     -2670.113          49.750    22182130.080
  90832135.95547     -2080.613          42.750
  23942504.740   125818758.818 8     -2960.305          45.500    23942506.180
  98040617.16645     -2306.730          38.250
  20361352.540   106999679.845 9      -446.563          51.500    20361352.060
  83376367.14949      -347.973          51.250
  24625676.260   129408804.373 5      3380.520          38.250    24625677.040
 100838020.76644      2634.168          34.750
 19  1  1  0 32 30.0000000  0 10G07G08G09G11G16G21G23G26G27G30
  21962663.740   115414590.299 9      2625.258          51.000    21962661.340
  89933436.73148      2045.652          45.000
  20697352.080   108765355.109 9      1694.750          51.500    20697352.460
  84752253.73249      1320.586          49.750
  21478231.320   112868887.731 9     -1327.957          50.000    21478230.680
  87949781.96448     -1034.777          46.750
  25283638.460   132866413.009 7      3724.090          42.000    25283637.300
 103532267.92443      2901.883          30.500
  21875674.680   114957497.022 9     -2549.078          49.000    21875671.420
  89577282.85547     -1986.293          43.250
  25543740.340   134233259.926 5     -1495.141          38.250    25543737.480
 104597329.96543     -1165.047          29.500
  22197413.500   116648219.518 9     -2683.180          49.500    22197408.920
  90894699.47147     -2090.793          42.750
  23959409.280   125907592.445 7     -2962.613          44.250    23959410.580
  98109838.17845     -2308.535          38.250
  20363959.960   107013382.111 9      -467.566          51.500    20363959.540
  83387044.24549      -364.336          51.250
  24606381.840   129307409.640 5      3378.242          37.250    24606381.220
 100759011.82844      2632.387          32.000
 19  1  1  0 33  0.0000000  0  9G07G08G09G11G16G23G26G27G30
  21947692.940   115335917.160 9      2618.879          51.000    21947690.200
  89872132.97848      2040.680          45.250
  20687723.300   108714754.607 9      1677.762          51.500    20687723.420
  84712824.77949      1307.348          50.000
  21485861.300   112908982.903 9     -1345.887          49.750    21485860.640
  87981024.95348     -1048.746          47.500
  25262363.420   132754611.969 7      3727.973          43.250    25262361.400
 103445150.18742      2904.906          27.250
  21890238.480   115034029.748 9     -2553.750          49.000    21890235.260
  89636918.74147     -1989.953          43.000
  22212762.480   116728878.637 9     -2694.793          49.500    22212757.920
  90957550.67547     -2099.844          42.500
  23976321.620   125996467.969 7     -2963.305          44.000    23976323.080
  98179091.77845     -2309.074          38.500
  20366682.840   107027691.000 9      -487.164          51.500    20366682.420
  83398194.03349      -379.613          51.500
  24587090.760   129206034.118 4      3379.043          33.000    24587089.300
 100680017.87445      2633.016          36.750
 19  1  1  0 33 30.0000000  0  9G07G08G09G11G16G21G23G26G27
  21932762.940   115257458.632 9      2612.020          51.250    21932760.100
  89810996.46948      2035.340          45.250
  20678195.880   108664687.419 9      1660.270          51.500    20678195.940
  84673811.40049      1293.715          49.750
  21493596.960   112949632.967 9     -1363.980          50.000    21493596.300
  88012700.32948     -1062.848          47.500
  25241074.280   132642738.029 7      3730.523          42.750    25241072.920
 103357975.69743      2906.902          31.750
  21904833.400   115110726.042 9     -2559.176          49.250    21904830.040
  89696682.08147     -1994.078          43.500
  25560949.680   134323696.464 4     -1519.547          34.500    25560947.100
 104667802.9664      -1184.078          20.500
  22228181.740   116809906.867 9     -2706.762          49.250    22228177.080
  91020689.53347     -2109.168          42.500
  23993242.200   126085386.822 8     -2964.449          45.000    23993243.680
  98248379.13645     -2309.965          38.500
  20369521.360   107042607.605 9      -507.086          51.750    20369520.940
  83409817.35749      -395.137          51.000
 19  1  1  0 34  0.0000000  0 10G07G08G09G11G16G18G23G26G27G30
  21917872.040   115179206.388 9      2604.777          51.250    21917869.160
  89750020.69247      2029.691          44.750
  20668768.120   108615144.682 9      1642.371          51.500    20668768.200
  84635206.67249      1279.766          49.750
  21501435.740   112990825.516 9     -1382.527          50.000    21501435.260
  88044798.41848     -1077.297          47.500
  25219769.880   132530783.163 7      3732.797          42.500    25219768.660
 103270738.17844      2908.672          33.750
  21919457.260   115187574.209 9     -2564.410          49.250    21919453.740
  89756563.76447     -1998.246          42.750
  25346228.980   133195338.275 5      3591.148          36.750    25346230.720
 103788574.29942      2798.301          27.500
  22243668.380   116891290.758 9     -2718.926          49.000    22243664.040
  91084105.50347     -2118.648          42.500
  24010169.340   126174337.635 8     -2965.840          45.750    24010170.540
  98317691.43245     -2311.047          38.500
  20372473.240   107058120.033 9      -527.301          51.500    20372472.820
  83421904.97449      -410.887          51.250
  24548519.220   129003335.621 6      3377.426          40.750    24548519.560
 100522081.67044      2631.766          34.000
 19  1  1  0 34 30.0000000  0 10G07G08G09G11G16G18G23G26G27G30
  21903023.360   115101175.919 9      2597.535          51.000    21903020.600
  89689217.73548      2024.055          45.500
  20659442.740   108566140.262 9      1624.711          51.500    20659442.920
  84597021.42649      1266.008          49.500
  21509379.960   113032572.372 9     -1400.777          50.500    21509379.440
  88077328.43548     -1091.516          47.250
  25198452.980   132418762.739 7      3735.082          42.000    25198451.860
 103183449.57744      2910.449          33.000
  21934112.240   115264586.244 9     -2569.656          49.250    21934108.380
  89816573.16047     -2002.328          42.500
  25325718.980   133087553.701 6      3595.871          39.500    25325718.480
 103704586.29244      2801.969          32.750
  22259224.660   116973041.190 9     -2730.773          49.250    22259220.540
  91147807.08946     -2127.879          41.750
  24027105.020   126263333.379 8     -2967.258          45.750    24027105.920
  98387038.76946     -2312.152          39.000
  20375540.860   107074240.800 9      -547.270          51.750    20375540.540
  83434466.60949      -426.449          51.250
  24529241.520   128902025.657 6      3376.383          39.000    24529240.800
 100443138.77044      2630.949          34.000
 19  1  1  0 35  0.0000000  0 10G07G08G09G11G16G18G23G26G27G30
  21888214.680   115023356.119 9      2589.895          51.000    21888211.980
  89628578.92648      2018.102          45.250
  20650217.440   108517662.444 9      1606.516          51.250    20650217.900
  84559246.52349      1251.828          49.500
  21517426.720   113074858.465 9     -1418.969          50.000    21517426.140
  88110278.62348     -1105.695          47.500
  25177121.700   132306666.726 7      3737.070          42.750    25177120.280
 103096102.03843      2912.004          29.000
  21948795.460   115341747.646 9     -2575.063          49.000    21948791.960
  89876698.92147     -2006.547          43.000
  25305183.720   132979641.075 6      3599.078          39.000    25305184.000
 103620498.55644      2804.477          33.250
  22274847.880   117055141.760 9     -2743.105          49.000    22274843.780
  91211781.53147     -2137.488          42.750
  24044046.240   126352360.070 8     -2968.762          45.000    24044047.060
  98456410.18645     -2313.324          37.750
  20378721.580   107090955.352 9      -567.648          51.750    20378721.280
  83447490.93949      -442.328          51.500
  24509965.520   128800732.568 6      3375.270          39.000    24509964.940
 100364209.10244      2630.078          34.750
 19  1  1  0 35 30.0000000  0 10G07G08G09G11G16G18G23G26G27G30
  21873448.560   114945760.181 9      2583.258          51.000    21873446.060
  89568114.56348      2012.930          45.250
  20641094.740   108469723.491 9      1589.066          51.250    20641095.460
  84521891.51749      1238.234          49.750
  21525577.960   113117693.804 9     -1436.676          50.000    21525577.460
  88143656.79948     -1119.492          47.250
  25155778.860   132194508.483 7      3739.930          44.000    25155777.300
 103008706.01344      2914.230          32.750
  21963509.060   115419068.869 8     -2579.617          48.750    21963505.920
  89936949.21947     -2010.094          43.250
  25284627.160   132871614.682 6      3602.750          40.000    25284626.920
 103536322.13643      2807.336          28.500
  22290539.520   117137601.278 9     -2754.230          49.500    22290535.220
  91276035.67647     -2146.156          42.000
  24060995.380   126441428.657 7     -2969.340          44.500    24060996.080
  98525814.28645     -2313.770          37.500
  20382017.360   107108274.197 9      -587.063          51.750    20382016.980
  83460986.14949      -457.457          51.500
  24490696.240   128699469.732 6      3375.285          39.750    24490695.320
 100285303.0044       2630.098          21.750
 19  1  1  0 36  0.0000000  0  9G07G08G09G11G16G18G23G26G27
  21858724.520   114868385.278 9      2575.719          50.750    21858721.880
  89507822.42948      2007.055          45.250
  20632073.820   108422318.988 9      1571.609          51.250    20632074.720
  84484952.96849      1224.629          50.000
  21533832.380   113161070.911 9     -1454.652          49.750    21533832.060
  88177457.13648     -1133.500          47.750
  25134423.660   132082285.388 7      3742.215          43.750    25134421.900
 102921259.47244      2916.012          33.750
  21978251.760   115496542.984 9     -2584.637          49.000    21978249.020
  89997318.65147     -2014.004          43.250
  25264048.060   132763468.296 6      3606.852          40.250    25264048.620
 103452053.55144      2810.539          32.250
  22306297.940   117220411.683 9     -2765.809          49.000    22306293.480
  91340563.25246     -2155.180          41.750
  24077951.260   126530533.028 8     -2970.340          45.250    24077952.260
  98595246.23045     -2314.555          38.500
  20385426.760   107126190.497 9      -606.863          51.750    20385426.360
  83474946.90249      -472.883          51.250
 19  1  1  0 36 30.0000000  0 11G07G08G09G11G16G18G21G23G26G27G30
  21844042.900   114791233.057 9      2567.301          51.000    21844040.320
  89447703.82148      2000.488          45.750
  20623154.900   108375449.573 9      1552.543          51.500    20623155.800
  84448431.38749      1209.773          50.000
  21542189.360   113204987.721 9     -1473.559          49.750    21542189.480
  88211678.01948     -1148.230          48.000
  25113056.260   131969998.609 7      3743.160          43.250    25113054.760
 102833763.28744      2916.746          33.250
  21993023.440   115574168.345 9     -2590.773          49.000    21993020.780
  90057805.93347     -2018.789          43.750
  25243447.340   132655210.551 6      3609.586          41.500    25243447.960
 103367696.85244      2812.660          33.000
  25614365.180   134604397.337 4     -1600.313          35.750    25614364.240
 104886540.26342     -1246.996          27.750
  22322122.440   117303569.542 9     -2778.457          49.250    22322118.100
  91405361.55947     -2165.035          42.750
  24094913.960   126619672.171 7     -2972.652          44.000    24094914.780
  98664705.28746     -2316.355          39.750
  20388949.540   107144702.723 9      -627.699          51.750    20388949.080
  83489372.01749      -489.117          51.500
  24452171.460   128497026.406 6      3372.898          39.250    24452170.880
 100127550.63845      2628.234          37.000
 19  1  1  0 37  0.0000000  0 10G07G08G09G11G16G18G23G26G27G30
  21829405.060   114714310.221 9      2560.188          51.250    21829402.200
  89387763.94748      1994.949          45.500
  20614339.040   108329120.973 9      1535.230          51.750    20614339.720
  84412331.20249      1196.281          49.750
  21550649.680   113249447.444 9     -1491.090          49.750    21550649.960
  88246321.95148     -1161.891          47.250
  25091678.120   131857655.775 7      3745.625          43.500    25091676.820
 102746223.46343      2918.672          31.500
  22007824.620   115651949.037 8     -2595.227          48.750    22007821.940
  90118414.26047     -2022.254          43.250
  25222826.000   132546846.036 6      3613.922          41.250    25222827.380
 103283256.94844      2816.047          32.750
  22338013.520   117387077.158 9     -2789.441          49.000    22338009.260
  91470432.41046     -2173.594          41.750
  24111883.980   126708850.475 7     -2973.313          44.250    24111884.900
  98734194.82745     -2316.871          38.000
  20392586.380   107163814.619 9      -647.152          51.750    20392585.920
  83504264.40849      -504.277          51.250
  24432918.620   128395850.880 6      3371.801          39.250    24432918.200
 100048712.55545      2627.375          36.500
 19  1  1  0 37 30.0000000  0 10G07G08G09G11G16G18G23G26G27G30
  21814810.440   114637614.925 9      2552.844          51.250    21814807.600
  89328001.38948      1989.230          46.000
  20605625.600   108283330.383 9      1517.590          51.500    20605626.000
  84376650.22149      1182.535          50.000
  21559212.220   113294444.027 9     -1508.672          49.750    21559212.360
  88281384.21748     -1175.594          47.750
  25070288.880   131745255.485 7      3747.797          42.500    25070287.160
 102658638.80344      2920.352          32.750
  22022654.180   115729879.471 9     -2600.113          49.000    22022651.360
  90179139.26447     -2026.066          43.000
  25202184.320   132438373.338 6      3617.559          41.750    25202184.960
 103198732.74243      2818.867          29.250
  22353969.780   117470927.652 8     -2800.574          48.500    22353965.380
  91535770.44146     -2182.270          41.750
  24128860.520   126798063.213 7     -2974.102          44.250    24128861.280
  98803711.20345     -2317.484          38.250
  20396336.360   107183520.763 9      -666.645          51.750    20396335.900
  83519619.84549      -519.465          51.500
  24413671.540   128294706.600 5      3370.891          38.000    24413670.680
  99969898.86245      2626.664          38.000
 19  1  1  0 38  0.0000000  0 11G07G08G09G11G16G18G21G23G26G27G30
  21800260.560   114561153.752 9      2545.184          51.250    21800257.520
  89268421.25648      1983.262          46.000
  20597015.340   108238082.707 9      1499.531          51.500    20597015.640
  84341392.30049      1168.465          50.000
  21567877.560   113339980.118 9     -1526.414          49.750    21567877.500
  88316866.88548     -1189.418          48.000
  25048890.160   131632804.455 7      3749.641          43.500    25048888.180
 102571014.63044      2921.797          32.750
  22037512.920   115807962.923 8     -2605.008          48.750    22037510.080
  90239983.51447     -2029.875          42.500
  25181523.540   132329799.668 7      3621.180          42.500    25181524.140
 103114129.82644      2821.695          32.250
  25642072.440   134749996.326 5     -1636.344          36.000    25642069.960
 104999988.63043     -1275.082          29.250
  22369991.200   117555122.564 8     -2811.801          48.500    22369987.040
  91601376.83146     -2191.016          40.750
  24145844.460   126887314.084 7     -2975.059          44.250    24145845.240
  98873257.32245     -2318.230          38.750
  20400200.000   107203824.273 9      -686.262          51.500    20400199.520
  83535440.77249      -534.754          51.500
  24394431.180   128193599.544 5      3370.152          37.500    24394430.920
  99891114.13744      2626.086          34.250
 19  1  1  0 38 30.0000000  0 10G07G08G09G11G16G18G23G26G27G30
  21785753.760   114484919.352 9      2537.398          51.500    21785750.720
  89209017.83548      1977.195          46.000
  20588506.760   108193369.833 9      1481.531          51.500    20588507.060
  84306551.12849      1154.441          50.000
  21576643.400   113386044.561 9     -1544.176          50.000    21576643.320
  88352761.24648     -1203.258          47.750
  25027480.640   131520296.082 7      3750.910          43.000    25027478.700
 102483345.80944      2922.789          32.750
  22052398.720   115886188.704 8     -2609.715          48.750    22052395.880
  90300938.66647     -2033.543          43.000
  25160842.440   132221118.361 7      3624.570          43.250    25160842.780
 103029443.09043      2824.344          30.750
  22386075.880   117639649.768 8     -2823.012          48.500    22386072.160
  91667242.14846     -2199.754          41.500
  24162833.520   126976593.332 7     -2976.426          43.000    24162834.300
  98942825.55046     -2319.293          40.250
  20404175.300   107224714.571 9      -705.980          51.500    20404174.840
  83551718.93349      -550.117          51.500
  24375196.200   128092522.032 6      3368.195          39.000    24375196.120
  99812352.47845      2624.563          36.250
 19  1  1  0 39  0.0000000  0 10G07G08G09G11G16G18G23G26G27G30
  21771291.680   114408919.600 9      2529.246          51.500    21771288.520
  89149797.25348      1970.840          46.000
  20580101.120   108149198.570 9      1463.254          51.250    20580101.580
  84272131.98449      1140.195          49.750
  21585510.580   113432640.981 9     -1562.090          50.000    21585510.240
  88389070.14548     -1217.215          47.750
  25006061.340   131407737.944 7      3752.551          42.500    25006059.940
 102395638.20043      2924.066          30.750
  22067312.600   115964561.249 8     -2615.074          48.750    22067309.600
  90362008.17847     -2037.723          43.000
  25140142.300   132112337.834 7      3627.551          43.500    25140141.900
 102944679.05142      2826.660          27.500
  22402224.580   117724511.809 8     -2834.309          48.750    22402221.160
  91733368.38947     -2208.555          42.500
  24179829.060   127065905.910 7     -2977.719          43.500    24179830.160
  99012419.69346     -2320.305          40.750
  20408263.060   107246195.892 9      -725.984          51.750    20408262.560
  83568457.62049      -565.707          51.500
  24355969.380   127991481.284 6      3366.953          41.250    24355968.740
  99733619.42844      2623.602          34.500
 19  1  1  0 39 30.0000000  0 11G07G08G09G11G16G18G21G23G26G27G30
  21756874.440   114333155.591 9      2521.363          51.500    21756871.000
  89090760.35148      1964.695          46.500
  20571798.300   108105568.083 9      1445.219          51.000    20571798.920
  84238134.22549      1126.145          50.250
  21594478.380   113479766.665 9     -1579.738          50.000    21594478.000
  88425791.44748     -1230.969          48.000
  24984633.100   131295131.722 6      3753.914          41.000    24984631.360
 102307893.13944      2925.133          33.250
  22082254.040   116043078.528 8     -2619.727          48.750    22082250.940
  90423190.47347     -2041.344          42.250
  25119423.440   132003460.084 6      3630.570          41.750    25119423.080
 102859839.21144      2829.016          34.000
  25670431.320   134899026.670 4     -1674.535          34.000    25670424.700
 105116109.46243     -1304.832          29.750
  22418436.480   117809705.322 8     -2845.441          48.750    22418433.160
  91799752.91447     -2217.230          42.000
  24196830.960   127155250.325 7     -2978.699          43.500    24196832.060
  99082038.70046     -2321.066          40.500
  20412462.820   107268266.017 9      -745.555          51.500    20412462.360
  83585655.12249      -580.953          51.500
  24336749.200   127890478.029 6      3366.031          39.500    24336748.900
  99654915.59244      2622.883          33.750
 19  1  1  0 40  0.0000000  0 10G07G08G09G11G16G18G23G26G27G30
  21742502.860   114257632.218 9      2513.211          51.500    21742499.580
  89031910.97448      1958.348          46.000
  20563599.040   108062482.455 9      1426.887          51.000    20563599.920
  84204561.02449      1111.859          49.750
  21603547.040   113527422.249 9     -1597.566          50.000    21603546.580
  88462925.66848     -1244.859          47.500
  24963196.660   131182482.367 7      3755.395          42.250    24963194.980
 102220114.41544      2926.285          32.000
  22097223.220   116121741.864 9     -2624.648          49.000    22097220.100
  90484486.57547     -2045.184          42.500
  25098687.160   131894490.176 7      3633.621          43.000    25098687.240
 102774927.58844      2831.391          32.250
  22434711.460   117895229.950 9     -2856.496          49.000    22434707.840
  91866395.46346     -2225.844          40.750
  24213839.340   127244628.607 7     -2980.418          44.250    24213840.280
  99151684.10045     -2322.402          38.750
  20416774.880   107290926.176 9      -765.473          51.750    20416774.460
  83603312.39149      -596.477          51.250
  24317536.820   127789516.456 6      3364.488          39.750    24317536.340
  99576244.22446      2621.680          39.500
 19  1  1  0 40 30.0000000  0 10G07G08G09G11G16G18G23G26G27G30
  21728177.140   114182350.374 9      2505.781          51.500    21728173.680
  88973249.79148      1952.555          45.500
  20555503.520   108019941.337 9      1409.313          51.250    20555504.560
  84171412.12249      1098.164          49.750
  21612715.780   113575604.707 9     -1614.508          49.500    21612715.420
  88500470.43348     -1258.063          47.750
  24941752.140   131069791.227 7      3757.543          42.500    24941750.160
 102132303.12244      2927.953          34.500
  22112219.820   116200549.003 8     -2628.848          48.750    22112216.680
  90545894.73747     -2048.457          42.750
  25077933.600   131785429.984 7      3637.289          42.500    25077932.960
 102689945.59043      2834.242          28.500
  22451048.560   117981081.559 8     -2866.688          48.500    22451044.600
  91933292.80646     -2233.781          40.500
  24230853.660   127334039.102 7     -2980.578          43.500    24230854.660
  99221354.59345     -2322.531          38.750
  20421198.780   107314173.899 9      -784.254          51.750    20421198.360
  83621427.49549      -611.109          51.250
  24298332.100   127688597.005 6      3363.598          39.750    24298332.420
  99497605.77744      2620.984          33.250
 19  1  1  0 41  0.0000000  0 10G07G08G09G11G16G18G23G26G27G30
  21713897.180   114107309.750 9      2497.098          51.500    21713893.920
  88914776.58348      1945.785          46.250
  20547511.380   107977942.784 9      1390.668          51.250    20547512.420
  84138686.00549      1083.637          50.000
  21621983.660   113624309.272 9     -1632.496          49.000    21621983.740
  88538422.03148     -1272.074          48.250
  24920299.440   130957058.165 6      3758.133          39.750    24920298.100
 102044459.23144      2928.422          35.000
  22127243.000   116279496.018 8     -2634.152          48.750    22127239.820
  90607411.88647     -2052.586          42.750
  25057162.760   131676279.558 7      3639.430          42.000    25057162.700
 102604893.32644      2835.918          33.750
  22467446.740   118067254.531 8     -2878.063          48.500    22467442.820
  92000440.56146     -2242.648          41.500
  24247873.380   127423478.324 7     -2981.988          42.750    24247874.400
  99291047.44446     -2323.633          40.000
  20425733.740   107338004.941 9      -804.355          51.750    20425733.220
  83639997.14249      -626.770          51.250
  24279136.000   127587718.630 7      3361.398          42.250    24279135.660
  99418999.19344      2619.270          33.750
 19  1  1  0 41 30.0000000  0 11G07G08G09G11G16G18G21G23G26G27G30
  21699666.200   114032526.470 9      2486.961          51.500    21699663.140
  88856503.90448      1937.887          46.000
  20539625.480   107936501.771 9      1370.684          51.250    20539626.420
  84106394.33749      1068.066          50.000
  21631353.280   113673548.426 9     -1651.570          49.000    21631353.820
  88576790.19548     -1286.938          47.750
  24898841.940   130844299.951 6      3757.738          39.750    24898841.400
 101956595.69043      2928.109          30.750
  22142295.340   116358596.176 9     -2640.668          49.000    22142292.040
  90669048.37047     -2057.668          43.000
  25036378.380   131567055.968 7      3640.641          42.000    25036378.440
 102519784.09144      2836.859          34.500
  25709253.120   135103041.328 4     -1726.801          34.250    25709254.700
 105275077.39144     -1345.559          33.250
  22483908.240   118153760.448 8     -2890.254          48.750    22483904.460
  92067847.74847     -2252.148          42.250
  24264900.900   127512960.361 6     -2984.840          40.750    24264902.060
  99360773.69145     -2325.852          37.500
  20430382.080   107362432.348 9      -825.625          51.750    20430381.600
  83659031.48849      -643.344          51.250
  24259950.440   127486897.395 7      3358.148          42.500    24259950.140
  99340437.21545      2616.738          36.250
 19  1  1  0 42  0.0000000  0 11G07G08G09G11G16G18G21G23G26G27G30
  21685480.280   113957979.740 9      2480.668          51.250    21685477.240
  88798415.54548      1932.984          46.250
  20531841.560   107895596.149 9      1354.309          51.500    20531842.400
  84074519.85149      1055.305          50.000
  21640820.060   113723297.198 9     -1666.945          49.250    21640820.860
  88615555.45348     -1298.922          47.250
  24877376.120   130731496.214 6      3760.707          40.750    24877375.740
 101868696.72544      2930.418          34.250
  22157372.220   116437825.311 8     -2643.059          48.750    22157368.860
  90730785.36247     -2059.527          42.500
  25015575.960   131457739.223 6      3645.535          40.500    25015576.260
 102434602.25045      2840.672          37.000
  25719136.900   135154978.299 4     -1738.105          34.500    25719133.480
 105315547.9024      -1354.355          17.500
  22500428.160   118240573.597 8     -2899.137          48.500    22500424.640
  92135494.32746     -2259.070          41.500
  24281931.780   127602461.513 6     -2983.910          39.500    24281933.780
  99430514.82045     -2325.129          36.250
  20435139.140   107387431.700 9      -843.133          51.500    20435138.780
  83678511.50049      -656.992          51.250
  24240771.280   127386111.966 6      3358.516          41.500    24240771.420
  99261903.13145      2617.023          37.250
 19  1  1  0 42 30.0000000  0 11G07G08G09G11G16G18G21G23G26G27G30
  21671339.380   113883669.824 9      2472.418          51.000    21671336.560
  88740511.72648      1926.555          46.250
  20524159.360   107855224.710 9      1336.203          51.500    20524160.020
  84043061.62849      1041.195          50.250
  21650383.200   113773551.535 9     -1684.215          49.500    21650383.800
  88654714.67148     -1312.379          47.250
  24855901.900   130618647.554 7      3761.836          42.500    24855901.220
 101780762.78244      2931.305          34.250
  22172472.980   116517180.361 9     -2647.824          49.000    22172469.500
  90792620.44847     -2063.238          42.750
  24994756.220   131348330.152 6      3647.844          40.750    24994756.280
 102349348.46945      2842.473          36.750
  25729088.680   135207274.289 4     -1749.582          34.250    25729085.400
 105356305.86744     -1363.324          34.750
  22517005.680   118327688.903 8     -2909.547          48.500    22517002.160
  92203376.36746     -2267.184          41.250
  24298966.260   127691979.374 6     -2984.621          40.750    24298968.380
  99500268.93945     -2325.684          36.750
  20440004.420   107412999.528 9      -862.242          51.500    20440004.160
  83698434.48349      -671.883          51.250
  24221599.320   127285361.950 7      3356.801          43.250    24221599.080
  99183396.61945      2615.684          36.000
 19  1  1  0 43  0.0000000  0 10G07G08G09G11G16G18G23G26G27G30
  21657248.800   113809624.372 9      2464.074          51.250    21657246.220
  88682813.97748      1920.059          46.500
  20516583.640   107815413.328 9      1318.008          51.500    20516584.200
  84012039.79749      1027.020          50.250
  21660046.960   113824334.619 9     -1701.227          49.250    21660047.460
  88694285.90148     -1325.633          47.500
  24834424.340   130505781.670 7      3762.820          43.000    24834423.420
 101692815.35544      2932.070          32.750
  22187602.340   116596685.435 9     -2652.441          49.000    22187598.820
  90854572.45247     -2066.840          42.750
  24973923.800   131238856.748 5      3650.699          38.750    24973924.380
 102264044.63944      2844.703          33.750
  22533644.980   118415128.906 8     -2919.672          48.250    22533641.220
  92271511.40446     -2275.074          41.500
  24316009.220   127781538.403 7     -2985.570          42.500    24316011.060
  99570055.18945     -2326.418          37.250
  20444982.420   107439159.518 9      -881.352          51.500    20444982.340
  83718818.89749      -686.770          51.500
  24202438.960   127184674.288 6      3355.527          41.750    24202438.920
  99104938.72345      2614.691          36.750
 19  1  1  0 43 30.0000000  0 11G07G08G09G11G16G18G21G23G26G27G30
  21643206.240   113735830.321 9      2455.801          51.500    21643203.780
  88625312.13048      1913.609          46.250
  20509111.620   107776147.635 9      1299.984          51.500    20509112.160
  83981443.17549      1012.977          50.250
  21669808.180   113875629.188 9     -1718.156          49.500    21669808.440
  88734255.68548     -1338.828          47.500
  24812940.960   130392885.508 7      3764.023          42.500    24812939.580
 101604844.33144      2933.004          32.250
  22202756.960   116676323.797 9     -2656.551          49.000    22202753.560
  90916628.32947     -2070.039          43.250
  24953077.020   131129306.614 6      3653.148          39.250    24953077.860
 102178680.88342      2846.605          26.750
  25749206.340   135312994.599 4     -1773.934          33.500    25749203.720
 105438689.66044     -1382.297          34.000
  22550342.880   118502875.510 8     -2929.715          48.500    22550338.660
  92339885.38346     -2282.895          41.500
  24333056.920   127871122.968 7     -2986.254          42.750    24333058.640
  99639861.32045     -2326.953          36.750
  20450070.080   107465894.999 9      -900.586          51.500    20450069.880
  83739651.73849      -701.758          51.250
  24183287.760   127084035.370 6      3354.305          39.750    24183288.160
  99026518.79544      2613.738          33.000
 19  1  1  0 44  0.0000000  0 10G07G08G09G11G16G18G23G26G27G30
  21629212.840   113662293.785 9      2447.418          51.750    21629210.300
  88568010.93348      1907.078          46.500
  20501744.240   107737432.433 9      1281.887          51.250    20501744.820
  83951275.50849       998.871          50.000
  21679667.160   113927437.587 9     -1735.004          49.750    21679666.920
  88774625.85648     -1351.953          46.750
  24791453.200   130279966.028 7      3764.840          42.000    24791451.680
 101516855.09944      2933.641          35.500
  22217937.740   116756099.051 8     -2660.926          48.750    22217934.440
  90978790.86447     -2073.449          42.500
  24932217.060   131019686.923 6      3655.742          40.000    24932217.620
 102093263.04744      2848.629          32.500
  22567098.920   118590930.104 8     -2939.734          47.500    22567095.080
  92408499.30746     -2290.707          41.000
  24350109.880   127960736.852 7     -2986.930          43.250    24350111.700
  99709690.29145     -2327.480          38.500
  20455267.780   107493208.795 9      -919.527          51.500    20455267.600
  83760935.21349      -716.516          51.250
  24164147.180   126983451.292 7      3352.371          42.000    24164146.880
  98948141.57345      2612.234          37.250
 19  1  1  0 44 30.0000000  0 11G07G08G09G11G16G18G21G23G26G27G30
  21615268.120   113589013.156 9      2438.566          51.500    21615265.560
  88510909.15448      1900.176          46.250
  20494481.060   107699264.808 9      1263.328          51.500    20494481.600
  83921534.51449       984.406          50.000
  21689622.680   113979753.906 9     -1752.273          49.500    21689622.260
  88815391.81348     -1365.410          47.000
  24769960.560   130167022.204 7      3765.227          43.250    24769959.140
 101428847.03044      2933.941          34.750
  22233143.540   116836006.571 8     -2665.613          48.500    22233140.380
  91041056.46247     -2077.105          42.250
  24911343.620   130909996.805 6      3657.445          40.000    24911344.500
 102007790.24844      2849.957          35.000
  25769604.300   135420183.430 4     -1798.383          35.250    25769602.020
 105522211.80344     -1401.344          32.750
  22583912.200   118679286.123 8     -2949.957          47.000    22583908.820
  92477348.11046     -2298.672          41.500
  24367167.620   128050375.878 7     -2987.957          42.500    24367169.340
  99779538.82445     -2328.281          38.000
  20460574.460   107521095.618 9      -938.957          51.500    20460574.340
  83782665.20549      -731.656          51.000
  24145016.760   126882920.049 7      3350.168          44.000    24145016.660
  98869805.56245      2610.516          36.500
 19  1  1  0 45  0.0000000  0 10G07G08G09G11G16G18G23G26G27G30
  21601372.540   113515990.954 9      2430.180          51.500    21601369.840
  88454008.74148      1893.645          46.500
  20487322.260   107661645.541 9      1245.297          51.500    20487322.760
  83892220.80549       970.359          50.250
  21699674.280   114032576.133 9     -1768.625          49.500    21699674.040
  88856551.96748     -1378.152          47.000
  24748464.120   130054056.344 7      3766.441          44.750    24748462.440
 101340821.71044      2934.891          35.500
  22248374.260   116916044.839 8     -2669.648          48.500    22248371.140
  91103423.95246     -2080.246          41.250
  24890457.500   130800239.241 6      3660.129          39.500    24890457.660
 101922264.90845      2852.043          37.500
  22600782.500   118767940.542 8     -2959.422          48.000    22600779.220
  92546429.41946     -2306.047          41.000
  24384230.420   128140039.421 7     -2988.656          44.250    24384231.860
  99849406.50745     -2328.828          37.500
  20465989.880   107549553.955 9      -957.641          51.500    20465989.760
  83804840.53549      -746.219          51.250
  24125896.960   126782443.356 7      3348.582          43.500    24125896.740
  98791512.03745      2609.285          36.000
 19  1  1  0 45 30.0000000  0 10G07G08G09G11G16G18G23G26G27G30
  21587526.640   113443230.393 9      2420.945          51.250    21587523.800
  88397312.20648      1886.449          46.500
  20480268.180   107624576.011 9      1226.383          51.500    20480268.660
  83863335.47649       955.621          50.250
  21709821.900   114085903.001 8     -1785.953          48.500    21709821.880
  88898105.37248     -1391.656          47.000
  24726964.000   129941072.133 7      3766.258          44.000    24726962.320
 101252782.11044      2934.746          33.000
  22263629.820   116996213.742 8     -2674.500          48.750    22263626.600
  91165893.22746     -2084.027          41.750
  24869559.160   130690417.891 6      3661.328          39.250    24869559.300
 101836689.88244      2852.984          34.750
  22617709.660   118856891.358 8     -2969.887          48.250    22617705.880
  92615741.72046     -2314.203          40.750
  24401297.780   128229728.026 7     -2990.047          43.750    24401299.020
  99919293.67345     -2329.910          36.000
  20471513.960   107578583.129 9      -977.066          51.250    20471513.680
  83827460.67449      -761.355          51.000
  24106787.780   126682023.816 7      3346.348          43.250    24106787.680
  98713263.08245      2607.543          36.250
 19  1  1  0 46  0.0000000  0 10G07G08G09G11G16G18G23G26G27G30
  21573731.380   113370735.728 9      2412.086          51.250    21573728.520
  88340822.85548      1879.543          46.250
  20473319.520   107588059.245 9      1207.926          51.500    20473319.740
  83834880.86549       941.242          50.250
  21720065.600   114139734.685 9     -1802.590          49.000    21720065.740
  88940052.12148     -1404.617          47.000
  24705461.300   129828074.245 7      3766.727          43.500    24705459.540
 101164731.88244      2935.109          35.000
  22278910.500   117076514.371 8     -2678.918          48.250    22278907.300
  91228465.14747     -2087.473          43.250
  24848649.800   130580537.811 6      3663.465          40.750    24848649.560
 101751069.07344      2854.645          34.000
  22634693.140   118946137.910 8     -2979.840          48.750    22634688.640
  92685284.48146     -2321.953          40.250
  24418370.300   128319443.308 7     -2990.582          44.000    24418371.420
  99989201.65046     -2330.328          39.000
  20477146.780   107608183.834 9      -996.188          51.250    20477146.500
  83850526.15749      -776.254          51.250
  24087690.440   126581665.435 7      3344.355          44.000    24087690.020
  98635061.73544      2605.992          34.750
 19  1  1  0 46 30.0000000  0 10G07G08G09G11G16G18G23G26G27G30
  21559986.560   113298506.829 9      2403.340          51.250    21559983.860
  88284540.60448      1872.727          46.500
  20466475.640   107552093.288 9      1189.887          51.750    20466475.640
  83806855.46149       927.184          50.500
  21730404.400   114194066.508 8     -1819.152          48.500    21730404.980
  88982388.58848     -1417.523          46.750
  24683956.020   129715062.753 7      3767.270          44.000    24683953.880
 101076671.02645      2935.535          36.250
  22294215.680   117156943.201 8     -2682.898          48.750    22294212.380
  91291136.97147     -2090.570          42.000
  24827729.280   130470599.644 6      3665.898          41.000    24827729.200
 101665403.00044      2856.539          33.750
  22651731.660   119035675.054 8     -2989.332          48.000    22651726.880
  92755053.65446     -2329.355          40.750
  24435446.880   128409182.364 7     -2991.566          44.000    24435448.220
 100059128.17645     -2331.090          36.750
  20482887.580   107638351.926 9     -1014.840          51.250    20482887.300
  83874033.76749      -790.789          51.250
  24068604.660   126481367.491 7      3342.242          43.000    24068603.840
  98556907.45144      2604.340          35.750
 19  1  1  0 47  0.0000000  0 10G07G08G09G11G16G18G23G26G27G30
  21546293.500   113226549.399 9      2393.938          51.250    21546290.860
  88228469.88248      1865.402          46.500
  20459737.300   107516682.437 9      1171.051          51.750    20459737.220
  83779262.62249       912.508          50.250
  21740838.800   114248900.062 9     -1836.133          49.000    21740839.520
  89025116.01448     -1430.758          46.250
  24662449.200   129602044.221 8      3767.250          45.000    24662447.140
 100988604.68944      2935.520          33.500
  22309545.720   117237503.026 8     -2687.559          48.500    22309542.500
  91353910.85347     -2094.207          42.000
  24806799.100   130360609.994 6      3667.004          41.000    24806799.060
 101579696.81444      2857.402          34.000
  22668825.340   119125503.416 8     -2999.199          48.000    22668820.880
  92825049.74146     -2337.043          40.250
  24452528.660   128498948.267 7     -2992.547          44.500    24452530.120
 100129075.60545     -2331.855          36.250
  20488736.700   107669089.519 9     -1034.207          51.500    20488736.400
  83897985.14249      -805.879          51.000
  24049530.640   126381135.339 6      3340.027          41.250    24049530.280
  98478804.52445      2602.617          36.500
 19  1  1  0 47 30.0000000  0 10G07G08G09G11G16G18G23G26G27G30
  21532651.640   113154860.597 9      2385.328          51.500    21532649.040
  88172608.48048      1858.695          46.750
  20453103.560   107481822.124 9      1153.090          51.500    20453103.520
  83752098.77949       898.512          50.250
  21751367.540   114304227.968 9     -1852.070          49.000    21751367.960
  89068228.65248     -1443.176          46.250
  24640940.520   129489015.295 8      3768.023          45.500    24640938.400
 100900530.28544      2936.121          33.000
  22324899.520   117318187.582 8     -2691.293          48.250    22324896.340
  91416781.93347     -2097.113          42.000
  24785858.420   130250566.551 6      3669.465          40.750    24785858.660
 101493948.70144      2859.324          35.500
  22685973.000   119215614.675 8     -3008.145          48.000    22685968.420
  92895266.27646     -2344.012          39.500
  24469614.600   128588735.590 7     -2993.117          43.750    24469615.760
 100199039.71245     -2332.305          36.750
  20494692.900   107700389.845 9     -1052.352          51.500    20494692.760
  83922374.99249      -820.020          51.000
  24030468.840   126280965.684 7      3338.367          43.250    24030468.800
  98400750.26445      2601.320          36.750
 19  1  1  0 48  0.0000000  0 10G07G08G09G11G16G18G23G26G27G30
  21519062.020   113083446.680 9      2375.973          51.500    21519059.460
  88116961.27848      1851.402          46.750
  20446575.320   107447516.711 9      1134.465          51.500    20446575.380
  83725367.31149       883.996          50.000
  21761990.720   114360052.013 9     -1868.973          49.250    21761990.460
  89111727.90648     -1456.344          45.750
  24619430.920   129375982.753 7      3768.023          44.000    24619428.960
 100812453.05344      2936.121          35.000
  22340277.480   117398999.791 8     -2695.730          48.000    22340274.280
  91479752.49047     -2100.570          42.000
  24764908.580   130140476.267 6      3670.371          39.500    24764909.180
 101408164.13345      2860.031          36.750
  22703174.760   119306010.256 8     -3017.738          48.000    22703169.920
  92965704.36946     -2351.484          40.000
  24486705.520   128678547.691 7     -2993.746          44.250    24486706.420
 100269023.12244     -2332.797          34.750
  20500756.800   107732255.180 9     -1071.453          51.500    20500756.560
  83947205.13149      -834.902          51.000
  24011420.300   126180864.345 7      3335.727          43.500    24011419.840
  98322749.17745      2599.262          36.000
 19  1  1  0 48 30.0000000  0 10G07G08G09G11G16G18G23G26G27G30
  21505524.360   113012305.694 9      2366.723          51.250    21505521.740
  88061526.75048      1844.195          46.750
  20440151.940   107413762.646 9      1115.801          51.500    20440152.180
  83699065.47549       869.457          50.500
  21772707.060   114416365.885 9     -1885.504          49.000    21772706.200
  89155608.83548     -1469.227          46.000
  24597920.220   129262945.385 7      3768.039          44.000    24597918.580
 100724372.09644      2936.133          34.500
  22355678.540   117479934.263 8     -2699.980          47.250    22355675.680
  91542818.30247     -2103.887          42.250
  24743949.760   130030338.080 6      3671.922          39.500    24743950.320
 101322342.21944      2861.238          34.750
  22720429.220   119396683.139 8     -3027.086          48.000    22720424.300
  93036358.56146     -2358.770          39.250
  24503799.860   128768379.966 7     -2994.859          43.000    24503801.200
 100339022.22545     -2333.664          36.000
  20506927.040   107764679.771 9     -1090.246          51.250    20506926.740
  83972471.04249      -849.547          51.000
  23992383.960   126080828.848 7      3333.184          42.000    23992383.860
  98244799.45646      2597.281          39.000
 19  1  1  0 49  0.0000000  0 10G07G08G09G11G16G18G23G26G27G30
  21492039.420   112941441.504 9      2357.262          51.500    21492036.760
  88006307.89648      1836.828          47.000
  20433834.040   107380562.441 9      1097.203          51.500    20433834.360
  83673195.19749       854.965          50.500
  21783516.480   114473169.156 9     -1901.828          49.250    21783515.540
  89199871.10748     -1481.949          46.250
  24576409.840   129149907.633 7      3767.637          44.750    24576408.060
 100636290.76544      2935.820          32.750
  22371103.200   117560992.053 8     -2704.176          48.000    22371100.320
  91605980.23446     -2107.148          41.750
  24722983.100   129920156.595 6      3673.254          40.000    24722983.300
 101236486.57644      2862.281          33.500
  22737736.200   119487631.962 8     -3036.457          47.750    22737731.580
  93107227.74746     -2366.074          39.750
  24520898.380   128858233.797 7     -2995.695          44.750    24520899.880
 100409038.16344     -2334.316          34.250
  20513203.640   107797663.739 9     -1108.992          51.250    20513203.340
  83998172.83849      -864.152          51.000
  23973360.960   125980862.879 6      3330.520          40.750    23973361.300
  98166903.94445      2595.211          38.250
 19  1  1  0 49 30.0000000  0 10G07G08G09G11G16G18G23G26G27G30
  21478607.860   112870858.469 9      2347.664          51.250    21478605.280
  87951308.12648      1829.344          47.000
  20427622.020   107347918.158 9      1078.453          51.500    20427622.280
  83647758.09649       840.352          50.500
  21794419.000   114530461.720 9     -1918.258          49.000    21794417.840
  89244514.66648     -1494.746          46.000
  24554899.880   129036873.722 7      3767.031          43.250    24554898.380
 100548212.41844      2935.344          34.000
  22386551.560   117642174.013 8     -2708.504          47.750    22386548.740
  91669238.91546     -2110.523          41.000
  24702009.000   129809937.019 6      3674.188          39.750    24702008.940
 101150601.24744      2863.004          34.000
  22755095.360   119578856.062 8     -3045.844          47.750    22755091.380
  93178311.43146     -2373.387          40.500
  24538001.680   128948110.847 7     -2996.609          43.500    24538002.620
 100479072.18943     -2335.023          30.750
  20519586.760   107831207.526 9     -1127.891          51.250    20519586.480
  84024310.85449      -878.875          50.750
  23954351.840   125880970.317 7      3328.090          42.750    23954352.060
  98089065.61545      2593.313          37.250
 19  1  1  0 50  0.0000000  0 10G07G08G09G11G16G18G23G26G27G30
  21465229.360   112800553.801 9      2338.711          51.500    21465226.860
  87896525.26848      1822.367          47.000
  20421515.000   107315825.204 9      1060.570          51.500    20421515.220
  83622750.60149       826.414          50.500
  21805413.180   114588236.063 9     -1933.965          49.250    21805411.860
  89289533.63348     -1506.984          45.750
  24533390.480   128923841.209 7      3767.648          43.250    24533389.320
 100460135.21544      2935.832          34.250
  22402022.340   117723474.000 8     -2712.082          47.500    22402019.440
  91732589.56246     -2113.313          41.500
  24681027.440   129699677.097 6      3676.066          41.000    24681026.820
 101064684.49844      2864.465          33.250
  22772505.640   119670347.059 8     -3054.176          48.000    22772501.840
  93249603.09546     -2379.883          40.500
  24555107.980   129038005.441 7     -2996.898          44.000    24555108.880
 100549119.88243     -2335.250          31.750
  20526075.180   107865304.130 9     -1145.871          51.500    20526074.880
  84050879.64049      -892.887          51.000
  23935356.640   125781147.804 7      3326.086          43.250    23935355.860
  98011281.79844      2591.746          32.750
 19  1  1  0 50 30.0000000  0 10G07G08G09G11G16G18G23G26G27G30
  21451905.140   112730534.784 9      2328.824          51.500    21451902.520
  87841964.99948      1814.664          47.000
  20415513.920   107284289.292 9      1041.625          51.750    20415514.180
  83598177.16349       811.656          50.500
  21816499.380   114646494.777 8     -1950.496          48.750    21816498.480
  89334930.02048     -1519.871          46.000
  24511882.720   128810817.546 7      3766.816          44.000    24511881.600
 100372064.86544      2935.180          34.500
  22417516.420   117804896.226 8     -2716.492          47.750    22417513.480
  91796035.44346     -2116.750          41.250
  24660039.640   129589384.714 6      3676.805          40.500    24660039.460
 100978742.47043      2865.043          31.500
  22789967.080   119762107.133 8     -3063.523          48.000    22789963.360
  93321104.39846     -2387.164          40.000
  24572218.540   129127921.957 7     -2998.047          44.250    24572219.520
 100619184.66644     -2336.141          33.250
  20532669.480   107899956.686 9     -1164.613          51.500    20532669.000
  84077881.62949      -907.496          51.000
  23916376.020   125681401.960 7      3323.051          43.250    23916375.080
  97933557.75245      2589.387          36.750
 19  1  1  0 51  0.0000000  0 10G07G08G09G11G16G18G23G26G27G30
  21438635.780   112660803.908 9      2319.359          51.500    21438633.340
  87787629.25748      1807.293          47.250
  20409618.880   107253310.845 9      1023.090          51.500    20409619.220
  83574038.12249       797.211          50.500
  21827677.280   114705235.860 9     -1966.254          49.000    21827676.920
  89380702.28348     -1532.145          46.250
  24490377.580   128697806.019 7      3766.629          44.000    24490376.200
 100284003.96645      2935.035          37.000
  22433033.640   117886439.597 8     -2720.457          47.500    22433030.660
  91859575.74247     -2119.840          42.000
  24639045.980   129479062.996 7      3677.684          42.000    24639045.400
 100892777.53644      2865.723          34.250
  22807479.300   119854133.625 8     -3072.250          48.250    22807475.260
  93392813.32946     -2393.965          40.250
  24589333.000   129217860.247 7     -2998.270          44.000    24589334.020
 100689266.39344     -2336.320          34.250
  20539369.260   107935163.755 9     -1182.980          51.750    20539368.800
  84105315.71149      -921.805          51.000
  23897409.860   125581734.905 7      3320.672          42.000    23897409.380
  97855895.13845      2587.527          38.000
 19  1  1  0 51 30.0000000  0 10G07G08G09G11G16G18G23G26G27G30
  21425420.820   112591358.701 9      2310.094          51.500    21425418.440
  87733516.10748      1800.070          47.250
  20403829.120   107222885.887 9      1004.961          51.500    20403829.540
  83550330.36949       783.086          50.500
  21838945.560   114764452.726 8     -1981.879          48.250    21838945.940
  89426845.26948     -1544.324          46.750
  24468873.960   128584804.325 7      3766.410          42.500    24468872.380
 100195950.68145      2934.859          37.500
  22448572.960   117968098.610 8     -2723.848          47.500    22448569.860
  91923206.14847     -2122.480          42.250
  24618046.580   129368710.764 6      3679.004          41.500    24618046.300
 100806788.84144      2866.758          33.500
  22825040.660   119946419.171 8     -3080.625          48.000    22825036.640
  93464724.11246     -2400.492          40.500
  24606451.000   129307815.568 7     -2998.910          43.000    24606452.320
 100759361.42044     -2336.816          33.500
  20546173.400   107970919.239 9     -1200.922          51.500    20546172.840
  84133177.13049      -935.785          51.000
  23878458.240   125482144.208 7      3318.324          43.000    23878457.820
  97778292.01645      2585.707          37.000
 19  1  1  0 52  0.0000000  0 10G07G08G09G11G16G18G23G26G27G30
  21412260.900   112522203.769 9      2299.793          51.500    21412258.840
  87679629.15748      1792.047          47.250
  20398145.340   107193017.621 9       985.910          51.500    20398145.820
  83527056.41649       768.242          50.500
  21850304.420   114824145.294 8     -1998.188          48.500    21850305.200
  89473358.93248     -1557.031          46.750
  24447373.300   128471817.646 7      3765.730          42.500    24447371.940
 100107909.18345      2934.332          36.500
  22464134.540   118049874.779 8     -2728.313          47.750    22464131.640
  91986927.83146     -2125.957          41.500
  24597042.600   129258333.172 6      3679.207          41.500    24597042.620
 100720780.42144      2866.918          32.000
  22842651.180   120038963.162 8     -3089.551          47.750    22842647.400
  93536836.28846     -2407.445          40.250
  24623572.360   129397789.679 6     -2999.914          40.750    24623573.560
 100829471.08844     -2337.598          33.500
  20553081.940   108007223.639 9     -1219.703          51.500    20553081.300
  84161466.27049      -950.422          51.000
  23859522.300   125382634.011 7      3315.406          43.250    23859522.220
  97700751.59845      2583.430          38.750
 19  1  1  0 52 30.0000000  0 10G07G08G09G11G16G18G23G26G27G30
  21399157.280   112453343.560 9      2290.391          51.250    21399154.980
  87625971.84848      1784.715          47.250
  20392567.900   107163707.779 9       967.770          51.500    20392568.300
  83504217.60049       754.105          50.500
  21861754.040   114884313.125 8     -2013.484          48.750    21861755.060
  89520242.93748     -1568.953          47.250
  24425876.360   128358850.338 7      3765.234          43.250    24425874.740
 100019882.78744      2933.949          33.750
  22479718.600   118131769.109 8     -2731.727          47.750    22479715.520
  92050741.60446     -2128.621          41.500
  24576034.340   129147935.326 6      3680.352          41.750    24576034.680
 100634756.14944      2867.801          34.500
  22860310.720   120131764.461 8     -3097.664          47.500    22860307.300
  93609148.95446     -2413.770          40.500
  24640697.720   129487784.140 6     -3000.289          40.000    24640698.940
 100899596.59744     -2337.891          35.250
  20560095.020   108044077.048 9     -1237.418          51.500    20560094.340
  84190183.22049      -964.223          51.000
  23840602.000   125283208.072 7      3312.828          43.000    23840601.720
  97623276.82944      2581.422          35.750
 19  1  1  0 53  0.0000000  0 11G07G08G09G11G16G18G21G23G26G27G30
  21386108.860   112384773.424 9      2283.652          51.500    21386106.480
  87572540.57148      1779.465          47.500
  20387095.520   107134949.895 9       952.156          51.500    20387095.800
  83481808.88849       741.941          50.750
  21873292.580   114944947.259 9     -2026.258          49.250    21873293.500
  89567490.29448     -1578.906          46.750
  24404382.460   128245898.674 7      3767.508          42.750    24404380.580
  99931868.49344      2935.719          33.250
  22495323.760   118213773.906 8     -2732.504          48.250    22495320.380
  92114641.44046     -2129.227          41.000
  24555021.520   129037513.570 7      3683.707          43.000    24555022.040
 100548713.26745      2870.418          36.500
  25953930.280   136388823.647 5     -1994.512          36.250    25953923.160
 106276972.06742     -1554.191          27.250
  22878017.240   120224813.600 8     -3102.824          47.000    22878013.840
  93681654.74246     -2417.789          40.250
  24657825.680   129577791.857 6     -2997.551          41.500    24657827.280
 100969732.41344     -2335.758          33.500
  20567210.840   108081471.023 9     -1252.699          51.500    20567210.200
  84219321.38149      -976.129          51.000
  23821696.960   125183861.540 7      3312.953          43.000    23821695.980
  97545863.92445      2581.520          37.750
 19  1  1  0 53 30.0000000  0 10G07G08G09G11G16G18G23G26G27G30
  21373117.800   112316504.313 9      2270.441          51.500    21373115.080
  87519343.86148      1769.172          47.000
  20381729.940   107106753.266 9       930.395          51.500    20381730.140
  83459837.49549       724.980          50.750
  21884921.160   115006053.944 9     -2044.805          49.000    21884921.640
  89615105.88448     -1593.359          46.500
  24382893.360   128132973.540 7      3763.535          42.000    24382891.760
  99843874.92544      2932.621          35.500
  22510951.320   118295896.634 8     -2739.484          48.250    22510947.760
  92178633.17646     -2134.668          41.500
  24534006.460   128927079.607 7      3681.164          42.250    24534006.920
 100462660.90644      2868.441          35.500
  22895772.060   120318116.203 8     -3114.281          47.250    22895768.520
  93754358.04846     -2426.711          40.000
  24674958.060   129667820.977 7     -3001.293          42.250    24674959.060
 101039884.91745     -2338.672          36.000
  20574430.680   108119412.353 9     -1273.934          51.500    20574430.060
  84248886.05649      -992.676          50.750
  23802808.920   125084605.005 6      3306.824          41.250    23802808.760
  97468521.18845      2576.746          38.750
 19  1  1  0 54  0.0000000  0 10G07G08G09G11G16G18G23G26G27G30
  21360183.700   112248534.378 9      2260.832          51.500    21360180.700
  87466380.27348      1761.688          47.250
  20376470.380   107079113.979 9       912.219          51.500    20376470.500
  83438300.40449       710.816          50.750
  21896638.340   115067626.661 9     -2059.914          49.250    21896638.360
  89663084.62148     -1605.133          46.500
  24361409.180   128020073.567 7      3763.098          43.000    24361407.900
  99755900.93045      2932.281          37.500
  22526600.540   118378132.624 8     -2742.957          48.000    22526596.780
  92242713.17246     -2137.371          41.500
  24512989.060   128816632.272 7      3681.934          43.000    24512989.400
 100376598.09245      2869.043          36.000
  22913573.800   120411665.199 8     -3122.137          46.750    22913570.380
  93827253.33546     -2432.836          39.250
  24692093.400   129757866.982 6     -3001.570          40.500    24692094.440
 101110050.62745     -2338.891          37.500
  20581753.460   108157895.088 9     -1291.629          51.250    20581753.040
  84278872.60549     -1006.465          51.000
  23783937.500   124985436.175 7      3304.207          43.750    23783937.480
  97391246.78745      2574.703          38.250
 19  1  1  0 54 30.0000000  0 10G07G08G09G11G16G18G23G26G27G30
  21347306.440   112180863.090 9      2250.590          51.750    21347303.060
  87413649.39548      1753.703          47.250
  20371316.260   107052029.069 9       893.445          51.750    20371316.340
  83417195.30249       696.191          50.500
  21908442.960   115129659.995 9     -2075.484          49.250    21908442.860
  89711422.26748     -1617.266          46.250
  24339929.480   127907198.571 7      3762.133          43.250    24339928.420
  99667946.46445      2931.531          36.500
  22542270.440   118460477.655 8     -2746.617          48.000    22542266.580
  92306878.14646     -2140.223          41.500
  24491969.400   128706171.463 7      3681.953          44.000    24491969.380
 100290524.78244      2869.051          34.000
  22931421.100   120505454.736 8     -3130.277          46.250    22931417.720
  93900336.08146     -2439.176          40.750
  24709231.160   129847926.511 6     -3002.313          41.000    24709232.560
 101180226.81644     -2339.469          35.000
  20589178.460   108196914.297 9     -1309.602          51.500    20589178.180
  84309277.18549     -1020.469          51.000
  23765083.040   124886353.934 7      3300.953          43.750    23765083.220
  97314039.86445      2572.172          36.250
 19  1  1  0 55  0.0000000  0 10G07G08G09G11G16G18G23G26G27G30
  21334487.260   112113498.246 9      2240.398          51.500    21334483.980
  87361157.30948      1745.766          47.250
  20366268.760   107025504.364 9       874.809          51.500    20366268.840
  83396526.72849       681.668          50.750
  21920335.840   115192156.826 9     -2091.125          49.250    21920335.680
  89760121.08248     -1629.453          46.250
  24318456.600   127794356.554 7      3760.695          43.000    24318455.040
  99580017.60044      2930.410          35.250
  22557961.700   118542935.865 8     -2750.664          48.000    22557958.120
  92371131.27547     -2143.379          42.000
  24470948.560   128595705.680 7      3682.207          43.250    24470948.480
 100204447.60644      2869.254          35.250
  22949314.800   120599486.985 8     -3138.551          47.000    22949311.680
  93973607.92046     -2445.629          39.750
  24726372.720   129938004.303 7     -3002.996          43.000    24726373.840
 101250417.22444     -2340.000          35.500
  20596706.400   108236473.423 9     -1327.723          51.500    20596706.080
  84340102.48749     -1034.590          51.000
  23746246.140   124787365.477 7      3297.641          43.750    23746245.940
  97236906.01045      2569.586          36.750
 19  1  1  0 55 30.0000000  0 10G07G08G09G11G16G18G23G26G27G30
  21321725.680   112046436.216 9      2230.141          51.500    21321722.580
  87308901.17448      1737.770          47.250
  20361326.940   106999535.127 9       856.191          51.750    20361327.060
  83376290.99349       667.164          50.750
  21932315.300   115255109.839 9     -2106.168          49.000    21932315.000
  89809175.36348     -1641.172          46.250
  24296989.160   127681544.999 7      3759.531          43.750    24296988.000
  99492112.51845      2929.504          38.000
  22573673.460   118625501.834 8     -2754.180          48.000    22573669.960
  92435468.40447     -2146.117          42.000
  24449926.180   128485233.255 7      3682.320          43.500    24449926.140
 100118365.24045      2869.336          36.250
  22967253.380   120693753.661 8     -3146.289          46.750    22967250.060
  94047062.44846     -2451.660          39.500
  24743516.680   130028095.134 6     -3003.395          41.000    24743517.780
 101320617.81946     -2340.309          39.000
  20604335.660   108276565.668 9     -1345.434          51.250    20604335.440
  84371343.20549     -1048.395          51.000
  23727426.840   124688467.856 7      3294.719          43.000    23727425.520
  97159842.86845      2567.313          37.750
 19  1  1  0 56  0.0000000  0 10G07G08G09G11G16G18G23G26G27G30
  21309023.160   111979685.121 9      2219.645          51.500    21309020.260
  87256887.33648      1729.590          47.250
  20356491.820   106974126.807 9       837.418          51.500    20356491.980
  83356492.33949       652.535          50.500
  21944382.120   115318521.960 9     -2121.504          49.250    21944381.760
  89858587.39448     -1653.125          45.500
  24275529.160   127568772.143 7      3758.102          43.250    24275528.140
  99404237.61245      2928.391          36.750
  22589406.500   118708179.646 8     -2757.945          48.250    22589403.020
  92499892.66346     -2149.047          41.000
  24428904.240   128374762.462 7      3682.168          44.250    24428904.100
 100032284.17245      2869.223          36.000
  22985236.980   120788257.820 8     -3154.043          46.750    22985233.480
  94120702.05346     -2457.695          39.750
  24760663.260   130118204.023 5     -3004.398          38.250    24760665.000
 101390832.49345     -2341.094          36.500
  20612066.980   108317194.513 9     -1363.387          51.250    20612066.840
  84403002.05149     -1062.379          51.000
  23708625.880   124589668.245 7      3291.484          43.250    23708624.800
  97082856.16945      2564.789          38.250
 19  1  1  0 56 30.0000000  0 10G07G08G09G11G16G18G23G26G27G30
  21296379.280   111913241.677 9      2209.816          51.500    21296376.720
  87205113.22748      1721.930          47.500
  20351762.480   106949274.063 9       819.352          51.750    20351762.640
  83337126.58349       638.457          51.000
  21956534.840   115382385.082 8     -2136.102          48.750    21956534.340
  89908350.85348     -1664.500          46.250
  24254075.820   127456034.761 7      3757.332          44.250    24254074.580
  99316390.34045      2927.793          36.500
  22605159.660   118790962.832 8     -2760.980          47.500    22605156.020
  92564399.04846     -2151.418          41.750
  24407882.180   128264290.562 7      3682.551          43.750    24407881.740
  99946202.23844      2869.516          35.250
  23003263.900   120882990.612 8     -3161.387          46.500    23003260.380
  94194519.78545     -2463.422          38.250
  24777812.700   130208324.710 6     -3003.887          39.750    24777814.280
 101461056.30745     -2340.691          37.000
  20619899.020   108358352.331 9     -1380.555          51.250    20619898.920
  84435073.08049     -1075.758          51.250
  23689843.120   124490963.042 7      3288.852          43.500    23689842.300
  97005943.03746      2562.738          39.250
 19  1  1  0 57  0.0000000  0 11G07G08G09G11G16G18G21G23G26G27G30
  21283795.220   111847112.253 9      2198.922          51.500    21283792.700
  87153583.81048      1713.441          47.500
  20347139.680   106924981.011 9       800.430          51.500    20347139.780
  83318196.94749       623.711          50.750
  21968773.700   115446700.833 8     -2151.566          48.750    21968772.880
  89958467.01348     -1676.551          45.750
  24232630.920   127343339.695 7      3755.703          44.000    24232629.360
  99228575.99545      2926.523          37.500
  22620933.280   118873854.542 8     -2764.906          47.250    22620929.780
  92628989.98946     -2154.473          40.500
  24386861.060   128153825.003 7      3682.176          43.500    24386860.580
  99860125.19744      2869.223          35.250
  26047171.700   136878812.345 4     -2085.758          33.000    26047173.980
 106658823.4204      -1625.277          24.000
  23021334.600   120977953.187 8     -3169.191          46.500    23021331.380
  94268516.56346     -2469.504          39.000
  24794964.860   130298461.067 5     -3004.922          38.500    24794966.600
 101531292.32945     -2341.504          36.500
  20627832.240   108400041.355 9     -1398.574          51.250    20627832.160
  84467558.03649     -1089.801          51.000
  23671079.280   124392358.195 7      3285.141          43.500    23671078.480
  96929108.11646      2559.848          39.500
 19  1  1  0 57 30.0000000  0 10G07G08G09G11G16G18G23G26G27G30
  21271270.880   111781295.976 9      2188.641          51.750    21271268.480
  87102298.40648      1705.430          47.500
  20342622.760   106901244.597 9       781.984          51.500    20342622.880
  83299701.04749       609.336          50.500
  21981097.780   115511463.701 8     -2166.152          48.750    21981096.680
  90008931.58348     -1687.910          45.250
  24211193.760   127230686.585 7      3754.230          44.500    24211192.120
  99140794.39845      2925.375          37.250
  22636726.840   118956850.941 8     -2768.133          47.250    22636723.660
  92693662.50346     -2156.988          41.000
  24365841.120   128043365.986 7      3681.684          43.750    24365840.900
  99774053.25644      2868.840          35.250
  23039448.140   121073139.736 8     -3176.543          46.750    23039444.880
  94342687.86545     -2475.230          38.500
  24812119.800   130388609.740 6     -3004.891          40.250    24812121.020
 101601537.95044     -2341.480          34.000
  20635865.600   108442256.590 9     -1415.969          51.250    20635865.580
  84500453.03049     -1103.355          51.000
  23652334.440   124293852.739 7      3281.926          43.500    23652333.560
  96852350.62845      2557.344          38.250
 19  1  1  0 58  0.0000000  0 10G07G08G09G11G16G18G23G26G27G30
  21258807.380   111715798.977 9      2178.055          51.750    21258804.800
  87051261.79248      1697.184          47.500
  20338212.480   106878068.892 9       763.355          51.750    20338212.660
  83281642.06149       594.820          50.500
  21993506.820   115576674.461 8     -2180.867          48.750    21993506.000
  90059745.14048     -1699.379          45.250
  24189765.700   127118081.215 8      3752.875          45.500    24189764.020
  99053049.99245      2924.316          36.250
  22652540.720   119039954.468 8     -2771.578          47.750    22652537.560
  92758418.49746     -2159.672          39.500
  24344823.820   127932919.684 7      3681.441          44.000    24344823.700
  99687991.24044      2868.656          34.250
  23057604.340   121168550.083 8     -3183.816          47.000    23057601.260
  94417033.57445     -2480.898          38.750
  24829277.780   130478773.410 6     -3005.332          41.000    24829278.920
 101671795.30844     -2341.820          35.750
  20643999.240   108484999.322 9     -1433.414          51.500    20643999.200
  84533759.05549     -1116.949          50.750
  23633609.000   124195451.793 7      3278.512          43.250    23633607.800
  96775674.52745      2554.680          37.000
 19  1  1  0 58 30.0000000  0 11G07G08G09G11G16G18G23G26G27G28G30
  21246405.200   111650624.454 9      2167.203          51.750    21246402.440
  87000476.45548      1688.727          47.750
  20333909.200   106855455.139 9       744.586          51.500    20333909.460
  83264020.95349       580.191          50.500
  22006001.060   115642332.298 8     -2196.012          48.500    22006000.600
  90110907.08548     -1711.184          45.750
  24168347.620   127005528.253 8      3750.680          45.250    24168345.740
  98965346.40045      2922.605          36.000
  22668375.220   119123165.658 8     -2775.324          47.000    22668372.120
  92823258.37346     -2162.594          40.000
  24323809.820   127822490.926 7      3680.574          43.250    24323809.900
  99601942.91644      2867.980          35.000
  23075802.720   121264183.494 8     -3191.395          46.500    23075799.740
  94491553.09645     -2486.805          38.500
  24846438.520   130568953.469 6     -3006.059          40.000    24846439.680
 101742065.41244     -2342.387          33.000
  20652233.260   108528269.252 9     -1450.926          51.250    20652233.120
  84567475.89149     -1130.590          50.750
  25206598.660   132461567.163 4      2610.801          35.750    25206595.500
 103216803.2254       2034.387          22.500
  23614904.040   124097158.961 7      3274.875          42.500    23614903.120
  96699082.73445      2551.852          38.500
 19  1  1  0 59  0.0000000  0 11G07G08G09G11G16G18G23G26G27G28G30
  21234062.720   111585764.173 9      2156.555          51.750    21234059.900
  86949935.97848      1680.434          47.750
  20329710.800   106833392.514 9       725.949          51.750    20329711.140
  83246829.29949       565.672          50.500
  22018577.920   115708423.944 8     -2210.523          48.750    22018577.680
  90162407.06248     -1722.484          45.750
  24146937.980   126893019.507 8      3749.461          45.500    24146936.000
  98877677.27245      2921.656          37.500
  22684228.300   119206473.376 8     -2778.906          47.500    22684224.920
  92888173.47546     -2165.387          41.000
  24302797.800   127712072.189 7      3680.270          42.500    24302797.780
  99515902.35644      2867.742          34.000
  23094040.600   121360025.753 8     -3198.293          46.000    23094037.720
  94566235.35845     -2492.180          38.500
  24863600.400   130659138.787 7     -3006.496          42.250    24863601.260
 101812339.61944     -2342.727          35.250
  20660565.200   108572053.682 9     -1468.340          51.250    20660564.960
  84601593.63449     -1144.160          51.000
  25191698.480   132383261.267 5      2608.680          37.000    25191695.220
 103155785.7364       2032.730          24.250
  23596218.320   123998965.720 7      3271.090          42.000    23596217.420
  96622568.51046      2548.902          39.500
 19  1  1  0 59 30.0000000  0 11G07G08G09G11G16G18G23G26G27G28G30
  21221781.620   111521226.507 9      2145.852          51.750    21221778.740
  86899646.88848      1672.090          47.500
  20325618.580   106811887.700 9       707.531          51.500    20325618.920
  83230072.30349       551.324          50.500
  22031237.980   115774953.084 8     -2224.902          48.500    22031238.040
  90214247.92648     -1733.695          45.250
  24125538.240   126780563.937 8      3747.629          45.500    24125536.300
  98790049.63345      2920.230          36.750
  22700100.680   119289882.555 8     -2782.211          47.250    22700097.280
  92953167.64546     -2167.957          40.000
  24281789.520   127601672.567 7      3679.645          43.250    24281789.120
  99429876.70744      2867.254          35.500
  23112319.140   121456080.405 8     -3205.469          46.500    23112316.180
  94641083.13745     -2497.770          38.250
  24880764.440   130749335.236 6     -3007.141          41.750    24880765.060
 101882622.52544     -2343.227          34.000
  20668995.920   108616356.792 9     -1485.340          51.500    20668995.540
  84636115.54049     -1157.410          50.500
  25176810.420   132305022.683 5      2606.828          36.000    25176807.400
 103094819.6764       2031.293          23.500
  23577552.900   123900879.907 7      3267.754          43.750    23577552.280
  96546137.99945      2546.297          38.250
                            4  1
RINEX FILE SPLICE; other post-header comments skipped       COMMENT
 19  1  1  1  0  0.0000000  0 11G07G08G09G11G16G18G23G26G27G28G30
  21209562.500   111457014.887 9      2134.941          51.750    21209559.600
  86849611.85748      1663.586          48.000
  20321632.740   106790941.628 9       688.902          51.500    20321633.020
  83213750.69949       536.805          50.750
  22043980.860   115841918.146 8     -2239.371          48.500    22043981.060
  90266428.47148     -1744.969          45.750
  24104149.360   126668165.063 8      3745.656          45.000    24104147.300
  98702466.11145      2918.691          36.500
  22715992.200   119373393.164 8     -2785.391          47.000    22715989.100
  93018240.82846     -2170.438          39.750
  24260785.620   127491296.533 7      3678.602          42.750    24260785.420
  99343869.46144      2866.441          34.750
  23130637.820   121552345.046 8     -3212.207          46.750    23130634.840
  94716094.53646     -2503.020          39.750
  24897930.400   130839543.393 6     -3007.094          39.500    24897930.760
 101952914.53645     -2343.195          36.250
  20677525.100   108661177.544 9     -1502.602          51.250    20677524.600
  84671040.80649     -1170.859          50.750
  25161934.660   132226852.349 4      2604.754          35.500    25161931.820
 103033907.60042      2029.668          26.250
  23558908.960   123802904.690 7      3264.063          44.000    23558908.660
  96469793.69045      2543.422          38.500
 19  1  1  1  0 30.0000000  0 11G07G08G09G11G16G18G23G26G27G28G30
  21197406.260   111393133.617 9      2124.051          51.500    21197403.340
  86799834.24648      1655.102          47.750
  20317753.500   106770556.145 9       670.363          51.500    20317753.700
  83197865.91749       522.359          50.500
  22056806.540   115909318.640 8     -2253.695          48.000    22056806.800
  90318948.32248     -1756.129          45.500
  24082772.340   126555827.815 8      3743.660          46.000    24082770.440
  98614930.65945      2917.137          37.250
  22731903.180   119457006.227 8     -2788.488          47.250    22731900.020
  93083393.87146     -2172.848          40.250
  24239787.040   127380949.038 7      3678.121          42.500    24239787.180
  99257884.43545      2866.070          36.500
  23148996.380   121648819.275 8     -3219.078          46.750    23148993.300
  94791269.20645     -2508.379          38.250
  24915098.680   130929765.053 6     -3007.320          39.000    24915099.880
 102023217.08745     -2343.375          36.500
  20686152.640   108706516.056 9     -1519.742          51.000    20686152.200
  84706369.51249     -1184.219          50.750
  25147072.560   132148752.634 5      2602.551          37.000    25147070.140
 102973050.84042      2027.957          26.500
  23540286.700   123705044.095 7      3260.465          42.500    23540286.280
  96393538.67346      2540.617          39.000
 19  1  1  1  1  0.0000000  0 11G07G08G09G11G16G18G23G26G27G28G30
  21185313.420   111329585.456 9      2112.473          51.750    21185310.480
  86750316.19448      1646.078          48.000
  20313981.080   106750732.088 9       651.254          51.500    20313981.200
  83182418.61049       507.465          50.500
  22069714.740   115977152.435 8     -2268.504          48.000    22069715.080
  90371805.82148     -1767.668          45.500
  24061407.700   126443555.275 8      3741.012          45.000    24061405.460
  98527445.59545      2915.074          36.250
  22747833.640   119540721.649 8     -2792.426          47.000    22747830.660
  93148626.66746     -2175.922          40.500
  24218794.760   127270633.862 7      3676.418          42.750    24218794.860
  99171924.58244      2864.738          34.750
  23167394.560   121745500.070 8     -3226.348          47.000    23167391.180
  94866604.87845     -2514.039          38.750
  24932269.660   131020000.150 6     -3008.211          40.500    24932271.260
 102093530.08244     -2344.059          35.500
  20694878.380   108752370.629 9     -1537.313          51.250    20694877.860
  84742100.35449     -1197.906          50.500
  25132223.860   132070724.039 5      2599.496          37.250    25132222.320
 102912249.30244      2025.582          34.000
  23521686.400   123607300.525 7      3255.957          43.500    23521686.120
  96317374.88245      2537.109          38.500
 19  1  1  1  1 30.0000000  0 11G07G08G09G11G16G18G23G26G27G28G30
  21173283.120   111266365.889 9      2101.875          51.750    21173280.240
  86701054.20548      1637.824          48.000
  20310314.140   106731462.341 9       633.160          51.750    20310314.240
  83167403.22549       493.371          50.250
  22082703.860   116045410.056 8     -2282.207          48.000    22082704.040
  90424993.55947     -1778.348          44.750
  24040054.500   126331343.131 8      3739.477          46.250    24040052.080
  98440007.61445      2913.875          37.250
  22763782.340   119624532.097 8     -2795.277          47.000    22763779.220
  93213933.52046     -2178.137          39.000
  24197807.920   127160347.163 7      3675.656          42.500    24197808.120
  99085986.95244      2864.148          35.000
  23185829.760   121842378.118 8     -3232.441          46.250    23185826.460
  94942094.19446     -2518.793          39.250
  24949442.060   131110241.474 6     -3007.574          39.750    24949443.680
 102163847.91945     -2343.570          38.750
  20703700.680   108798732.349 9     -1553.730          51.250    20703700.140
  84778226.37249     -1210.703          50.500
  25117387.780   131992760.075 5      2597.469          38.500    25117385.160
 102851498.21544      2023.996          33.750
  23503108.360   123509669.252 7      3252.578          44.750    23503107.940
  96241298.56646      2534.473          39.500
 19  1  1  1  2  0.0000000  0 11G07G08G09G11G16G18G23G26G27G28G30
  21161316.640   111203481.718 9      2090.559          51.750    21161313.700
  86652053.54748      1629.008          47.500
  20306753.680   106712751.829 9       614.473          51.750    20306753.720
  83152823.60949       478.809          50.750
  22095774.080   116114093.856 8     -2296.441          48.250    22095773.880
  90478513.39948     -1789.438          45.000
  24018714.140   126219199.106 8      3737.203          45.000    24018711.680
  98352622.70445      2912.105          37.750
  22779749.660   119708441.298 8     -2798.410          46.500    22779746.380
  93279317.32346     -2180.578          40.250
  24176828.000   127050096.958 7      3674.543          43.000    24176827.800
  99000077.73844      2863.281          33.000
  23204302.860   121939454.942 8     -3238.977          46.750    23204299.400
  95017738.44845     -2523.883          37.500
  24966616.400   131200493.649 7     -3008.594          42.000    24966618.280
 102234174.18944     -2344.363          34.000
  20712620.060   108845604.094 9     -1570.762          51.250    20712619.600
  84814749.82249     -1223.969          50.250
  25102564.940   131914865.977 5      2595.375          38.250    25102561.500
 102790801.4964       2022.359          23.250
  23484552.460   123412157.124 7      3248.629          43.250    23484552.040
  96165315.08746      2531.398          40.500
 19  1  1  1  2 30.0000000  0 11G07G08G09G11G16G18G23G26G27G28G30
  21149414.300   111140935.484 9      2079.141          51.750    21149411.400
  86603316.22548      1620.105          47.500
  20303299.560   106694600.456 9       595.703          51.500    20303299.660
  83138679.68049       464.180          50.750
  22108924.760   116183201.222 8     -2310.773          48.000    22108924.560
  90532363.28647     -1800.605          44.750
  23997387.220   126107125.897 8      3734.531          45.750    23997384.980
  98265292.97645      2910.020          37.000
  22795735.580   119792448.347 8     -2801.832          46.750    22795732.600
  93344777.35746     -2183.246          40.250
  24155855.760   126939886.754 7      3672.961          42.000    24155855.360
  98914199.66545      2862.047          38.000
  23222813.380   122036727.772 8     -3245.750          46.500    23222809.920
  95093535.41745     -2529.164          37.500
  24983792.820   131290756.178 6     -3009.137          41.250    24983794.540
 102304508.56144     -2344.793          34.250
  20721635.980   108892983.809 9     -1587.797          51.250    20721635.680
  84851669.07849     -1237.250          50.500
  25087755.040   131837041.322 5      2593.227          36.500    25087751.340
 102730158.9674       2020.699          16.000
  23466019.500   123314766.148 7      3244.289          44.000    23466019.000
  96089426.02146      2528.016          40.000
 19  1  1  1  3  0.0000000  0 11G07G08G09G11G16G18G23G26G27G28G30
  21137575.840   111078724.159 9      2067.941          51.750    21137573.000
  86554839.87448      1611.383          47.500
  20299950.820   106677002.561 9       577.191          51.750    20299950.900
  83124967.03949       449.754          50.500
  22122154.480   116252723.949 8     -2324.566          47.750    22122154.460
  90586536.82348     -1811.355          45.500
  23976073.260   125995120.794 7      3732.102          44.500    23976071.000
  98178016.30145      2908.129          37.750
  22811738.660   119876546.422 8     -2805.055          46.000    22811736.060
  93410308.29246     -2185.762          40.000
  24134890.360   126829713.858 7      3671.746          43.000    24134890.360
  98828350.70544      2861.098          33.250
  23241359.600   122134188.151 8     -3251.910          46.500    23241356.100
  95169478.49246     -2533.965          40.000
  25000970.140   131381023.270 6     -3009.027          41.250    25000971.880
 102374846.55544     -2344.699          33.750
  20730747.280   108940863.827 9     -1604.406          51.250    20730747.060
  84888978.18549     -1250.191          50.500
  25072957.560   131759279.929 5      2591.293          37.500    25072954.460
 102669556.40843      2019.191          30.500
  23447508.720   123217492.782 7      3240.438          43.500    23447508.860
  96013628.62445      2525.016          37.750
 19  1  1  1  3 30.0000000  0 11G07G08G09G11G16G18G23G26G27G28G30
  21125802.780   111016855.901 9      2056.457          51.750    21125799.840
  86506630.84248      1602.430          48.000
  20296708.480   106659963.936 9       558.539          51.500    20296708.620
  83111690.19549       435.223          50.750
  22135463.940   116322665.281 8     -2338.336          47.750    22135464.040
  90641036.55247     -1822.078          44.750
  23954773.860   125883192.227 7      3729.609          44.750    23954771.680
  98090799.28645      2906.188          36.750
  22827760.200   119960741.413 8     -2808.098          46.250    22827757.780
  93475914.77446     -2188.133          40.500
  24113934.040   126719587.637 7      3670.063          43.000    24113934.040
  98742538.05545      2859.785          36.750
  23259941.800   122231838.581 8     -3258.145          46.250    23259938.420
  95245569.66045     -2538.816          37.750
  25018149.360   131471300.538 7     -3009.426          42.750    25018151.020
 102445192.37044     -2345.012          33.500
  20739954.560   108989247.942 9     -1621.297          51.250    20739954.260
  84926680.09349     -1263.352          50.250
  25058174.260   131681589.874 6      2588.633          39.250    25058171.340
 102609018.71242      2017.109          27.500
  23429022.100   123120345.041 7      3236.180          44.500    23429022.360
  95937929.09645      2521.699          38.500
 19  1  1  1  4  0.0000000  0 11G07G08G09G11G16G18G23G26G27G28G30
  21114095.200   110955331.746 9      2045.273          51.750    21114092.300
  86458689.95048      1593.715          48.000
  20293572.360   106643483.775 9       540.223          51.500    20293572.620
  83098848.51249       420.953          50.500
  22148852.120   116393021.595 8     -2351.977          47.750    22148852.540
  90695859.62847     -1832.715          44.250
  23933489.280   125771342.139 7      3727.148          44.500    23933487.240
  98003643.38945      2904.270          36.000
  22843799.920   120045031.220 8     -2811.070          46.000    22843797.840
  93541595.12546     -2190.449          41.000
  24092987.060   126609510.065 7      3668.715          43.250    24092987.120
  98656763.37944      2858.738          35.750
  23278559.640   122329675.399 8     -3264.184          46.500    23278556.180
  95321806.08345     -2543.523          37.000
  25035330.600   131561586.504 7     -3009.332          42.000    25035332.220
 102515544.95442     -2344.938          26.500
  20749257.080   109038132.970 9     -1637.586          51.250    20749256.720
  84964772.32349     -1276.043          50.000
  25043403.040   131603969.429 6      2586.441          39.000    25043399.920
 102548535.26542      2015.406          27.750
  23410559.480   123023323.888 7      3232.309          44.000    23410559.400
  95862328.18146      2518.684          39.000
 19  1  1  1  4 30.0000000  0 11G07G08G09G11G16G18G23G26G27G28G30
  21102453.140   110894151.270 9      2033.223          52.000    21102450.260
  86411016.84948      1584.328          48.500
  20290541.900   106627558.713 9       521.199          51.500    20290542.180
  83086439.37549       406.125          50.750
  22162318.360   116463787.753 8     -2365.879          47.750    22162319.020
  90751002.06048     -1843.547          45.000
  23912219.700   125659570.607 7      3724.266          44.500    23912217.560
  97916548.71745      2902.020          37.500
  22859857.320   120129412.344 8     -2814.602          46.250    22859855.200
  93607346.64046     -2193.199          40.750
  24072049.500   126499482.003 7      3666.453          43.250    24072049.300
  98571027.24745      2856.973          37.000
  23297212.060   122427693.109 8     -3270.719          46.500    23297208.280
  95398183.48845     -2548.617          38.500
  25052512.740   131651878.358 6     -3010.238          41.250    25052514.260
 102585902.20644     -2345.645          32.250
  20758654.040   109087514.336 9     -1654.641          51.250    20758653.640
  85003251.30949     -1289.336          50.000
  25028644.960   131526416.178 6      2583.672          39.750    25028642.180
 102488104.13643      2013.250          29.750
  23392121.220   122926428.948 7      3227.371          44.500    23392121.140
  95786825.63345      2514.836          38.750
 19  1  1  1  5  0.0000000  0 11G07G08G09G11G16G18G23G26G27G28G30
  21090877.780   110833321.864 9      2021.629          51.750    21090874.940
  86363617.31548      1575.297          48.500
  20287618.060   106612194.127 9       502.730          51.500    20287618.320
  83074466.97749       391.734          50.750
  22175863.200   116534966.013 8     -2379.418          47.750    22175863.880
  90806465.63547     -1854.098          44.750
  23890966.640   125547885.319 7      3721.285          44.500    23890964.820
  97829521.26445      2899.703          36.250
  22875932.880   120213888.765 8     -2817.469          47.000    22875930.460
  93673172.41446     -2195.434          40.500
  24051122.820   126389511.545 7      3664.547          43.250    24051122.740
  98485336.02645      2855.488          38.250
  23315899.220   122525893.752 8     -3276.535          45.500    23315895.520
  95474703.44345     -2553.148          38.000
  25069696.620   131742180.722 6     -3010.391          41.250    25069698.300
 102656267.66044     -2345.758          35.000
  20768146.000   109137394.875 9     -1670.977          51.250    20768145.600
  85042119.27049     -1302.059          50.250
  25013900.420   131448934.952 5      2580.922          38.500    25013898.000
 102427729.18443      2011.109          28.250
  23373707.940   122829667.189 7      3222.926          43.750    23373708.400
  95711426.89646      2511.371          39.250
 19  1  1  1  5 30.0000000  0 11G07G08G09G11G16G18G23G26G27G28G30
  21079368.640   110772840.639 9      2010.172          52.000    21079365.780
  86316489.08548      1566.363          48.500
  20284799.740   106597384.147 9       484.340          51.500    20284800.100
  83062926.73749       377.406          50.500
  22189484.900   116606548.351 8     -2392.852          47.750    22189485.300
  90862244.06447     -1864.563          44.750
  23869729.560   125436283.737 7      3718.691          44.750    23869727.660
  97742559.03045      2897.680          36.250
  22892025.260   120298454.302 8     -2820.395          46.500    22892022.640
  93739067.63446     -2197.715          39.750
  24030206.800   126279596.479 7      3662.852          44.000    24030206.480
  98399687.95944      2854.172          34.250
  23334619.060   122624268.952 8     -3282.086          45.750    23334615.580
  95551359.41845     -2557.469          37.500
  25086881.500   131832487.878 5     -3010.039          38.750    25086883.540
 102726636.74544     -2345.492          34.500
  20777731.500   109187767.042 9     -1687.297          51.250    20777731.120
  85081370.31749     -1314.781          50.000
  24999169.220   131371520.537 6      2579.453          39.000    24999167.180
 102367406.3264       2009.957          21.000
  23355319.740   122733035.324 7      3219.160          44.750    23355319.760
  95636129.32145      2508.438          38.250
 19  1  1  1  6  0.0000000  0 11G07G08G09G11G16G18G23G26G27G28G30
  21067926.180   110712710.248 9      1998.773          51.750    21067923.440
  86269634.23748      1557.484          48.500
  20282087.100   106583129.348 9       466.164          51.750    20282087.460
  83051819.10949       363.246          50.500
  22203182.980   116678532.709 8     -2405.746          48.000    22203183.220
  90918335.75947     -1874.605          43.750
  23848509.100   125324769.023 8      3715.895          45.250    23848507.240
  97655664.46745      2895.508          37.500
  22908134.720   120383109.460 8     -2822.965          47.250    22908131.720
  93805032.69445     -2199.715          38.000
  24009301.860   126169740.633 7      3661.219          43.500    24009301.400
  98314086.04445      2852.898          37.250
  23353371.980   122722816.282 8     -3287.578          45.500    23353368.580
  95628149.54245     -2561.754          38.750
  25104067.600   131922800.279 6     -3010.332          39.500    25104069.580
 102797009.97544     -2345.711          34.500
  20787410.260   109238629.350 9     -1703.305          51.250    20787409.920
  85121003.27649     -1327.254          50.000
  24984450.740   131294174.131 5      2577.105          38.500    24984448.700
 102307136.46544      2008.129          32.250
  23336956.740   122636536.143 7      3214.527          44.500    23336956.620
  95560935.14646      2504.824          40.000
 19  1  1  1  6 30.0000000  0 11G07G08G09G11G16G18G23G26G27G28G30
  21056551.940   110652938.376 9      1986.898          51.750    21056549.100
  86223058.75648      1548.230          48.000
  20279481.120   106569434.476 9       447.551          51.750    20279481.380
  83041147.78949       348.742          50.500
  22216958.260   116750921.632 8     -2419.207          47.750    22216958.200
  90974742.69247     -1885.102          44.000
  23827306.600   125213349.409 8      3712.645          45.250    23827304.640
  97568844.05244      2892.969          32.500
  22924261.920   120467858.344 8     -2826.008          47.000    22924258.580
  93871070.76146     -2202.090          39.250
  23988409.760   126059952.629 7      3658.949          44.250    23988409.580
  98228536.99144      2851.129          35.750
  23372157.700   122821537.746 8     -3293.094          45.000    23372154.660
  95705075.30345     -2566.051          36.500
  25121255.260   132013122.710 6     -3009.992          40.750    25121256.780
 102867390.97742     -2345.449          26.250
  20797182.940   109289984.857 9     -1719.586          51.250    20797182.540
  85161020.55449     -1339.941          49.750
  24969745.420   131216901.068 5      2574.727          37.000    24969743.900
 102246923.7234       2006.281          21.250
  23318619.900   122540176.907 7      3210.129          44.000    23318620.220
  95485850.03346      2501.398          39.750
 19  1  1  1  7  0.0000000  0 11G07G08G09G11G16G18G23G26G27G28G30
  21045244.460   110593517.809 9      1974.621          51.750    21045241.800
  86176757.02648      1538.664          48.500
  20276979.900   106556290.271 9       428.793          51.500    20276980.140
  83030905.55749       334.125          50.750
  22230808.180   116823703.154 8     -2432.754          47.750    22230808.240
  91031455.55148     -1895.656          45.000
  23806120.940   125102018.083 7      3709.215          44.500    23806118.960
  97482092.36345      2890.297          38.250
  22940405.060   120552690.484 8     -2829.414          46.500    22940401.200
  93937173.74646     -2204.738          39.750
  23967529.320   125950226.498 7      3656.379          43.500    23967529.280
  98143036.16745      2849.125          38.000
  23390974.440   122920421.284 8     -3298.930          45.250    23390971.580
  95782127.37545     -2570.598          38.000
  25138443.860   132103445.500 7     -3010.785          42.250    25138444.880
 102937772.28244     -2346.070          32.250
  20807047.380   109341822.114 9     -1736.176          51.250    20807046.820
  85201413.23249     -1352.867          50.000
  24955053.200   131139692.156 5      2572.605          36.750    24955050.280
 102186760.99843      2004.645          31.500
  23300308.400   122443950.439 7      3205.145          44.000    23300309.020
  95410868.38846      2497.512          39.750
 19  1  1  1  7 30.0000000  0 11G07G08G09G11G16G18G23G26G27G28G30
  21034005.420   110534456.967 9      1962.711          51.500    21034002.820
  86130735.59748      1529.383          48.500
  20274584.520   106543702.309 9       410.379          51.500    20274584.760
  83021096.75249       319.773          50.750
  22244733.580   116896880.321 8     -2445.934          47.750    22244733.500
  91088476.70047     -1905.926          44.500
  23784953.800   124990783.846 8      3706.063          45.750    23784952.000
  97395416.41444      2887.840          35.750
  22956564.940   120637611.329 8     -2832.137          46.250    22956561.100
  94003345.82546     -2206.863          40.000
  23946662.520   125840571.118 7      3653.945          43.500    23946662.700
  98057590.46145      2847.227          37.250
  23409823.000   123019469.858 8     -3304.414          46.250    23409819.880
  95859308.05245     -2574.871          38.000
  25155633.080   132193774.305 6     -3011.242          41.250    25155634.380
 103008158.23943     -2346.426          28.750
  20817004.100   109394144.736 9     -1752.133          51.000    20817003.280
  85242184.11149     -1365.301          50.000
  24940374.680   131062553.178 5      2569.859          38.000    24940371.780
 102126652.72242      2002.492          26.500
  23282024.240   122347864.714 7      3200.348          44.750    23282024.500
  95335996.38846      2493.777          41.000
 19  1  1  1  8  0.0000000  0 11G07G08G09G11G16G18G23G26G27G28G30
  21022835.540   110475758.962 9      1950.133          51.750    21022833.000
  86084996.89348      1519.586          48.500
  20272295.120   106531671.368 9       391.418          51.750    20272295.400
  83011721.99649       304.996          51.000
  22258733.600   116970451.388 8     -2459.262          47.750    22258733.540
  91145804.78047     -1916.313          44.000
  23763805.980   124879650.393 8      3702.352          45.750    23763804.160
  97308818.95545      2884.949          37.250
  22972741.540   120722621.066 8     -2835.426          46.500    22972738.140
  94069587.14146     -2209.426          40.000
  23925810.020   125730990.955 7      3651.125          44.000    23925810.620
  97972203.36345      2845.031          37.500
  23428702.700   123118681.289 8     -3309.961          46.500    23428699.140
  95936615.66045     -2579.195          37.750
  25172822.980   132284109.678 5     -3011.668          38.250    25172825.040
 103078549.40844     -2346.758          34.000
  20827052.940   109446951.487 9     -1768.594          51.250    20827052.100
  85283332.22449     -1378.129          50.000
  24925709.520   130985485.195 5      2567.250          37.500    24925706.300
 102066599.78744      2000.469          32.000
  23263767.160   122251922.699 7      3195.402          44.500    23263767.460
  95261236.39046      2489.922          39.750
 19  1  1  1  8 30.0000000  0 11G07G08G09G11G16G18G23G26G27G28G30
  21011734.500   110417422.944 9      1938.449          51.750    21011732.020
  86039540.25748      1510.480          48.500
  20270111.140   106520194.182 9       373.297          51.750    20270111.360
  83002778.73449       290.879          50.750
  22272807.740   117044410.610 8     -2471.797          48.250    22272807.620
  91203435.32447     -1926.078          44.500
  23742677.160   124768617.426 8      3699.223          46.000    23742675.160
  97222299.79945      2882.512          36.750
  22988934.420   120807715.792 8     -2838.137          46.250    22988931.300
  94135894.71846     -2211.539          39.750
  23904971.760   125621486.038 7      3648.785          44.250    23904972.540
  97886874.89544      2843.211          35.750
  23447612.140   123218049.571 8     -3314.934          46.000    23447608.460
  96014045.42145     -2583.074          36.750
  25190014.000   132374448.346 6     -3011.184          40.750    25190015.940
 103148943.10243     -2346.375          29.500
  20837192.820   109500237.152 9     -1784.184          51.250    20837191.980
  85324853.52049     -1390.277          50.000
  24911056.500   130908485.528 5      2565.566          38.000    24911052.800
 102006600.02041      1999.156          25.000
  23245537.320   122156123.610 8      3190.883          45.250    23245537.500
  95186587.75846      2486.398          39.250
 19  1  1  1  9  0.0000000  0 11G07G08G09G11G16G18G23G26G27G28G30
  21000703.100   110359452.641 9      1926.801          51.750    21000700.660
  85994368.59348      1501.398          48.250
  20268032.620   106509271.525 9       355.391          51.750    20268032.820
  82994267.56549       276.926          50.750
  22286955.540   117118756.632 8     -2484.207          48.250    22286955.340
  91261367.27447     -1935.750          44.750
  23721568.360   124657689.539 8      3696.348          46.500    23721566.680
  97135862.51345      2880.266          37.000
  23005143.760   120892896.134 8     -2840.258          46.250    23005140.780
  94202268.99446     -2213.191          40.000
  23884148.640   125512061.125 7      3646.699          43.750    23884149.420
  97801608.75445      2841.582          36.750
  23466550.920   123317573.458 8     -3319.457          46.000    23466547.080
  96091596.46745     -2586.594          37.000
  25207205.980   132464791.390 5     -3011.020          38.750    25207207.340
 103219340.15644     -2346.262          35.250
  20847423.720   109554000.916 9     -1799.441          51.500    20847422.920
  85366747.35549     -1402.164          50.000
  24896417.520   130831555.597 6      2563.773          40.500    24896413.460
 101946654.58043      1997.746          31.500
  23227335.440   122060470.921 8      3186.465          45.250    23227335.360
  95112053.17246      2482.957          40.250
 19  1  1  1  9 30.0000000  0 11G07G08G09G11G16G18G23G26G27G28G30
  20989741.880   110301851.007 9      1913.840          51.750    20989739.320
  85949484.19348      1491.301          48.500
  20266059.580   106498903.426 9       336.332          51.500    20266059.800
  82986188.52949       262.078          50.750
  22301176.560   117193487.217 8     -2497.414          48.000    22301176.280
  91319598.88747     -1946.039          44.750
  23700479.880   124546869.236 8      3692.055          47.250    23700477.920
  97049509.03445      2876.926          38.000
  23021369.320   120978162.145 8     -2843.473          46.250    23021366.480
  94268710.00946     -2215.695          40.250
  23863341.640   125402719.904 7      3643.402          43.750    23863342.200
  97716407.83945      2839.016          36.000
  23485518.600   123417250.141 8     -3325.141          45.500    23485514.940
  96169266.54245     -2591.023          37.750
  25224398.020   132555138.997 5     -3011.875          36.000    25224400.800
 103289740.8684      -2346.918          22.750
  20857745.380   109608241.069 9     -1815.996          51.250    20857744.520
  85409012.41249     -1415.066          50.000
  24881791.680   130754696.216 6      2560.660          40.000    24881788.300
 101886764.20043      1995.320          30.250
  23209161.660   121964967.301 7      3180.938          44.750    23209161.240
  95037634.76646      2478.652          39.000
 19  1  1  1 10  0.0000000  0 11G07G08G09G11G16G18G23G26G27G28G30
  20978850.800   110244618.121 9      1901.445          51.750    20978848.120
  85904887.13548      1481.641          48.250
  20264191.780   106489088.300 9       317.730          51.500    20264192.020
  82978540.37249       247.578          50.750
  22315469.720   117268597.846 8     -2510.262          48.250    22315469.440
  91378126.63647     -1956.051          44.750
  23679412.140   124436157.741 8      3688.328          46.500    23679410.520
  96963240.41546      2874.027          39.000
  23037610.840   121063511.071 8     -2846.586          46.000    23037607.660
  94335215.66346     -2218.121          41.000
  23842550.960   125293463.957 7      3640.211          44.000    23842551.320
  97631273.36344      2836.523          34.750
  23504514.320   123517075.036 8     -3330.047          45.000    23504510.480
  96247052.15044     -2594.844          35.000
  25241591.060   132645489.174 5     -3012.277          37.000    25241593.480
 103360143.4604      -2347.238          18.750
  20868156.740   109662953.642 9     -1831.770          51.000    20868156.060
  85451645.58649     -1427.355          50.000
  24867178.980   130677905.565 6      2558.211          39.000    24867175.700
 101826927.39343      1993.402          31.000
  23191016.400   121869613.125 8      3176.043          45.750    23191016.500
  94963332.82046      2474.840          40.250
 19  1  1  1 10 30.0000000  0 11G07G08G09G11G16G18G23G26G27G28G30
  20968030.740   110187758.151 9      1889.273          51.750    20968027.900
  85860580.66348      1472.156          48.250
  20262429.380   106479827.127 9       299.547          51.500    20262429.620
  82971323.87049       233.410          50.750
  22329834.700   117344087.387 8     -2522.566          47.500    22329834.720
  91436949.63247     -1965.641          44.000
  23658366.000   124325559.713 8      3684.625          46.500    23658364.220
  96877060.13145      2871.137          38.750
  23053868.040   121148943.601 8     -2848.992          46.250    23053864.940
  94401786.45246     -2219.992          39.000
  23821777.560   125184298.331 7      3637.199          43.750    23821777.620
  97546209.26145      2834.180          37.250
  23523538.200   123617046.737 8     -3334.660          46.250    23523534.300
  96324952.16444     -2598.438          34.500
  25258785.080   132735843.084 5     -3012.094          37.500    25258787.920
 103430548.94544     -2347.102          32.250
  20878657.800   109718138.005 9     -1847.230          51.000    20878657.240
  85494646.38649     -1439.398          50.000
  24852579.520   130601185.489 6      2556.137          40.000    24852577.280
 101767145.55543      1991.797          31.500
  23172900.300   121774412.243 8      3170.809          45.750    23172900.460
  94889150.32345      2470.762          38.250
 19  1  1  1 11  0.0000000  0 11G07G08G09G11G16G18G23G26G27G28G30
  20957281.740   110131271.381 9      1876.586          51.750    20957278.800
  85816565.00048      1462.270          48.500
  20260771.920   106471117.200 9       281.133          51.500    20260772.180
  82964536.90849       219.063          50.750
  22344270.800   117419950.965 8     -2534.969          48.000    22344271.300
  91496064.07647     -1975.305          44.500
  23637341.500   124215075.727 8      3680.930          46.000    23637339.780
  96790968.76446      2868.258          39.000
  23070140.680   121234457.261 8     -2851.902          46.000    23070137.840
  94468420.44646     -2222.266          39.750
  23801021.520   125075223.947 7      3634.215          43.000    23801021.780
  97461216.27445      2831.855          36.750
  23542588.960   123717160.049 7     -3339.664          44.000    23542585.460
  96402962.52945     -2602.340          38.500
  25275979.100   132826198.490 5     -3011.508          36.000    25275981.740
 103500955.74241     -2346.633          25.500
  20889247.880   109773789.826 9     -1862.844          51.000    20889247.480
  85538011.43549     -1451.570          50.000
  24837993.440   130524533.949 5      2553.809          38.500    24837991.340
 101707417.06244      1989.980          33.250
  23154813.320   121679364.655 7      3165.676          44.750    23154812.760
  94815087.22546      2466.758          40.250
 19  1  1  1 11 30.0000000  0 11G07G08G09G11G16G18G23G26G27G28G30
  20946604.660   110075163.028 9      1863.953          51.750    20946601.760
  85772844.20648      1452.426          48.750
  20259220.040   106462961.548 9       262.598          51.500    20259220.220
  82958181.85449       204.617          51.000
  22358778.360   117496188.963 8     -2547.496          48.000    22358778.960
  91555470.29347     -1985.066          44.500
  23616339.760   124104711.474 8      3676.793          47.000    23616337.900
  96704970.66245      2865.031          38.750
  23086429.300   121320053.959 8     -2854.625          46.250    23086426.180
  94535119.19046     -2224.387          40.000
  23780284.180   124966247.704 7      3630.793          43.250    23780284.420
  97376299.75245      2829.188          37.250
  23561666.880   123817415.319 8     -3344.109          45.250    23561663.680
  96481083.46744     -2605.805          34.000
  25293173.980   132916558.344 4     -3011.969          35.000    25293175.620
 103571365.90843     -2347.012          31.000
  20899927.200   109829910.013 9     -1878.430          51.000    20899926.820
  85581741.45149     -1463.715          50.250
  24823420.700   130447954.251 5      2551.590          38.000    24823418.400
 101647744.60045      1988.250          37.250
  23136756.540   121584475.696 8      3160.328          45.500    23136756.340
  94741147.80746      2462.594          39.750
 19  1  1  1 12  0.0000000  0 11G07G08G09G11G16G18G23G26G27G28G30
  20935999.140   110019430.815 9      1851.270          51.750    20935996.260
  85729416.51148      1442.543          48.500
  20257772.600   106455354.803 9       244.258          51.500    20257772.780
  82952254.52549       190.328          51.000
  22373355.800   117572793.819 8     -2559.906          47.750    22373356.320
  91615162.36347     -1994.734          44.250
  23595360.620   123994465.536 8      3672.738          46.750    23595358.880
  96619064.79546      2861.875          39.000
  23102732.860   121405729.154 8     -2857.441          46.500    23102729.600
  94601879.05846     -2226.582          39.250
  23759565.200   124857367.855 7      3627.551          44.000    23759565.140
  97291458.34045      2826.664          38.250
  23580770.660   123917805.121 8     -3348.797          45.750    23580767.040
  96559309.30945     -2609.457          36.250
  25310369.080   133006917.475 4     -3012.504          34.750    25310371.400
 103641775.5674      -2347.375          17.500
  20910694.340   109886491.555 9     -1893.855          51.250    20910693.940
  85625830.97149     -1475.730          50.000
  24808860.840   130371442.017 5      2549.090          36.500    24808858.040
 101588124.75043      1986.301          31.000
  23118729.520   121489742.854 8      3155.188          46.500    23118729.180
  94667330.00646      2458.582          39.500
 19  1  1  1 12 30.0000000  0 10G07G08G09G11G16G18G23G27G28G30
  20925466.000   109964078.300 9      1838.621          51.750    20925463.020
  85686284.67348      1432.688          48.750
  20256429.700   106448297.853 9       226.063          51.500    20256429.920
  82946755.60449       176.148          50.750
  22388003.000   117649764.050 8     -2571.996          47.750    22388003.140
  91675139.15847     -2004.156          43.750
  23574404.800   123884341.838 8      3668.758          46.750    23574402.860
  96533254.14246      2858.770          39.250
  23119051.260   121491482.888 8     -2859.641          46.000    23119048.040
  94668700.13945     -2228.293          38.750
  23738865.160   124748589.038 7      3624.270          43.500    23738865.060
  97206695.71444      2824.105          35.500
  23599899.420   124018327.619 8     -3352.871          45.500    23599896.060
  96637638.52744     -2612.625          35.500
  20921549.140   109943533.523 9     -1909.109          51.000    20921548.760
  85670279.25949     -1487.617          50.000
  24794313.800   130294998.779 5      2546.723          38.250    24794310.160
 101528558.52144      1984.453          35.000
  23100733.020   121395169.623 8      3149.613          46.000    23100732.320
  94593636.57346      2454.242          40.000
 19  1  1  1 13  0.0000000  0 10G07G08G09G11G16G18G23G27G28G30
  20915006.300   109909112.137 9      1825.555          51.750    20915003.260
  85643453.89948      1422.508          48.500
  20255192.220   106441794.941 9       207.328          51.750    20255192.500
  82941688.40649       161.555          50.750
  22402719.800   117727101.435 8     -2584.164          47.500    22402719.700
  91735402.01647     -2013.637          43.500
  23553473.400   123774347.779 8      3664.254          46.750    23553471.680
  96447544.54346      2855.262          39.000
  23135385.120   121577319.053 8     -2862.738          46.500    23135382.160
  94735585.44745     -2230.711          38.750
  23718185.980   124639919.408 7      3620.230          44.250    23718185.580
  97122018.12945      2820.957          36.000
  23619053.660   124118984.235 8     -3357.441          45.250    23619050.400
  96716072.22644     -2616.191          35.250
  20932491.940   110001038.207 9     -1924.605          51.250    20932491.560
  85715088.09349     -1499.691          49.750
  24779780.940   130218628.721 5      2544.492          38.750    24779777.460
 101469049.46444      1982.719          32.750
  23082768.160   121300762.756 8      3144.082          46.500    23082767.380
  94520072.78446      2449.934          41.500
 19  1  1  1 13 30.0000000  0 10G07G08G09G11G16G18G23G27G28G30
  20904619.360   109854528.215 9      1812.551          51.750    20904616.320
  85600920.97648      1412.375          48.500
  20254058.900   106435839.304 9       188.926          51.500    20254059.160
  82937047.64649       147.211          51.000
  22417504.540   117804796.701 8     -2596.199          47.000    22417504.300
  91795943.75347     -2023.016          43.750
  23532566.020   123664479.643 8      3659.727          46.000    23532564.280
  96361933.04745      2851.734          38.250
  23151733.740   121663230.813 8     -2865.484          45.750    23151730.700
  94802529.65645     -2232.848          38.000
  23697527.160   124531355.575 8      3616.488          45.500    23697526.460
  97037422.93044      2818.039          35.750
  23638231.460   124219765.694 7     -3362.039          43.750    23638228.580
  96794603.15444     -2619.777          35.250
  20943521.200   110058996.868 9     -1939.988          51.000    20943520.720
  85760250.69349     -1511.680          50.000
  24765260.900   130142325.942 6      2541.758          39.500    24765258.060
 101409592.71444      1980.590          32.250
  23064833.920   121206518.001 8      3138.336          45.500    23064833.320
  94446635.31146      2445.457          41.500
 19  1  1  1 14  0.0000000  0 11G07G08G09G11G16G18G23G26G27G28G30
  20894306.280   109800332.645 9      1800.012          51.750    20894303.260
  85558690.66948      1402.605          48.750
  20253030.180   106430433.641 9       171.086          51.500    20253030.520
  82932835.43149       133.309          50.750
  22432357.560   117882850.986 8     -2607.691          47.000    22432357.680
  91856765.23747     -2031.973          43.750
  23511683.940   123554744.155 8      3655.660          46.250    23511682.200
  96276424.89846      2848.566          39.500
  23168097.140   121749221.124 8     -2867.672          45.000    23168094.040
  94869535.08546     -2234.555          40.000
  23676889.800   124422904.797 8      3613.180          45.000    23676888.960
  96952915.84445      2815.461          36.000
  23657433.680   124320672.956 8     -3365.488          45.250    23657430.940
  96873232.13445     -2622.461          38.750
  25379151.400   133368339.156 4     -3011.660          32.750

  20954637.040   110117411.170 9     -1954.641          50.750    20954636.600
  85805768.32049     -1523.102          50.000
  24750754.380   130066094.330 5      2539.813          38.500    24750751.560
 101350191.49744      1979.074          34.000
  23046931.660   121112441.549 8      3133.129          46.000    23046931.220
  94373328.99546      2441.395          40.500
 19  1  1  1 14 30.0000000  0 10G07G08G09G11G16G18G23G27G28G30
  20884067.520   109746527.732 9      1786.695          51.750    20884064.560
  85516764.75849      1392.227          49.000
  20252106.160   106425577.820 9       152.379          51.500    20252106.460
  82929051.66449       118.734          51.000
  22447278.380   117961261.338 8     -2619.957          47.000    22447279.000
  91917864.17047     -2041.527          44.500
  23490827.700   123445143.924 8      3650.523          46.250    23490825.960
  96191022.17846      2844.563          39.000
  23184475.300   121835289.240 8     -2870.441          45.000    23184472.600
  94936601.13946     -2236.711          40.000
  23656274.480   124314570.357 8      3608.758          45.250    23656273.440
  96868499.41645      2812.020          38.750
  23676659.320   124421702.928 7     -3370.000          44.750    23676656.480
  96951956.78544     -2625.977          35.750
  20965839.040   110176278.668 9     -1970.156          50.750    20965838.700
  85851639.09049     -1535.191          50.000
  24736261.420   129989934.204 6      2537.012          40.500    24736258.840
 101290845.98544      1976.891          34.000
  23029061.720   121018535.419 8      3127.023          45.500    23029061.320
  94300155.39146      2436.641          40.750
 19  1  1  1 15  0.0000000  0 10G07G08G09G11G16G18G23G27G28G30
  20873902.800   109693112.086 9      1774.043          51.750    20873900.040
  85475142.17548      1382.367          48.750
  20251286.020   106421268.013 9       134.496          51.750    20251286.320
  82925693.35349       104.797          50.750
  22462266.140   118040021.416 8     -2631.164          47.500    22462266.620
  91979235.63147     -2050.262          43.000
  23469997.140   123335678.165 8      3646.395          46.500    23469995.080
  96105724.18145      2841.348          38.250
  23200867.600   121921431.148 8     -2872.199          45.500    23200865.280
  95003724.67145     -2238.078          38.000
  23635681.260   124206352.163 7      3605.211          44.750    23635680.280
  96784173.57345      2809.254          38.250
  23695906.660   124522849.228 7     -3373.238          43.500    23695903.920
  97030772.05244     -2628.504          35.750
  20977126.260   110235593.601 9     -1984.625          51.000    20977125.920
  85897858.52349     -1546.465          50.000
  24721781.760   129913842.005 6      2535.066          40.750    24721779.320
 101231553.37144      1975.375          33.500
  23011224.260   120924798.437 8      3121.844          47.000    23011223.640
  94227113.57546      2432.602          40.000
 19  1  1  1 15 30.0000000  0 10G07G08G09G11G16G18G23G27G28G30
  20863813.240   109640091.400 9      1760.461          51.750    20863810.540
  85433827.35548      1371.789          48.750
  20250570.320   106417506.839 9       115.961          51.750    20250570.580
  82922762.54849        90.355          50.750
  22477320.660   118119131.874 8     -2643.082          47.500    22477320.820
  92040880.13347     -2059.547          43.750
  23449193.340   123226353.505 8      3641.289          47.000    23449191.460
  96020536.21445      2837.367          37.750
  23217274.700   122007649.214 8     -2875.574          46.250    23217271.660
  95070907.58045     -2240.707          37.000
  23615111.460   124098257.232 8      3600.844          45.000    23615110.720
  96699943.78345      2805.852          36.500
  23715176.040   124624112.729 8     -3377.586          45.000    23715174.100
  97109678.59644     -2631.891          35.500
  20988498.900   110295357.181 9     -1999.844          51.000    20988498.640
  85944427.54149     -1558.320          49.750
  24707315.400   129837821.222 6      2532.582          39.000    24707313.120
 101172316.31543      1973.434          30.750
  22993420.100   120831236.351 8      3115.340          46.750    22993419.560
  94154208.06346      2427.535          40.000
 19  1  1  1 16  0.0000000  0 10G07G08G09G11G16G18G23G27G28G30
  20853798.920   109587465.717 9      1747.750          51.750    20853796.260
  85392820.32749      1361.879          49.000
  20249958.480   106414291.404 9        98.250          51.500    20249958.720
  82920256.99149        76.555          51.000
  22492440.520   118198587.398 8     -2654.148          46.500    22492440.840
  92102793.50147     -2068.172          43.500
  23428416.580   123117170.103 8      3637.313          46.500    23428414.240
  95935458.24545      2834.266          38.250
  23233695.720   122093941.009 8     -2877.578          46.250    23233692.360
  95138147.93945     -2242.273          38.750
  23594565.040   123990286.411 7      3597.078          44.250    23594564.520
  96615810.70145      2802.918          38.250
  23734467.440   124725487.703 8     -3380.762          46.000    23734465.240
  97188672.06145     -2634.363          38.250
  20999955.980   110355564.569 9     -2014.008          50.750    20999955.660
  85991342.38949     -1569.359          50.000
  24692862.360   129761869.630 6      2530.656          39.250    24692860.380
 101113133.29944      1971.938          35.250
  22975649.020   120737848.858 8      3109.996          46.750    22975648.380
  94081438.58946      2423.371          40.250
 19  1  1  1 16 30.0000000  0 10G07G08G09G11G16G18G23G27G28G30
  20843860.900   109535240.970 9      1734.414          51.750    20843858.220
  85352125.72548      1351.488          48.750
  20249451.000   106411624.421 9        80.063          51.750    20249451.220
  82918178.79849        62.383          50.750
  22507626.220   118278388.643 8     -2665.594          46.750    22507626.420
  92164976.27847     -2077.090          43.250
  23407667.700   123008134.137 8      3632.379          46.750    23407665.640
  95850495.20445      2830.422          37.250
  23250131.060   122180309.083 8     -2880.055          46.000    23250127.640
  95205447.70846     -2244.199          39.250
  23574043.520   123882446.291 7      3592.797          44.750    23574043.160
  96531779.47046      2799.582          39.500
  23753780.100   124826974.469 7     -3384.152          44.000    23753777.520
  97267752.64445     -2637.004          36.750
  21011497.720   110416217.006 9     -2028.816          50.750    21011497.400
  86038604.02649     -1580.895          49.750
  24678423.080   129685990.940 6      2528.555          39.750    24678420.700
 101054007.08943      1970.301          31.250
  22957912.420   120644641.739 8      3104.484          46.500    22957911.640
  94008809.66546      2419.074          41.250
 19  1  1  1 17  0.0000000  0 10G07G08G09G11G16G18G23G27G28G30
  20833998.920   109483415.022 9      1720.602          52.250    20833996.020
  85311741.86749      1340.723          49.000
  20249047.100   106409501.786 9        61.484          51.750    20249047.320
  82916524.76849        47.906          50.750
  22522876.360   118358528.969 8     -2677.129          46.750    22522876.480
  92227423.25447     -2086.078          43.250
  23386946.720   122899244.904 8      3626.898          47.250    23386944.480
  95765646.47345      2826.152          38.750
  23266580.220   122266748.938 8     -2882.641          46.500    23266576.720
  95272803.43345     -2246.219          37.250
  23553547.100   123774736.649 8      3588.063          45.000    23553546.500
  96447849.89045      2795.895          38.000
  23773112.300   124928566.861 7     -3388.266          44.000    23773109.740
  97346915.55544     -2640.203          34.250
  21023122.960   110477308.375 9     -2043.863          51.000    21023122.740
  86086207.67849     -1592.625          49.750
  24663997.340   129610181.686 6      2525.641          41.500    24663994.720
 100994934.93444      1968.027          34.000
  22940209.440   120551613.454 8      3097.797          46.250    22940208.620
  93936320.08446      2413.863          40.250
 19  1  1  1 17 30.0000000  0 10G07G08G09G11G16G18G23G27G28G30
  20824213.380   109431991.016 9      1707.355          52.000    20824210.320
  85271671.21749      1330.406          49.000
  20248746.760   106407923.363 9        43.473          51.500    20248746.980
  82915294.80749        33.871          50.750
  22538190.740   118439006.342 8     -2688.125          46.500    22538190.960
  92290132.86347     -2094.648          43.500
  23366254.440   122790506.047 8      3622.203          47.250    23366252.360
  95680914.93745      2822.492          37.250
  23283042.680   122353260.529 8     -2884.957          45.750    23283039.400
  95340215.06546     -2248.020          39.000
  23533076.160   123667161.532 7      3583.391          44.750    23533075.740
  96364025.15945      2792.254          37.500
  23792464.460   125030262.773 7     -3391.602          44.250    23792461.380
  97426159.12944     -2642.809          35.500
  21034831.660   110538837.207 9     -2058.289          50.750    21034831.340
  86134152.21949     -1603.867          50.000
  24649584.560   129534442.336 6      2523.473          40.250    24649582.060
 100935917.24543      1966.340          29.500
  22922541.420   120458767.199 8      3091.895          46.000    22922540.720
  93863972.34246      2409.270          41.750
 19  1  1  1 18  0.0000000  0 10G07G08G09G11G16G18G23G27G28G30
  20814504.980   109380972.764 9      1693.855          52.000    20814501.840
  85231916.73949      1319.883          49.250
  20248550.120   106406890.018 9        25.332          51.500    20248550.380
  82914489.59149        19.734          50.750
  22553568.800   118519819.324 8     -2699.348          46.250    22553569.240
  92353103.98147     -2103.391          42.750
  23345591.700   122681921.917 8      3616.859          47.500    23345589.180
  95596303.93945      2818.332          38.500
  23299519.060   122439845.266 8     -2887.367          45.750    23299516.140
  95407683.65645     -2249.902          38.750
  23512631.640   123559726.068 8      3578.980          45.500    23512631.500
  96280309.25445      2788.813          38.750
  23811836.140   125132060.201 8     -3394.980          46.250    23811833.180
  97505481.74945     -2645.441          38.250
  21046623.420   110600802.560 9     -2072.703          51.000    21046622.920
  86182436.90549     -1615.098          49.500
  24635185.180   129458774.883 6      2521.031          39.750    24635182.480
 100876955.64244      1964.441          32.250
  22904908.480   120366106.611 8      3085.656          46.000    22904908.180
  93791769.32246      2404.406          41.750
 19  1  1  1 18 30.0000000  0 10G07G08G09G11G16G18G23G27G28G30
  20804873.160   109330357.287 9      1680.035          52.000    20804870.100
  85192476.10849      1309.113          49.000
  20248456.140   106406395.971 9         7.086          51.500    20248456.400
  82914104.61349         5.520          50.750
  22569009.280   118600959.833 8     -2710.496          46.250    22569009.720
  92416330.32147     -2112.078          43.500
  23324957.820   122573490.088 8      3611.336          47.750    23324955.340
  95511811.65445      2814.027          38.750
  23316008.280   122526497.206 8     -2889.863          45.750    23316005.300
  95475204.66545     -2251.840          37.750
  23492213.500   123452428.202 8      3573.711          45.750    23492213.500
  96196700.53745      2784.707          37.500
  23831225.860   125233951.327 7     -3398.621          44.500    23831222.720
  97584877.43345     -2648.281          37.000
  21058496.580   110663196.917 9     -2087.297          50.500    21058496.160
  86231055.87949     -1626.469          50.000
  24620799.320   129383174.353 7      2518.324          42.000    24620796.140
 100818046.13444      1962.332          35.250
  22887310.720   120273628.794 8      3079.219          46.750    22887310.300
  93719708.67546      2399.387          41.500
 19  1  1  1 19  0.0000000  0 10G07G08G09G11G16G18G23G27G28G30
  20795319.460   109280152.481 9      1666.645          52.000    20795316.420
  85153355.47648      1298.680          48.750
  20248465.440   106406445.539 9       -10.727          51.500    20248465.880
  82914143.23649        -8.363          50.750
  22584512.620   118682430.374 8     -2721.180          45.500    22584512.880
  92479813.83747     -2120.398          43.500
  23304354.360   122465218.545 8      3606.215          47.500    23304351.800
  95427444.23245      2810.039          38.500
  23332511.080   122613220.544 8     -2891.719          45.500    23332508.280
  95542781.24545     -2253.293          38.000
  23471823.360   123345276.999 8      3569.012          45.750    23471823.000
  96113206.13845      2781.047          38.250
  23850633.220   125335938.577 7     -3401.137          43.500    23850630.160
  97664347.98344     -2650.242          35.750
  21070451.920   110726023.323 9     -2101.383          50.750    21070451.760
  86280011.50749     -1637.445          49.500
  24606427.020   129307646.130 6      2516.391          40.250    24606423.380
 100759193.01244      1960.824          32.500
  22869749.060   120181341.406 8      3072.926          46.750    22869748.620
  93647796.43946      2394.488          40.500
 19  1  1  1 19 30.0000000  0 10G07G08G09G11G16G18G23G27G28G30
  20785843.740   109230357.648 9      1652.707          51.750    20785840.780
  85114554.30649      1287.824          49.250
  20248577.720   106407035.769 9       -28.914          51.500    20248578.220
  82914603.15549       -22.531          50.750
  22600077.560   118764225.238 8     -2732.074          45.750    22600077.800
  92543550.07847     -2128.891          43.500
  23283781.500   122357107.494 8      3600.820          47.500    23283779.160
  95343201.91445      2805.836          38.750
  23349027.040   122700012.190 7     -2894.621          44.500    23349024.200
  95610411.09546     -2255.555          39.000
  23451461.180   123238272.721 8      3564.180          45.750    23451460.560
  96029826.20645      2777.281          37.500
  23870058.040   125438016.391 8     -3404.547          45.250    23870054.740
  97743889.12444     -2652.895          35.250
  21082488.600   110789276.593 9     -2115.816          50.250    21082488.460
  86329299.77449     -1648.688          49.500
  24592067.540   129232187.373 6      2513.688          39.500    24592064.120
 100700394.03843      1958.715          31.500
  22852223.720   120089243.888 8      3066.426          46.500    22852222.980
  93576032.12846      2389.418          40.750
 19  1  1  1 20  0.0000000  0 10G07G08G09G11G16G18G23G27G28G30
  20776446.580   109180975.557 9      1639.184          51.750    20776443.700
  85076074.75049      1277.281          49.000
  20248792.940   106408166.652 9       -46.637          51.500    20248793.420
  82915484.36149       -36.340          50.750
  22615703.720   118846342.445 8     -2742.434          46.000    22615704.400
  92607537.47947     -2136.965          42.750
  23263239.920   122249160.797 8      3595.570          48.000    23263237.620
  95259087.63346      2801.742          39.750
  23365555.880   122786872.797 8     -2896.227          45.000    23365553.180
  95678094.66045     -2256.805          37.000
  23431128.080   123131419.923 8      3559.293          46.250    23431127.100
  95946564.30845      2773.477          37.500
  23889500.060   125540182.875 8     -3406.797          45.250    23889496.580
  97823499.37644     -2654.648          35.000
  21094606.100   110852955.218 9     -2129.688          50.500    21094606.080
  86378919.48049     -1659.496          49.250
  24577721.880   129156798.616 6      2511.496          40.250    24577717.960
 100641649.53842      1957.012          27.500
  22834735.120   119997339.516 8      3060.188          46.750    22834734.180
  93504418.33447      2384.563          42.000
 19  1  1  1 20 30.0000000  0 10G07G08G09G11G16G18G23G27G28G30
  20767128.880   109132011.210 9      1626.035          51.750    20767126.060
  85037920.71349      1267.035          49.000
  20249111.420   106409840.053 9       -64.000          51.500    20249111.840
  82916788.30949       -49.875          51.000
  22631391.400   118928781.789 8     -2752.438          46.000    22631392.240
  92671775.92347     -2144.762          43.750
  23242730.580   122141383.855 8      3590.578          47.250    23242728.340
  95175105.63045      2797.852          38.750
  23382098.380   122873804.277 7     -2897.879          44.750    23382095.300
  95745833.44545     -2258.094          37.500
  23410824.780   123024724.649 8      3554.723          46.250    23410823.680
  95863425.16445      2769.910          38.750
  23908958.260   125642437.391 7     -3409.129          42.750    23908955.440
  97903178.20144     -2656.469          34.500
  21106804.680   110917059.764 9     -2143.098          50.500    21106804.680
  86428871.06049     -1669.949          49.250
  24563390.060   129081484.026 6      2510.098          40.750    24563386.160
 100582962.85643      1955.918          30.750
  22817284.100   119905633.285 8      3054.527          47.000    22817283.320
  93432958.96046      2380.152          41.750
 19  1  1  1 21  0.0000000  0 11G01G07G08G09G11G16G18G23G27G28G30
  25238267.400   132627986.963 6      3759.844          39.000    25238269.540
 103346495.94543      2929.746          30.250
  20757890.700   109083464.706 9      1611.180          52.000    20757887.920
  85000092.27949      1255.461          49.000
  20249532.620   106412053.245 9       -82.914          51.500    20249532.980
  82918512.87349       -64.613          50.750
  22647139.540   119011538.195 8     -2763.891          46.250    22647140.460
  92736261.39147     -2153.684          43.750
  23222253.600   122033777.072 8      3583.926          47.750    23222251.300
  95091256.20446      2792.668          39.500
  23398653.760   122960803.309 7     -2901.066          44.500    23398650.640
  95813624.91745     -2260.574          38.250
  23390551.320   122918187.986 8      3548.516          45.500    23390550.340
  95780409.62345      2765.078          37.500
  23928431.920   125744774.908 7     -3412.375          44.000    23928430.040
  97982921.63545     -2658.996          36.250
  21119083.560   110981585.491 9     -2158.063          51.000    21119083.260
  86479150.85549     -1681.605          49.000
  24549071.700   129006240.899 6      2506.715          41.000    24549068.280
 100524331.91444      1953.281          34.250
  22799870.720   119814125.292 8      3046.785          47.000    22799869.600
  93361654.02546      2374.113          41.750
 19  1  1  1 21 30.0000000  0 11G01G07G08G09G11G16G18G23G27G28G30
  25216792.240   132515132.924 5      3763.340          38.750    25216794.560
 103258557.69944      2932.469          32.250
  20748731.660   109035333.857 9      1597.270          52.000    20748728.860
  84962587.72548      1244.625          48.750
  20250055.540   106414800.838 9      -100.668          51.750    20250055.800
  82920653.86449       -78.441          50.750
  22662946.820   119094604.217 8     -2774.266          47.000    22662947.360
  92800988.13347     -2161.770          42.250
  23201808.780   121926338.891 8      3578.309          47.750    23201806.260
  95007538.17045      2788.289          38.750
  23415221.220   123047865.708 7     -2903.434          44.750    23415217.740
  95881465.72245     -2262.418          36.250
  23370307.980   122811809.131 8      3543.395          45.500    23370307.180
  95697517.05445      2761.086          38.500
  23947920.420   125847188.095 7     -3415.043          44.250    23947918.520
  98062724.06744     -2661.078          35.750
  21131441.400   111046525.585 9     -2171.766          50.750    21131440.940
  86529753.53649     -1692.285          49.250
  24534766.560   128931064.962 7      2504.574          42.000    24534763.180
 100465753.26644      1951.613          33.000
  22782494.660   119722813.391 8      3040.281          47.750    22782493.580
  93290501.88646      2369.047          41.250
 19  1  1  1 22  0.0000000  0 11G01G07G08G09G11G16G18G23G27G28G30
  25195297.740   132402177.061 5      3766.063          38.500    25195299.360
 103170540.19843      2934.590          28.250
  20739652.580   108987623.164 9      1582.789          51.750    20739649.840
  84925410.56649      1233.344          49.250
  20250680.480   106418084.318 9      -118.938          51.500    20250680.580
  82923212.42649       -92.680          51.000
  22678812.840   119177979.310 8     -2785.047          46.250    22678812.940
  92865955.74147     -2170.172          43.000
  23181397.100   121819074.889 8      3571.891          47.000    23181394.660
  94923955.87246      2783.293          40.500
  23431800.860   123134992.934 7     -2906.211          44.000    23431797.580
  95949357.04746     -2264.582          39.000
  23350095.860   122705593.734 8      3536.980          45.750    23350094.920
  95614751.83045      2756.086          37.500
  23967423.700   125949676.632 7     -3418.297          44.750    23967421.100
  98142585.32245     -2663.609          37.500
  21143878.060   111111880.093 9     -2186.047          50.750    21143877.620
  86580679.12349     -1703.414          49.000
  24520474.080   128855958.550 6      2501.887          41.250    24520470.700
 100407228.75044      1949.520          33.000
  22765156.840   119631702.285 8      3033.051          46.750    22765155.720
  93219506.23146      2363.414          41.750
 19  1  1  1 22 30.0000000  0 11G01G07G08G09G11G16G18G23G27G28G30
  25173785.460   132289127.853 5      3769.941          38.000    25173786.700
 103082449.88442      2937.617          26.250
  20730654.980   108940340.444 9      1569.000          51.750    20730652.240
  84888566.88249      1222.594          49.000
  20251408.280   106421908.778 9      -136.375          51.500    20251408.280
  82926192.52949      -106.270          51.000
  22694738.100   119261666.346 8     -2794.770          47.000    22694738.200
  92931166.38447     -2177.746          43.500
  23161020.140   121711993.530 8      3566.156          47.500    23161017.620
  94840515.88346      2778.824          39.500
  23448393.920   123222189.948 7     -2907.590          44.500    23448390.620
  96017302.74445     -2265.660          36.500
  23329916.580   122599550.944 8      3531.828          45.500    23329915.800
  95532121.10946      2752.074          39.000
  23986941.560   126052243.500 7     -3420.164          43.250    23986938.720
  98222507.54444     -2665.063          34.250
  21156394.200   111177652.359 9     -2199.383          50.500    21156393.660
  86631930.24349     -1713.805          49.250
  24506196.040   128780927.411 6      2500.023          39.250    24506192.760
 100348762.97545      1948.070          36.250
  22747858.460   119540800.059 8      3026.559          47.000    22747857.380
  93148673.32946      2358.355          40.500
 19  1  1  1 23  0.0000000  0 11G01G07G08G09G11G16G18G23G27G28G30
  25152254.440   132175982.728 5      3773.672          37.750    25152256.060
 102994284.84342      2940.520          27.750
  20721738.240   108893482.575 9      1555.152          51.750    20721735.460
  84852054.26349      1211.809          49.250
  20252237.700   106426267.748 9      -153.938          51.500    20252237.820
  82929589.14049      -119.953          50.750
  22710721.160   119345656.902 8     -2804.527          47.000    22710721.000
  92996613.53247     -2185.352          42.250
  23140677.460   121605092.146 8      3560.563          48.000    23140675.000
  94757216.14646      2774.465          40.500
  23464999.260   123309450.616 7     -2909.457          44.750    23464995.720
  96085298.09645     -2267.109          36.500
  23309769.480   122493678.614 8      3526.527          45.750    23309768.880
  95449623.22145      2747.941          38.750
  24006472.280   126154880.081 7     -3422.242          42.750    24006469.820
  98302484.04244     -2666.688          32.500
  21168988.160   111243834.515 9     -2212.637          50.750    21168987.900
  86683500.74049     -1724.137          49.250
  24491931.260   128705966.627 6      2497.648          40.000    24491928.500
 100290352.02544      1946.215          32.500
  22730599.320   119450103.565 8      3020.078          47.000    22730598.420
  93078000.72046      2353.305          41.250
 19  1  1  1 23 30.0000000  0 11G01G07G08G09G11G16G18G23G27G28G30
  25130705.640   132062744.924 5      3776.758          38.000    25130707.280
 102906047.62844      2942.930          33.250
  20712902.880   108847052.182 9      1540.688          51.750    20712900.040
  84815874.73249      1200.535          49.000
  20253168.700   106431160.811 9      -171.953          51.500    20253168.960
  82933401.91849      -133.992          50.750
  22726761.360   119429948.446 8     -2814.625          46.750    22726760.940
  93062295.24747     -2193.219          42.250
  23120369.680   121498373.984 8      3554.215          47.000    23120367.020
  94674059.15746      2769.520          39.000
  23481616.520   123396775.149 8     -2911.652          45.000    23481613.420
  96153343.15645     -2268.824          37.250
  23289655.800   122387980.701 8      3520.293          45.000    23289655.220
  95367261.26245      2743.086          36.500
  24026016.220   126257583.958 7     -3424.406          44.500    24026014.040
  98382512.95545     -2668.375          38.500
  21181659.980   111310424.611 9     -2226.348          50.750    21181659.600
  86735389.12448     -1734.820          48.750
  24477680.000   128631076.444 6      2495.207          39.750    24477677.240
 100231996.00443      1944.320          31.000
  22713379.940   119359615.569 8      3012.805          46.750    22713379.280
  93007490.59447      2347.637          42.000
 19  1  1  1 24  0.0000000  0 11G01G07G08G09G11G16G18G23G27G28G30
  25109140.040   131949418.679 5      3778.934          37.250    25109141.840
 102817741.43643      2944.625          31.250
  20704149.540   108801052.757 9      1526.289          51.750    20704146.680
  84780031.02049      1189.313          49.250
  20254201.380   106436588.367 9      -189.754          51.500    20254201.860
  82937631.17849      -147.863          50.750
  22742858.540   119514539.514 8     -2824.664          47.000    22742857.980
  93128210.33647     -2201.039          42.000
  23100097.440   121391843.212 8      3548.090          47.000    23100095.040
  94591048.19446      2764.746          39.250
  23498246.060   123484164.147 7     -2913.941          44.750    23498243.300
  96221438.47945     -2270.609          37.250
  23269576.220   122282462.130 8      3514.000          45.500    23269575.620
  95285039.01545      2738.184          37.500
  24045573.040   126360353.925 7     -3426.961          44.250    24045570.800
  98462593.40444     -2670.363          35.500
  21194409.120   111377421.694 9     -2239.965          50.750    21194408.620
  86787594.65048     -1745.426          48.500
  24463442.420   128556258.370 6      2493.469          40.500    24463439.160
 100173696.24744      1942.961          34.000
  22696200.960   119269339.846 8      3005.648          46.750    22696200.720
  92937145.88847      2342.063          42.000
 19  1  1  1 24 30.0000000  0 11G01G07G08G09G11G16G18G23G27G28G30
  25087557.400   131836003.458 5      3782.117          37.750    25087560.360
 102729364.97345      2947.105          36.500
  20695477.900   108755482.750 9      1512.234          51.750    20695475.140
  84744521.92149      1178.359          49.250
  20255335.140   106442546.319 9      -207.074          51.500    20255335.640
  82942273.73449      -161.359          50.750
  22759011.540   119599423.734 8     -2833.867          46.750    22759010.780
  93194353.85547     -2208.211          42.000
  23079860.820   121285499.555 8      3541.941          47.750    23079858.460
  94508183.01346      2759.953          39.750
  23514887.320   123571614.033 8     -2915.676          45.750    23514884.440
  96289581.23145     -2271.961          38.500
  23249530.860   122177122.844 8      3508.918          45.750    23249530.560
  95202956.52245      2734.223          38.750
  24065140.980   126463183.077 7     -3428.105          43.250    24065138.520
  98542720.00144     -2671.254          35.500
  21207234.580   111444820.002 9     -2252.832          50.500    21207234.100
  86840112.80949     -1755.453          49.000
  24449217.960   128481509.634 6      2490.633          39.500    24449214.560
 100115450.44844      1940.750          32.000
  22679062.080   119179275.377 8      2998.926          46.750    22679061.800
  92866965.78346      2336.820          41.500
 19  1  1  1 25  0.0000000  0 10G07G08G09G11G16G18G23G27G28G30
  20686889.520   108710350.233 9      1497.695          51.750    20686886.780
  84709353.72849      1167.031          49.250
  20256570.800   106449039.469 9      -224.676          51.500    20256571.240
  82947333.33449      -175.074          50.750
  22775220.940   119684603.645 8     -2843.426          47.000    22775219.740
  93260727.78146     -2215.660          41.250
  23059661.440   121179351.344 8      3535.625          47.750    23059659.280
  94425470.13346      2755.027          40.500
  23531541.120   123659129.310 8     -2917.754          45.500    23531538.020
  96357774.93145     -2273.578          38.000
  23229521.420   122071971.939 8      3502.688          45.750    23229521.080
  95121020.78346      2729.367          39.000
  24084720.360   126566075.006 6     -3430.023          41.000    24084717.680
  98622895.46743     -2672.754          30.250
  21220136.940   111512622.556 9     -2266.145          50.250    21220136.380
  86892945.96849     -1765.832          49.000
  24435007.740   128406835.341 6      2488.996          41.250    24435004.920
 100057262.68344      1939.473          32.750
  22661965.140   119089429.941 8      2991.855          47.250    22661964.900
  92796956.36347      2331.313          42.500
 19  1  1  1 25 30.0000000  0 11G01G07G08G09G11G16G18G23G27G28G30
  25044345.600   131608924.347 5      3787.988          37.750    25044349.240
 102552422.79944      2951.684          32.500
  20678383.100   108665649.629 9      1482.602          51.500    20678380.580
  84674522.09749      1155.270          49.500
  20257906.620   106456059.133 9      -242.879          51.500    20257907.040
  82952803.19949      -189.258          51.000
  22791484.420   119770068.743 8     -2853.637          46.000    22791483.160
  93327323.94146     -2223.617          41.250
  23039498.420   121073393.661 8      3528.563          48.000    23039496.200
  94342905.71046      2749.527          40.750
  23548205.920   123746702.274 8     -2920.219          45.000    23548202.900
  96426013.58646     -2275.500          39.250
  23209546.920   121967005.117 8      3495.676          46.250    23209546.600
  95039228.50346      2723.902          39.000
  24104309.820   126669018.455 8     -3432.340          45.000    24104307.020
  98703111.16844     -2674.551          35.500
  21233114.400   111580819.466 9     -2279.887          50.500    21233113.840
  86946086.41449     -1776.539          49.000
  24420810.560   128332228.299 6      2486.137          39.750    24420807.340
  99999127.35244      1937.242          35.250
  22644909.000   118999798.438 8      2984.098          47.250    22644908.580
  92727113.64347      2325.266          42.750
 19  1  1  1 26  0.0000000  0 11G01G07G08G09G11G16G18G23G27G28G30
  25022716.680   131495263.240 5      3789.957          38.250    25022719.920
 102463855.67443      2953.211          28.000
  20669959.780   108621385.501 9      1468.059          51.750    20669957.380
  84640030.56949      1143.938          49.500
  20259342.880   106463606.627 9      -260.488          51.500    20259343.300
  82958684.36449      -202.980          51.000
  22807801.760   119855818.628 8     -2863.168          45.500    22807801.220
  93394141.98847     -2231.043          43.000
  23019372.780   120967631.932 8      3522.059          48.250    23019370.420
  94260494.01346      2744.461          40.250
  23564881.820   123834334.744 8     -2922.188          45.750    23564878.700
  96494298.60145     -2277.031          38.500
  23189608.580   121862228.397 8      3489.086          46.500    23189608.160
  94957584.35046      2718.770          39.500
  24123909.540   126772013.466 8     -3433.980          45.250    24123906.300
  98783367.01945     -2675.828          36.750
  21246166.920   111649410.835 9     -2293.109          50.500    21246166.260
  86999534.23849     -1786.844          49.000
  24406626.620   128257691.102 6      2483.332          40.250    24406624.060
  99941046.43443      1935.055          31.500
  22627894.520   118910385.717 8      2976.563          47.500    22627893.680
  92657441.39547      2319.395          42.500
 19  1  1  1 26 30.0000000  0 11G01G07G08G09G11G16G18G23G27G28G30
  25001073.540   131381527.264 5      3792.391          38.250    25001077.140
 102375230.25144      2955.105          32.500
  20661620.460   108577562.373 9      1453.383          51.750    20661618.060
  84605882.67549      1132.504          49.500
  20260879.980   106471683.727 9      -278.078          51.500    20260880.340
  82964978.20849      -216.688          50.750
  22824173.400   119941852.511 8     -2872.473          46.250    22824173.320
  93461181.31647     -2238.293          43.000
  22999285.300   120862071.178 8      3515.332          48.000    22999283.000
  94178238.91146      2739.219          40.750
  23581569.440   123922028.246 8     -2924.320          45.750    23581566.460
  96562631.18746     -2278.691          39.500
  23169707.400   121757647.439 8      3482.738          46.250    23169707.020
  94876092.71446      2713.820          40.250
  24143518.680   126875059.422 7     -3435.848          44.250    24143515.520
  98863662.57844     -2677.285          35.250
  21259294.480   111718396.436 9     -2306.004          50.500    21259293.720
  87053289.26248     -1796.891          48.750
  24392456.440   128183226.070 6      2481.148          40.500    24392454.200
  99883021.73144      1933.359          33.000
  22610922.440   118821196.354 8      2969.152          47.500    22610921.440
  92587943.18047      2313.621          42.500
 19  1  1  1 27  0.0000000  0 11G01G07G08G09G11G16G18G23G27G28G30
  24979416.760   131267719.153 6      3794.305          39.750    24979419.860
 102286548.66743      2956.602          30.000
  20653365.480   108534182.111 9      1438.449          51.750    20653363.000
  84572079.87149      1120.867          49.250
  20262517.540   106480288.979 9      -295.781          51.500    20262517.860
  82971683.59749      -230.484          50.750
  22840598.880   120028167.241 8     -2882.066          46.750    22840598.820
  93528439.50846     -2245.766          41.750
  22979236.460   120756714.049 8      3508.395          48.500    22979234.100
  94096142.48846      2733.813          40.250
  23598268.420   124009782.280 7     -2926.105          44.000    23598265.320
  96631010.94845     -2280.086          38.500
  23149844.000   121653265.398 8      3475.840          46.000    23149843.840
  94794756.08146      2708.445          39.500
  24163136.480   126978153.173 7     -3437.336          42.750    24163133.540
  98943995.29944     -2678.449          35.000
  21272496.560   111787773.693 9     -2319.352          50.500    21272495.760
  87107349.46248     -1807.289          48.250
  24378300.080   128108833.237 6      2478.453          40.500    24378297.640
  99825053.30443      1931.262          31.500
  22593992.780   118732232.524 8      2961.449          46.500    22593992.260
  92518620.72347      2307.621          42.000
 19  1  1  1 27 30.0000000  0 11G01G07G08G09G11G16G18G23G27G28G30
  24957747.100   131153842.839 6      3797.332          41.750    24957749.700
 102197813.87144      2958.957          35.250
  20645195.440   108491247.822 9      1424.066          51.750    20645192.820
  84538624.57549      1109.660          49.250
  20264255.620   106489422.762 9      -312.891          51.500    20264255.900
  82978800.82849      -243.816          50.500
  22857077.120   120114760.958 8     -2890.504          45.250    22857076.860
  93595915.09546     -2252.344          40.750
  22959227.160   120651564.665 8      3501.922          48.250    22959225.000
  94014207.95946      2728.770          40.750
  23614978.720   124097597.034 7     -2927.688          44.250    23614975.740
  96699438.00645     -2281.316          37.000
  23130019.440   121549087.055 8      3469.523          46.500    23130019.240
  94713578.18846      2703.523          39.250
  24182762.980   127081292.987 7     -3438.387          43.250    24182760.060
  99024363.95043     -2679.262          30.250
  21285772.840   111857541.278 9     -2331.723          50.500    21285772.100
  87161713.81048     -1816.930          48.250
  24364157.280   128034513.724 6      2476.195          39.000    24364154.020
  99767142.05544      1929.512          32.000
  22577106.780   118643497.703 8      2954.348          47.000    22577106.240
  92449476.70547      2302.090          42.250
 19  1  1  1 28  0.0000000  0 11G01G07G08G09G11G16G18G23G27G28G30
  24936063.900   131039896.055 6      3798.867          41.000    24936066.200
 102109024.15143      2960.156          31.250
  20637109.720   108448756.787 9      1408.473          51.750    20637107.120
  84505514.67449      1097.508          49.250
  20266093.040   106499078.611 9      -331.098          51.500    20266093.320
  82986324.86549      -258.004          50.750
  22873606.380   120201625.470 7     -2900.598          44.750    22873606.420
  93663601.70146     -2260.207          41.750
  22939257.020   120546620.614 8      3494.164          48.250    22939254.520
  93932433.38746      2722.727          41.500
  23631699.580   124185467.570 7     -2930.344          44.250    23631696.860
  96767908.52344     -2283.387          35.750
  23110233.280   121445110.406 8      3461.918          46.250    23110233.040
  94632557.45946      2697.594          39.000
  24202397.300   127184470.716 8     -3440.543          45.000    24202393.840
  99104762.24444     -2680.941          33.750
  21299121.980   111927691.532 9     -2345.289          50.500    21299121.240
  87216376.34848     -1827.496          48.500
  24350027.300   127960262.656 5      2472.977          38.500    24350024.400
  99709284.01644      1926.988          35.250
  22560263.860   118554989.072 8      2945.836          47.000    22560263.640
  92380508.93247      2295.453          42.250
 19  1  1  1 28 30.0000000  0 11G01G07G08G09G11G16G18G23G27G28G30
  24914368.720   130925887.470 6      3801.281          41.750    24914371.300
 102020186.34544      2962.035          33.500
  20629109.740   108406716.412 9      1393.859          51.750    20629107.080
  84472755.93949      1086.121          49.750
  20268030.660   106509260.975 9      -348.152          51.500    20268030.940
  82994259.17449      -271.293          50.750
  22890188.100   120288763.562 8     -2909.133          45.250    22890188.280
  93731501.46847     -2266.859          42.000
  22919327.520   120441890.618 8      3487.313          48.250    22919325.060
  93850825.63346      2717.383          40.250
  23648431.960   124273398.465 7     -2932.262          43.500    23648429.300
  96836426.09945     -2284.883          36.500
  23090487.380   121341344.712 8      3455.293          46.750    23090487.000
  94551701.13446      2692.438          39.000
  24222039.320   127287688.983 7     -3441.102          42.500    24222035.720
  99185192.08445     -2681.383          36.500
  21312544.660   111998227.861 9     -2357.586          50.250    21312543.920
  87271339.72748     -1837.082          48.250
  24335912.040   127886085.783 6      2471.371          40.750    24335909.400
  99651483.86844      1925.738          33.000
  22543465.660   118466714.744 8      2938.551          46.000    22543465.600
  92311723.75247      2289.781          42.750
 19  1  1  1 29  0.0000000  0 11G01G07G08G09G11G16G18G23G27G28G30
  24892661.400   130811814.736 6      3803.203          41.750    24892663.740
 101931298.54844      2963.539          35.500
  20621194.920   108365123.481 9      1378.906          52.000    20621192.220
  84440345.86249      1074.469          49.250
  20270067.300   106519963.843 9      -365.523          51.500    20270067.600
  83002599.06749      -284.824          50.500
  22906820.720   120376166.856 8     -2917.906          46.000    22906820.820
  93799607.91146     -2273.695          41.750
  22899438.000   120337371.849 8      3480.297          48.000    22899435.900
  93769382.49246      2711.918          40.750
  23665175.080   124361383.997 7     -2933.785          44.000    23665172.540
  96904986.25645     -2286.066          36.500
  23070781.420   121237788.350 8      3448.297          46.500    23070780.660
  94471007.86845      2686.984          38.250
  24241687.040   127390940.463 6     -3442.105          40.000    24241683.740
  99265647.72645     -2682.168          36.000
  21326039.120   112069142.489 9     -2370.164          50.250    21326038.520
  87326597.87848     -1846.887          48.250
  24321810.240   127811977.944 6      2469.246          40.750    24321807.480
  99593737.50243      1924.086          28.000
  22526711.680   118378671.817 8      2930.875          47.250    22526711.460
  92243118.87747      2283.793          42.500
 19  1  1  1 29 30.0000000  0 11G01G07G08G09G11G16G18G23G27G28G30
  24870942.480   130697680.749 7      3805.207          42.250    24870944.860
 101842363.05045      2965.098          36.000
  20613365.640   108323980.053 9      1363.910          51.750    20613362.940
  84408286.04849      1062.789          49.750
  20272202.780   106531186.058 9      -382.660          51.500    20272203.100
  83011343.64649      -298.180          50.750
  22923503.180   120463832.501 8     -2926.313          45.500    22923503.320
  93867918.78247     -2280.246          42.750
  22879589.160   120233067.456 8      3473.266          47.500    22879587.140
  93688106.35646      2706.441          40.750
  23681928.760   124449423.731 7     -2935.418          44.500    23681925.900
  96973588.61245     -2287.344          36.250
  23051115.660   121134444.559 8      3441.207          46.250    23051115.000
  94390480.28445      2681.461          38.750
  24261340.680   127494221.963 7     -3443.246          44.000    24261337.620
  99346126.74244     -2683.055          34.500
  21339605.120   112140433.054 9     -2382.586          50.250    21339604.840
  87382148.96248     -1856.563          48.500
  24307721.220   127737939.223 7      2466.836          42.000    24307718.780
  99536045.02144      1922.211          34.500
  22510002.500   118290862.767 8      2923.078          46.750    22510002.280
  92174696.24047      2277.723          43.500
 19  1  1  1 30  0.0000000  0 11G01G07G08G09G11G16G18G23G27G28G30
  24849212.760   130583489.780 7      3807.402          42.000    24849215.060
 101753383.11045      2966.809          37.500
  20605622.580   108283289.696 9      1348.813          51.750    20605619.800
  84376579.27649      1051.023          49.750
  20274437.160   106542927.870 9      -400.023          51.500    20274437.520
  83020493.10049      -311.711          50.750
  22940234.880   120551758.761 7     -2935.188          44.750    22940235.440
  93936432.69247     -2287.164          42.000
  22859782.140   120128981.415 8      3465.832          47.500    22859780.320
  93607000.39346      2700.648          40.000
  23698692.940   124537518.400 7     -2937.426          44.250    23698689.940
  97042233.75545     -2288.902          36.250
  23031491.180   121031318.098 8      3434.074          45.500    23031490.580
  94310122.04246      2675.902          40.000
  24281000.340   127597531.752 8     -3444.109          45.000    24280996.760
  99426627.89444     -2683.727          34.750
  21353242.540   112212098.408 9     -2395.012          49.750    21353242.340
  87437992.09548     -1866.246          48.500
  24293645.940   127663970.984 6      2464.266          41.500    24293642.740
  99478407.46844      1920.211          34.500
  22493338.440   118203291.272 8      2914.984          47.500    22493338.000
  92106458.71347      2271.418          43.000
 19  1  1  1 30 30.0000000  0 11G01G07G08G09G11G16G18G23G27G28G30
  24827472.900   130469247.765 6      3808.801          40.000    24827475.540
 101664363.45545      2967.898          38.250
  20597966.620   108243057.358 9      1333.355          51.750    20597963.840
  84345229.40649      1038.977          49.750
  20276770.860   106555191.359 9      -417.520          51.500    20276771.220
  83030049.07849      -325.340          50.750
  22957015.820   120639945.690 7     -2943.938          44.750    22957016.680
  94005149.69347     -2293.980          42.500
  22840018.020   120025119.769 8      3458.270          48.000    22840016.040
  93526069.26746      2694.754          41.750
  23715467.820   124625670.745 8     -2939.438          45.000    23715464.820
  97110923.87645     -2290.477          38.250
  23011909.300   120928415.457 8      3426.418          46.000    23011908.880
  94229938.20946      2669.934          39.000
  24300665.100   127700870.169 7     -3444.859          42.750    24300660.980
  99507151.34644     -2684.309          34.000
  21366951.260   112284139.164 9     -2407.523          49.750    21366951.080
  87494127.73948     -1875.996          48.500
  24279584.340   127590076.535 6      2462.152          41.000    24279580.540
  99420827.35844      1918.559          34.500
  22476720.440   118115962.748 8      2906.898          47.000    22476720.000
  92038410.51747      2265.117          43.250
 19  1  1  1 31  0.0000000  0 11G01G07G08G09G11G16G18G23G27G28G30
  24805723.900   130354957.255 6      3811.105          39.250    24805726.680
 101575306.00245      2969.691          38.750
  20590398.180   108203284.609 9      1318.531          51.750    20590395.260
  84314237.65349      1027.422          49.750
  20279203.620   106567975.331 9      -434.316          51.250    20279203.980
  83040010.63349      -338.430          50.750
  22973846.320   120728389.839 8     -2952.008          45.750    22973846.880
  94074067.15246     -2300.270          41.000
  22820297.140   119921484.590 8      3451.125          48.500    22820294.820
  93445314.59646      2689.184          41.250
  23732253.520   124713879.836 7     -2940.660          44.000    23732250.400
  97179658.21245     -2291.422          37.000
  22992370.700   120825739.802 8      3419.098          46.000    22992370.400
  94149931.24645      2664.230          38.750
  24320334.360   127804233.876 6     -3445.566          40.500    24320330.440
  99587694.50543     -2684.859          31.000
  21380731.100   112356552.475 9     -2419.500          49.750    21380730.940
  87550553.70248     -1885.324          48.750
  24265536.140   127516255.457 6      2459.945          41.250    24265532.920
  99363304.46144      1916.832          35.000
  22460149.000   118028879.217 8      2899.191          47.500    22460148.460
  91970553.20947      2259.105          43.250
 19  1  1  1 31 30.0000000  0 11G01G07G08G09G11G16G18G23G27G28G30
  24783965.980   130240618.627 6      3812.375          40.250    24783968.440
 101486211.03744      2970.684          34.000
  20582917.160   108163971.207 9      1302.891          51.750    20582914.140
  84283603.83449      1015.238          49.750
  20281734.640   106581275.792 9      -451.770          51.500    20281734.940
  83050374.65149      -352.027          50.750
  22990725.080   120817085.697 8     -2960.715          46.250    22990724.740
  94143180.76546     -2307.055          40.500
  22800619.420   119818076.795 8      3443.223          48.750    22800617.040
  93364737.14146      2683.031          41.000
  23749049.540   124802142.443 8     -2942.656          45.000    23749046.400
  97248434.22246     -2292.988          39.000
  22972875.440   120723291.948 8      3411.426          46.000    22972875.040
  94070101.78646      2658.254          39.750
  24340006.860   127907617.700 6     -3446.293          40.250    24340003.980
  99668253.19944     -2685.430          35.250
  21394580.840   112429333.324 9     -2431.965          49.500    21394580.540
  87607266.06048     -1895.043          48.250
  24251501.820   127442505.580 6      2457.516          40.000    24251498.660
  99305837.05744      1914.945          32.250
  22443623.980   117942040.492 8      2890.582          47.000    22443623.680
  91902886.67847      2252.398          43.500
 19  1  1  1 32  0.0000000  0 11G01G07G08G09G11G16G18G23G27G28G30
  24762199.160   130126234.096 6      3813.773          40.000    24762201.700
 101397080.34443      2971.773          29.500
  20575523.700   108125118.444 9      1287.559          51.750    20575520.620
  84253328.95649      1003.289          49.500
  20284363.380   106595090.468 9      -468.836          51.500    20284363.700
  83061139.35049      -365.328          50.500
  23007650.660   120906029.434 8     -2968.578          45.500    23007650.060
  94212487.53446     -2313.184          40.750
  22780985.160   119714897.852 8      3435.715          48.750    22780982.680
  93284337.98746      2677.180          41.500
  23765855.380   124890457.202 7     -2944.480          44.750    23765852.440
  97317250.89945     -2294.402          37.500
  22953424.140   120621074.755 8      3403.680          45.750    22953423.500
  93990452.07345      2652.219          38.500
  24359683.720   128011018.095 7     -3446.746          44.750    24359680.580
  99748824.89544     -2685.777          34.500
  21408499.860   112502478.520 9     -2443.988          49.750    21408499.520
  87664262.31248     -1904.410          48.000
  24237481.080   127368826.215 6      2455.043          41.000    24237478.160
  99248424.54044      1913.016          35.000
  22427145.900   117855448.220 8      2882.449          47.250    22427145.620
  91835412.18447      2246.059          44.000
 19  1  1  1 32 30.0000000  0 11G01G07G08G09G11G16G18G23G27G28G30
  24740424.440   130011806.975 6      3814.969          40.500    24740427.040
 101307916.46145      2972.703          36.750
  20568218.380   108086728.755 9      1271.805          52.000    20568215.320
  84223414.91449       991.012          49.500
  20287089.860   106609418.585 9      -486.223          51.250    20287090.240
  83072304.13749      -378.875          50.750
  23024622.380   120995218.451 7     -2977.234          44.750    23024622.360
  94281985.37346     -2319.930          41.250
  22761395.160   119611951.602 8      3427.520          48.750    22761392.560
  93204120.16346      2670.793          40.750
  23782670.920   124978823.963 7     -2946.457          43.250    23782668.220
  97386108.08345     -2295.945          37.000
  22934017.420   120519091.732 8      3395.516          46.500    22934016.540
  93910984.79445      2645.852          38.750
  24379363.640   128114432.677 7     -3447.559          44.500    24379359.480
  99829407.70044     -2686.410          33.500
  21422487.880   112575985.946 9     -2456.547          49.750    21422487.560
  87721540.82048     -1914.195          48.250
  24223474.180   127295217.567 6      2452.305          41.250    24223471.220
  99191067.20344      1910.887          34.750
  22410715.260   117769105.152 8      2873.813          47.750    22410715.100
  91768131.87647      2239.332          42.750
 19  1  1  1 33  0.0000000  0 11G01G07G08G09G11G16G18G23G27G28G30
  24718642.180   129897341.383 6      3815.645          40.000    24718644.540
 101218722.55644      2973.230          35.750
  20561001.680   108048804.533 9      1256.160          52.000    20560998.600
  84193863.57049       978.824          49.750
  20289914.220   106624260.834 9      -503.453          51.500    20289914.720
  83083869.54449      -392.301          50.500
  23041640.800   121084650.780 8     -2985.258          45.250    23041640.860
  94351672.86046     -2326.180          41.250
  22741850.040   119509241.372 8      3419.527          48.750    22741847.500
  93124086.27046      2664.566          41.250
  23799496.440   125067243.858 7     -2948.195          43.000    23799493.400
  97455006.68444     -2297.297          33.000
  22914656.380   120417347.553 8      3387.340          47.000    22914655.280
  93831703.68145      2639.484          38.500
  24399045.360   128217859.457 6     -3447.793          40.500    24399040.540
  99910000.12043     -2686.590          31.500
  21436544.560   112649854.308 9     -2468.469          49.750    21436544.320
  87779100.58348     -1923.484          48.000
  24209480.560   127221681.018 6      2449.816          40.750    24209477.800
  99133765.99244      1908.945          33.250
  22394332.820   117683014.859 8      2865.500          47.750    22394332.680
  91701048.52547      2232.852          43.000
 19  1  1  1 33 30.0000000  0 11G01G07G08G09G11G16G18G23G27G28G30
  24696853.920   129782843.438 5      3817.199          38.500    24696856.420
 101129503.46245      2974.445          37.750
  20553874.680   108011351.464 9      1240.672          51.750    20553871.560
  84164679.35549       966.754          49.750
  20292836.600   106639618.368 9      -520.430          51.250    20292837.160
  83095836.47249      -405.531          50.750
  23058705.920   121174326.697 8     -2993.195          45.750    23058705.860
  94421550.14846     -2332.363          41.500
  22722351.100   119406773.511 9      3411.656          49.000    22722348.420
  93044241.21546      2658.434          41.500
  23816332.560   125155719.459 7     -2950.063          42.500    23816329.760
  97523948.67144     -2298.754          35.000
  22895341.880   120315848.942 8      3379.246          46.750    22895340.680
  93752613.89146      2633.176          40.250
  24418728.300   128321299.108 6     -3448.281          39.500    24418724.480
  99990602.27744     -2686.977          35.500
  21450670.080   112724084.380 9     -2480.250          49.750    21450669.740
  87836942.19148     -1932.668          48.000
  24195501.240   127148219.892 6      2447.691          40.750    24195498.000
  99076523.58344      1907.293          33.750
  22377999.580   117597182.959 8      2856.824          47.750    22377999.500
  91634166.54147      2226.098          43.500
 19  1  1  1 34  0.0000000  0 11G01G07G08G09G11G16G18G23G27G28G30
  24675058.460   129668307.712 6      3818.250          39.250    24675061.280
 101040254.89844      2975.262          34.500
  20546836.040   107974362.912 9      1225.023          52.000    20546832.940
  84135857.11049       954.563          49.750
  20295855.260   106655481.982 9      -537.422          51.500    20295855.900
  83108197.73849      -418.770          50.500
  23075814.900   121264234.628 7     -3000.965          44.750    23075814.800
  94491608.24446     -2338.414          41.500
  22702897.180   119304542.530 9      3403.488          49.250    22702894.460
  92964580.73846      2652.066          40.250
  23833177.720   125244241.522 7     -2951.957          43.000    23833174.800
  97592926.87344     -2300.230          34.500
  22876073.100   120214590.814 8      3370.930          46.750    22876071.880
  93673711.48946      2626.695          39.500
  24438412.840   128424739.954 7     -3448.309          44.500    24438409.040
 100071205.49944     -2686.992          33.750
  21464862.400   112798665.183 9     -2491.984          49.750    21464862.100
  87895057.10348     -1941.805          48.000
  24181534.880   127074826.248 6      2445.543          41.250    24181531.920
  99019333.77443      1905.617          29.500
  22361714.420   117511603.358 8      2848.250          48.250    22361714.260
  91567481.13847      2219.410          43.250
 19  1  1  1 34 30.0000000  0 11G01G07G08G09G11G16G18G23G27G28G30
  24653257.260   129553740.923 6      3819.520          39.500    24653259.700
 100950982.14945      2976.254          38.750
  20539886.840   107937845.039 9      1209.383          51.750    20539883.840
  84107401.62549       942.375          49.750
  20298970.660   106671853.982 9      -554.309          51.250    20298971.360
  83120955.14749      -431.930          50.500
  23092967.940   121354375.429 7     -3008.652          44.500    23092967.920
  94561847.78346     -2344.414          41.250
  22683489.400   119202554.496 8      3395.406          48.500    22683486.760
  92885109.57846      2645.766          41.500
  23850032.460   125332813.295 7     -2953.352          42.750    23850029.460
  97661943.81145     -2301.313          36.500
  22856851.400   120113580.572 8      3362.738          46.500    22856850.420
  93595002.24246      2620.316          40.500
  24458097.800   128528183.188 7     -3448.340          44.000    24458094.040
 100151810.62144     -2687.023          34.750
  21479121.600   112873598.137 9     -2503.699          49.500    21479121.360
  87953446.41548     -1950.938          48.000
  24167582.460   127001503.332 6      2442.633          41.750    24167579.040
  98962199.04244      1903.352          34.250
  22345478.660   117426282.335 8      2839.563          48.000    22345478.220
  91500997.22147      2212.645          44.000
 19  1  1  1 35  0.0000000  0 11G01G07G08G09G11G16G18G23G27G28G30
  24631451.220   129439148.256 6      3820.230          39.000    24631453.480
 100861689.25844      2976.809          33.000
  20533027.880   107901801.458 9      1193.555          51.750    20533024.980
  84079315.70949       930.039          50.000
  20302183.180   106688735.644 9      -571.207          51.500    20302183.800
  83134109.69749      -445.102          50.750
  23110165.080   121444748.131 8     -3016.180          45.000    23110165.640
  94632267.99147     -2350.273          42.000
  22664128.820   119100814.647 8      3387.191          48.750    22664126.220
  92805831.79247      2639.371          42.500
  23866896.800   125421436.691 7     -2954.980          43.000    23866894.000
  97731000.97443     -2302.586          31.500
  22837677.960   120012823.446 8      3354.395          47.250    22837676.980
  93516490.23746      2613.813          40.250
  24477782.800   128631628.349 7     -3448.336          42.750    24477779.420
 100232417.14144     -2687.023          32.500
  21493447.780   112948882.826 9     -2515.234          49.750    21493447.700
  88012109.81648     -1959.922          48.250
  24153643.680   126928253.432 7      2440.699          42.250    24153640.240
  98905121.18645      1901.840          37.000
  22329292.820   117341224.365 8      2830.902          48.500    22329292.340
  91434718.28047      2205.883          43.250
 19  1  1  1 35 30.0000000  0 11G01G07G08G09G11G16G18G23G27G28G30
  24609640.180   129324531.284 6      3821.238          39.500    24609642.320
 100772377.41845      2977.590          36.500
  20526259.240   107866232.693 9      1177.762          51.750    20526256.460
  84051599.78649       917.734          49.750
  20305492.200   106706123.863 9      -588.047          52.250    20305492.580
  83147658.96549      -458.223          51.500
  23127405.920   121535348.335 7     -3023.906          44.750    23127406.740
  94702865.51447     -2356.289          42.500
  22644815.820   118999324.552 8      3378.938          48.250    22644813.280
  92726748.63046      2632.938          41.500
  23883770.700   125510109.841 7     -2956.500          43.000    23883767.960
  97800096.90944     -2303.770          35.750
  22818552.900   119912321.668 8      3345.813          46.750    22818552.040
  93438177.21046      2607.125          40.500
  24497466.940   128735071.276 5     -3448.043          38.250    24497463.480
 100313021.98442     -2686.789          27.500
  21507840.220   113024515.504 9     -2527.004          49.750    21507840.180
  88071044.37248     -1969.098          48.250
  24139718.540   126855075.681 6      2438.059          41.750    24139715.220
  98848099.54944      1899.781          33.750
  22313157.240   117256430.584 8      2822.059          48.250    22313156.840
  91368645.19147      2199.004          44.000
 19  1  1  1 36  0.0000000  0 11G01G07G08G09G11G16G18G23G27G28G30
  24587825.880   129209895.920 6      3821.586          41.000    24587827.920
 100683051.20744      2977.859          33.250
  20519581.960   107831144.019 9      1161.613          51.750    20519579.300
  84024257.96149       905.152          50.000
  20308897.940   106724020.593 9      -604.984          52.250    20308898.140
  83161604.46749      -471.422          51.500
  23144689.800   121626175.803 8     -3031.391          45.000    23144691.000
  94773640.13147     -2362.125          42.000
  22625551.300   118898089.704 8      3370.117          48.250    22625549.020
  92647864.34547      2626.066          42.000
  23900654.600   125598835.198 7     -2958.516          42.500    23900651.840
  97869233.52644     -2305.340          35.500
  22799477.780   119812081.535 8      3336.934          47.500    22799476.780
  93360068.04946      2600.207          39.500
  24517150.860   128838511.959 7     -3447.805          43.750    24517147.080
 100393625.11444     -2686.602          32.500
  21522298.960   113100496.446 9     -2538.566          49.750    21522298.980
  88130250.29448     -1978.105          48.000
  24125807.120   126781972.830 6      2436.238          41.500    24125804.220
  98791136.32345      1898.363          36.250
  22297072.340   117171906.118 8      2813.008          47.500    22297072.480
  91302781.98447      2191.953          44.000
 19  1  1  1 36 30.0000000  0 11G01G07G08G09G11G16G18G23G27G28G30
  24566007.080   129095238.329 6      3822.031          40.000    24566009.320
 100593707.68345      2978.199          37.250
  20512995.060   107796530.139 9      1145.547          51.750    20512992.560
  83997286.09849       892.633          49.750
  20312398.780   106742417.484 9      -621.871          52.250    20312398.880
  83175939.71349      -484.578          51.500
  23162015.260   121717220.701 8     -3038.684          45.000    23162016.100
  94844584.18146     -2367.809          40.750
  22606334.580   118797106.239 8      3361.785          47.750    22606332.460
  92569175.95347      2619.574          42.000
  23917546.900   125687605.057 7     -2960.094          42.750    23917544.120
  97938404.82644     -2306.574          35.250
  22780451.880   119712099.672 8      3328.156          46.750    22780451.100
  93282160.14046      2593.367          40.250
  24536833.320   128941940.705 8     -3447.598          46.250    24536829.440
 100474218.91744     -2686.445          35.750
  21536822.280   113176816.432 9     -2549.883          50.000    21536822.180
  88189720.41348     -1986.926          48.000
  24111909.000   126708938.213 7      2433.141          42.000    24111905.920
  98734226.24944      1895.953          32.250
  22281038.160   117087646.640 8      2803.969          48.000    22281038.360
  91237125.25647      2184.832          43.500
 19  1  1  1 37  0.0000000  0 11G01G07G08G09G11G16G18G23G27G28G30
  24544185.440   128980566.007 6      3822.867          40.250    24544187.640
 100504352.74745      2978.859          36.250
  20506499.760   107762397.125 9      1129.949          51.500    20506497.300
  83970688.94849       880.477          50.000
  20315995.420   106761317.813 9      -638.059          52.250    20315995.580
  83190667.23349      -497.191          51.500
  23179382.160   121808484.503 7     -3045.379          43.750    23179382.820
  94915698.80346     -2373.027          41.750
  22587167.160   118696380.967 8      3353.508          48.000    22587165.000
  92490688.76346      2613.121          41.750
  23934448.540   125776424.240 7     -2961.188          43.250    23934446.100
  98007614.50144     -2307.426          34.750
  22761476.560   119612384.016 8      3319.629          46.500    22761475.680
  93204459.67646      2586.723          39.750
  24556513.620   129045359.246 7     -3446.719          43.500    24556510.060
 100554804.77145     -2685.762          37.250
  21551410.580   113253477.470 9     -2560.652          50.000    21551410.260
  88249456.29548     -1995.313          47.750
  24098024.860   126635976.158 6      2430.809          41.750    24098021.980
  98677372.69544      1894.137          34.750
  22265055.860   117003659.076 8      2795.410          47.500    22265055.940
  91171680.38147      2178.238          44.000
 19  1  1  1 37 30.0000000  0 11G01G07G08G09G11G16G18G23G27G28G30
  24522361.700   128865881.626 6      3822.703          40.750    24522363.840
 100414988.35245      2978.730          38.000
  20500096.400   107728746.913 9      1113.414          51.750    20500093.880
  83944467.99849       867.594          50.000
  20319687.560   106780719.998 9      -655.332          52.250    20319687.640
  83205785.82149      -510.652          51.500
  23196789.820   121899963.779 7     -3053.113          43.500    23196790.780
  94986981.30346     -2379.055          41.750
  22568049.520   118595917.022 8      3344.230          48.500    22568047.480
  92412405.20047      2605.895          42.250
  23951359.600   125865291.519 7     -2963.391          43.750    23951357.100
  98076861.73244     -2309.137          35.500
  22742552.560   119512937.714 8      3310.199          46.250    22742551.700
  93126969.09846      2579.375          41.500
  24576190.780   129148764.678 5     -3446.488          37.750    24576187.680
 100635380.31643     -2685.578          29.250
  21566063.120   113330476.767 9     -2572.375          49.750    21566062.800
  88309455.74748     -2004.453          48.250
  24084154.200   126563086.759 7      2428.398          42.000    24084151.440
  98620575.77544      1892.254          34.250
  22249125.660   116919945.484 8      2785.551          48.000    22249125.980
  91106449.02247      2170.555          44.500
 19  1  1  1 38  0.0000000  0 11G01G07G08G09G11G16G18G23G27G28G30
  24500536.080   128751187.219 7      3822.945          42.500    24500538.080
 100325616.12645      2978.918          36.250
  20493785.120   107695580.542 9      1097.277          51.750    20493782.480
  83918624.07249       855.016          50.000
  20323474.700   106800621.495 9      -671.898          52.250    20323474.760
  83221293.47749      -523.563          51.500
  23214238.180   121991654.497 8     -3059.934          45.500    23214239.180
  95058428.58346     -2384.367          41.000
  22548981.840   118495715.874 8      3335.398          48.750    22548979.660
  92334326.40847      2599.012          42.250
  23968279.740   125954205.450 7     -2964.723          44.250    23968277.220
  98146145.28644     -2310.172          35.750
  22723680.140   119413763.013 8      3301.066          46.750    22723679.440
  93049690.18646      2572.258          40.750
  24595864.300   129252152.913 7     -3446.129          42.250    24595861.020
 100715942.48143     -2685.297          30.750
  21580779.280   113407810.896 9     -2583.520          49.750    21580778.860
  88369716.10048     -2013.137          48.000
  24070297.700   126490269.238 7      2425.617          42.000    24070294.580
  98563834.86044      1890.086          35.750
  22233247.880   116836507.305 8      2776.359          48.000    22233248.160
  91041432.26547      2163.395          43.250
 19  1  1  1 38 30.0000000  0 11G01G07G08G09G11G16G18G23G27G28G30
  24478708.740   128636484.159 7      3823.387          43.000    24478710.860
 100236237.15344      2979.262          34.250
  20487565.840   107662897.619 9      1081.180          52.000    20487563.060
  83893156.85949       842.473          49.750
  20327356.200   106821019.023 9      -688.320          52.250    20327356.320
  83237187.65749      -536.355          51.250
  23231726.060   122083551.904 7     -3066.867          44.750    23231726.580
  95130036.92346     -2389.770          40.500
  22529964.420   118395778.373 9      3326.582          49.500    22529962.060
  92256453.05647      2592.141          42.000
  23985208.200   126043162.793 8     -2966.215          45.250    23985205.500
  98215462.63245     -2311.340          36.000
  22704859.860   119314861.769 8      3291.949          47.000    22704859.160
  92972624.33146      2565.156          40.500
  24615534.520   129355519.564 8     -3445.512          45.250    24615531.020
 100796488.07043     -2684.813          30.750
  21595558.340   113485475.646 9     -2594.520          50.000    21595557.860
  88430234.08948     -2021.707          47.500
  24056454.400   126417521.585 7      2423.578          42.250    24056451.120
  98507148.38144      1888.496          34.750
  22217422.880   116753345.265 8      2767.211          48.500    22217422.920
  90976630.67647      2156.270          43.750
 19  1  1  1 39  0.0000000  0 11G01G07G08G09G11G16G18G23G27G28G30
  24456880.680   128521777.350 7      3823.426          42.000    24456882.380
 100146855.25945      2979.293          37.000
  20481439.340   107630702.237 9      1064.871          51.750    20481436.440
  83868069.55949       829.766          50.000
  20331332.260   106841913.517 9      -704.852          52.250    20331332.320
  83253469.08749      -549.234          51.500
  23249252.500   122175654.929 7     -3073.660          44.250    23249252.960
  95201805.48146     -2395.063          39.500
  22510998.140   118296109.484 9      3317.633          49.500    22510995.920
  92178789.01947      2585.164          42.000
  24002145.380   126132166.667 7     -2967.605          44.500    24002142.380
  98284816.29244     -2312.422          35.750
  22686092.380   119216239.250 8      3282.457          46.500    22686092.000
  92895775.67446      2557.758          40.500
  24635200.740   129458863.825 7     -3444.508          44.000    24635197.120
 100877016.04945     -2684.031          36.750
  21610400.260   113563470.486 9     -2605.426          49.750    21610399.860
  88491009.28448     -2030.203          48.000
  24042624.660   126344846.050 7      2420.945          42.250    24042621.460
  98450518.13144      1886.449          35.250
  22201651.200   116670463.721 8      2757.863          48.500    22201651.060
  90912047.66247      2148.984          44.500
 19  1  1  1 39 30.0000000  0 11G01G07G08G09G11G16G18G23G27G28G30
  24435053.120   128407072.585 7      3823.055          43.000    24435054.860
 100057474.94944      2979.004          35.500
  20475406.500   107598998.970 9      1048.523          52.000    20475403.560
  83843365.71149       817.027          50.000
  20335403.040   106863306.291 9      -721.367          52.250    20335403.280
  83270138.77949      -562.105          51.500
  23266818.440   122267963.132 8     -3080.340          45.250    23266818.260
  95273733.94546     -2400.266          40.000
  22492083.940   118196714.577 9      3308.379          49.750    22492081.740
  92101338.47247      2577.957          42.000
  24019091.340   126221218.784 7     -2969.602          44.250    24019088.520
  98354207.50144     -2313.984          35.250
  22667379.220   119117901.949 8      3273.121          46.000    22667379.040
  92819149.26546      2550.484          40.250
  24654862.060   129562185.828 5     -3443.574          38.000    24654858.900
 100957526.58044     -2683.316          34.250
  21625305.060   113641795.676 9     -2616.367          49.750    21625304.520
  88552041.90248     -2038.730          47.750
  24028809.400   126272245.084 7      2418.762          42.500    24028805.540
  98393945.95144      1884.750          34.750
  22185933.840   116587867.837 8      2748.387          48.500    22185933.360
  90847687.22647      2141.598          44.250
 19  1  1  1 40  0.0000000  0 11G01G07G08G09G11G16G18G23G27G28G30
  24413226.120   128292370.632 7      3823.094          43.250    24413228.100
  99968096.86344      2979.035          35.000
  20469467.200   107567787.323 9      1031.922          52.000    20469464.160
  83819044.94549       804.090          49.750
  20339568.040   106885193.763 9      -738.020          52.250    20339568.340
  83287193.95249      -575.086          51.250
  23284422.120   122360471.226 7     -3086.992          44.500    23284422.100
  95345818.14846     -2405.453          39.500
  22473222.000   118097594.142 9      3299.027          49.750    22473219.680
  92024101.76647      2570.672          42.250
  24036045.880   126310316.468 7     -2970.910          44.000    24036043.140
  98423634.23545     -2315.000          36.750
  22648720.480   119019850.513 8      3263.059          47.000    22648720.480
  92742745.58746      2542.645          40.500
  24674518.460   129665480.768 7     -3443.035          42.750    24674515.700
 101038015.98844     -2682.887          34.000
  21640271.880   113720446.486 9     -2627.426          49.750    21640271.220
  88613328.25548     -2047.348          47.750
  24015007.720   126199716.795 7      2416.141          42.750    24015003.900
  98337430.41045      1882.707          36.750
  22170270.640   116505557.786 8      2738.492          48.500    22170270.320
  90783549.51547      2133.887          43.500
 19  1  1  1 40 30.0000000  0 11G01G07G08G09G11G16G18G23G27G28G30
  24391399.800   128177672.055 7      3822.742          43.750    24391401.880
  99878721.35044      2978.754          35.000
  20463621.260   107537066.520 9      1015.355          51.750    20463618.280
  83795106.66149       791.188          50.000
  20343826.480   106907571.772 9      -754.512          52.250    20343826.800
  83304631.36549      -587.934          51.250
  23302062.600   122453173.636 7     -3093.715          44.000    23302063.040
  95418053.76346     -2410.691          40.000
  22454412.340   117998748.607 9      3289.859          49.500    22454410.020
  91947079.29347      2563.523          42.500
  24053008.580   126399456.189 7     -2972.531          44.250    24053005.780
  98493093.73145     -2316.262          36.750
  22630116.600   118922085.922 8      3253.574          47.000    22630116.360
  92666565.44046      2535.254          41.250
  24694168.940   129768742.690 8     -3441.883          45.250    24694165.480
 101118479.83643     -2681.992          30.000
  21655299.640   113799417.918 9     -2638.129          49.750    21655299.140
  88674864.42448     -2055.684          47.500
  24001219.480   126127259.328 6      2413.727          41.500    24001215.580
  98280970.04444      1880.820          35.250
  22154661.620   116423533.364 8      2728.871          48.000    22154661.800
  90719634.40447      2126.352          44.750
 19  1  1  1 41  0.0000000  0 11G01G07G08G09G11G16G18G23G27G28G30
  24369574.940   128062981.502 7      3822.750          42.750    24369576.900
  99789352.10944      2978.762          35.250
  20457869.300   107506840.034 9       999.055          52.000    20457866.360
  83771553.54949       778.480          49.750
  20348178.320   106930440.707 9      -770.742          52.250    20348178.640
  83322451.31449      -600.582          51.250
  23319739.620   122546068.863 7     -3099.992          43.500    23319740.700
  95490439.61546     -2415.582          40.750
  22435655.800   117900182.487 9      3280.516          49.250    22435653.500
  91870274.54747      2556.246          42.500
  24069979.700   126488639.667 7     -2973.816          44.000    24069977.280
  98562587.35944     -2317.262          34.500
  22611568.300   118824613.370 8      3244.121          47.250    22611567.940
  92590612.84746      2527.887          41.000
  24713812.940   129871970.857 7     -3440.820          43.250    24713808.260
 101198917.51842     -2681.156          27.250
  21670388.280   113878709.104 9     -2648.629          50.000    21670387.780
  88736649.76248     -2063.871          47.500
  23987444.840   126054873.608 7      2411.559          42.750    23987441.200
  98224565.60544      1879.133          34.250
  22139108.120   116341798.731 8      2719.227          48.250    22139108.080
  90655945.06947      2118.875          44.250
 19  1  1  1 41 30.0000000  0 11G01G07G08G09G11G16G18G23G27G28G30
  24347752.780   127948305.926 7      3822.355          42.500    24347754.620
  99699994.58344      2978.457          34.500
  20452212.420   107477113.357 9       982.641          51.750    20452209.520
  83748389.90049       765.691          50.000
  20352623.860   106953802.723 9      -786.832          52.000    20352624.300
  83340655.47149      -613.121          51.500
  23337453.700   122639157.776 7     -3106.004          43.750    23337454.980
  95562976.35946     -2420.266          39.500
  22416953.700   117801902.214 8      3271.273          48.750    22416951.300
  91793692.52747      2549.043          42.750
  24086959.760   126577869.914 7     -2974.781          44.000    24086957.260
  98632117.39344     -2318.012          35.250
  22593076.900   118727440.139 8      3234.344          47.750    22593076.380
  92514893.46746      2520.270          41.500
  24733449.680   129975166.627 4     -3439.273          34.500    24733445.900
 101279329.70844     -2679.961          34.000
  21685538.000   113958321.460 9     -2658.969          49.750    21685537.320
  88798685.37848     -2071.926          47.250
  23973684.660   125982564.062 7      2409.066          42.500    23973681.260
  98168220.51744      1877.195          35.750
  22123610.800   116260360.146 8      2709.648          48.500    22123610.760
  90592486.42947      2111.410          44.500
 19  1  1  1 42  0.0000000  0 11G01G07G08G09G11G16G18G23G27G28G30
  24325932.340   127833638.919 7      3821.859          42.750    24325933.920
  99610643.69744      2978.074          34.250
  20446649.220   107447878.922 9       965.988          51.750    20446646.300
  83725609.82349       752.715          50.250
  20357161.180   106977647.116 9      -803.117          52.000    20357161.740
  83359235.50549      -625.809          51.500
  23355202.500   122732427.797 7     -3112.199          43.250    23355203.700
  95635654.25946     -2425.094          41.500
  22398304.660   117703901.208 8      3261.633          48.750    22398302.200
  91717328.12247      2541.531          43.000
  24103946.980   126667137.798 7     -2976.426          44.000    24103944.360
  98701676.73245     -2319.297          36.250
  22574641.440   118630560.016 8      3223.914          47.750    22574640.620
  92439402.49646      2512.141          41.000
  24753078.160   130078317.605 7     -3437.977          42.000    24753074.960
 101359707.00845     -2678.945          38.000
  21700746.620   114038243.029 9     -2669.500          50.000    21700745.800
  88860961.92248     -2080.129          47.500
  23959937.640   125910320.901 7      2406.395          43.000    23959933.720
  98111927.14744      1875.117          34.250
  22108168.740   116179210.574 8      2699.898          48.750    22108168.680
  90529253.00348      2103.820          45.000
 19  1  1  1 42 30.0000000  0 11G01G07G08G09G11G16G18G23G27G28G30
  24304116.040   127718994.828 7      3820.781          42.750    24304117.920
  99521310.66244      2977.230          33.750
  20441182.260   107419149.733 9       949.078          52.000    20441179.360
  83703223.44049       739.543          50.000
  20361792.280   107001983.529 9      -819.496          52.250    20361792.760
  83378198.93349      -638.574          51.250
  23372987.600   122825887.155 7     -3118.758          44.500    23372988.280
  95708479.70645     -2430.203          38.500
  22379711.460   117606193.529 8      3251.859          48.750    22379709.040
  91641192.30247      2533.918          42.250
  24120942.780   126756453.264 7     -2978.082          42.500    24120940.080
  98771273.15145     -2320.586          37.500
  22556264.320   118533987.653 8      3213.734          47.750    22556263.120
  92364151.33446      2504.203          40.000
  24772700.640   130181432.150 7     -3436.559          44.500    24772697.640
 101440055.97544     -2677.840          35.500
  21716015.780   114118482.636 9     -2680.090          49.750    21716015.040
  88923486.28248     -2088.387          47.000
  23946204.620   125838155.727 7      2404.410          42.250    23946201.220
  98055694.56444      1873.563          34.750
  22092784.240   116098363.685 8      2689.633          48.750    22092783.960
  90466255.43747      2095.844          44.500
 19  1  1  1 43  0.0000000  0 11G01G07G08G09G11G16G18G23G27G28G30
  24282303.620   127604369.420 7      3820.203          42.000    24282305.340
  99431992.15745      2976.777          37.250
  20435810.400   107390920.142 9       932.535          51.750    20435807.520
  83681226.35449       726.648          50.250
  20366515.420   107026803.141 9      -835.512          52.250    20366515.780
  83397538.87449      -651.051          51.500
  23390806.720   122919525.474 7     -3124.367          44.500    23390806.780
  95781444.61146     -2434.574          40.500
  22361173.240   117508774.465 8      3242.254          48.750    22361170.920
  91565281.36147      2526.430          43.250
  24137946.140   126845809.080 7     -2979.168          43.000    24137943.540
  98840901.04244     -2321.430          34.000
  22537944.900   118437719.311 8      3203.949          47.250    22537943.660
  92289137.06946      2496.578          41.000
  24792314.280   130284500.209 7     -3434.891          42.250    24792310.900
 101520368.7364      -2676.543          24.250
  21731343.540   114199030.482 9     -2690.090          49.750    21731342.760
  88986250.85248     -2096.180          47.500
  23932485.460   125766061.622 7      2401.828          43.000    23932481.960
  97999517.31944      1871.551          32.750
  22077456.260   116017814.617 8      2679.797          48.500    22077455.880
  90403489.93447      2088.152          44.750
 19  1  1  1 43 30.0000000  0 11G01G07G08G09G11G16G18G23G27G28G30
  24260495.200   127489766.177 7      3819.746          42.750    24260497.200
  99342690.97245      2976.426          36.500
  20430533.820   107363192.134 9       916.168          51.750    20430531.060
  83659620.10849       713.895          50.250
  20371330.340   107052104.967 9      -851.176          52.250    20371330.540
  83417254.58349      -663.258          51.500
  23408659.060   123013340.069 7     -3129.973          43.750    23408659.360
  95854546.86046     -2438.945          40.250
  22342690.540   117411647.373 9      3232.801          49.000    22342688.200
  91489597.92547      2519.066          43.500
  24154957.620   126935205.182 7     -2980.246          43.500    24154955.120
  98910560.27644     -2322.273          33.750
  22519684.040   118341758.761 8      3193.719          47.500    22519682.900
  92214362.66246      2488.613          39.750
  24811918.160   130387520.311 4     -3432.629          35.250    24811915.020
 101600644.1114      -2674.785          24.500
  21746729.500   114279884.492 9     -2700.004          49.500    21746728.800
  89049253.97548     -2103.902          47.750
  23918780.060   125694038.918 7      2399.570          43.000    23918776.400
  97943395.73144      1869.793          34.500
  22062185.440   115937566.211 8      2670.168          48.750    22062184.840
  90340958.70447      2080.660          44.250
 19  1  1  1 44  0.0000000  0 11G01G07G08G09G11G16G18G23G27G28G30
  24238692.080   127375190.597 6      3818.719          41.500    24238694.340
  99253411.35046      2975.625          39.000
  20425353.560   107335970.112 9       898.906          52.000    20425350.940
  83638408.14549       700.445          50.250
  20376237.100   107077889.952 9      -867.531          52.250    20376237.280
  83437346.76949      -676.000          51.250
  23426544.460   123107330.344 7     -3135.723          44.000    23426545.380
  95927785.95546     -2443.426          40.500
  22324264.280   117314817.023 9      3222.750          49.250    22324261.800
  91414145.72947      2511.234          43.000
  24171977.540   127024643.400 7     -2982.055          43.750    24171974.820
  98980252.34945     -2323.684          36.750
  22501482.940   118246111.624 8      3183.027          48.000    22501482.060
  92139832.46646      2480.281          40.250
  24831512.200   130490491.178 6     -3431.363          40.250    24831509.060
 101680881.12244     -2673.789          33.000
  21762173.740   114361044.663 9     -2710.398          49.500    21762173.260
  89112495.65648     -2112.004          47.500
  23905088.380   125622089.852 7      2397.113          42.000    23905085.300
  97887331.54844      1867.879          34.250
  22046972.720   115857623.292 8      2659.672          48.500    22046971.840
  90278665.51747      2072.492          44.500
 19  1  1  1 44 30.0000000  0 11G01G07G08G09G11G16G18G23G27G28G30
  24216894.180   127260643.104 6      3817.965          41.250    24216896.900
  99164153.59945      2975.035          37.000
  20420269.460   107309252.855 9       882.199          52.000    20420266.720
  83617589.49949       687.430          50.000
  20381234.980   107104153.834 9      -883.465          52.250    20381235.160
  83457812.12349      -688.418          51.250
  23444462.900   123201490.453 8     -3141.492          45.500    23444463.400
  96001157.45146     -2447.914          39.250
  22305894.540   117218283.643 9      3212.789          49.750    22305892.000
  91338924.91947      2503.469          42.250
  24189004.640   127114120.684 7     -2982.984          44.250    24189002.100
  99049974.84145     -2324.406          36.500
  22483341.780   118150778.648 8      3172.414          48.000    22483340.680
  92065547.04946      2472.012          41.000
  24851097.200   130593407.687 7     -3429.809          42.250    24851093.900
 101761075.76144     -2672.586          34.250
  21777675.320   114442505.803 9     -2720.355          49.750    21777674.920
  89175971.87548     -2119.762          47.000
  23891410.420   125550211.936 7      2394.688          43.250    23891407.480
  97831322.77544      1865.988          35.250
  22031818.020   115777985.626 9      2649.422          49.000    22031817.400
  90216610.18447      2064.531          44.500
 19  1  1  1 45  0.0000000  0 11G01G07G08G09G11G16G18G23G27G28G30
  24195102.760   127146128.937 6      3816.250          41.750    24195105.400
  99074921.80345      2973.699          36.250
  20415282.160   107283044.120 9       864.930          52.000    20415279.380
  83597167.10949       673.969          50.000
  20386324.060   107130897.258 9      -899.641          52.250    20386324.280
  83478651.14749      -701.023          51.250
  23462413.500   123295819.498 7     -3147.254          44.500    23462413.720
  96074660.56446     -2452.410          40.500
  22287582.280   117122052.117 9      3202.352          49.250    22287579.740
  91263939.33147      2495.336          43.250
  24206039.220   127203638.553 7     -2984.719          42.500    24206036.720
  99119729.03444     -2325.758          33.500
  22465261.420   118055765.521 8      3161.578          48.500    22465260.280
  91991510.87346      2463.563          40.750
  24870671.660   130696269.402 6     -3428.066          39.750    24870668.380
 101841227.68645     -2671.227          37.250
  21793234.040   114524267.620 9     -2730.633          49.750    21793233.480
  89239682.38848     -2127.766          47.000
  23877746.320   125478407.487 7      2392.055          42.750    23877743.500
  97775371.25644      1863.941          34.500
  22016722.500   115698657.792 9      2638.734          49.000    22016722.040
  90154796.28947      2056.148          44.750
 19  1  1  1 45 30.0000000  0 11G01G07G08G09G11G16G18G23G27G28G30
  24173318.540   127031651.865 6      3815.551          41.250    24173321.140
  98985718.92645      2973.156          36.750
  20410392.000   107257346.297 9       848.090          51.750    20410389.300
  83577142.83649       660.844          50.250
  20391504.220   107158119.180 9      -915.270          52.250    20391504.420
  83499863.02649      -713.199          51.500
  23480395.420   123390315.086 7     -3152.516          43.750    23480396.040
  96148293.48846     -2456.508          40.500
  22269328.040   117026126.037 9      3192.527          49.250    22269325.560
  91189191.74347      2487.680          43.250
  24223081.660   127293197.453 6     -2985.746          41.750    24223079.500
  99189515.09445     -2326.563          38.000
  22447242.740   117961076.285 8      3150.781          48.000    22447241.560
  91917727.08346      2455.152          41.000
  24890234.340   130799074.470 5     -3425.676          38.500    24890231.540
 101921335.41444     -2669.367          32.750
  21808849.540   114606328.352 9     -2740.273          49.500    21808849.080
  89303625.79948     -2135.281          46.750
  23864096.160   125406677.151 6      2389.770          41.250    23864093.880
  97719477.50645      1862.156          36.250
  22001686.460   115619642.881 9      2628.609          49.000    22001686.000
  90093226.23147      2048.340          44.750
 19  1  1  1 46  0.0000000  0 11G01G07G08G09G11G16G18G23G27G28G30
  24151541.560   126917212.634 6      3813.789          41.000    24151544.100
  98896545.52746      2971.785          39.500
  20405598.820   107232158.636 9       831.191          51.750    20405596.260
  83557516.08449       647.676          50.000
  20396774.820   107185815.884 9      -931.000          52.250    20396774.940
  83521444.86949      -725.457          51.000
  23498407.760   123484971.780 7     -3157.824          44.250    23498408.700
  96222051.91045     -2460.645          38.750
  22251132.100   116930505.541 9      3182.367          49.500    22251129.480
  91114682.27147      2479.762          42.750
  24240131.720   127382794.323 7     -2986.941          43.750    24240128.960
  99259330.77745     -2327.488          36.250
  22429285.780   117866711.532 8      3140.078          48.000    22429284.640
  91844196.11946      2446.809          40.500
  24909785.620   130901817.665 7     -3423.359          42.000    24909782.520
 102001395.06544     -2667.551          33.500
  21824521.020   114688683.016 9     -2749.957          49.250    21824520.680
  89367798.27348     -2142.828          46.750
  23850459.580   125335018.631 6      2387.367          41.750    23850457.640
  97663639.70045      1860.289          36.750
  21986710.080   115540940.874 9      2618.238          49.000    21986709.620
  90031899.99048      2040.238          45.000
 19  1  1  1 46 30.0000000  0 11G01G07G08G09G11G16G18G23G27G28G30
  24129772.440   126802814.981 7      3812.117          42.500    24129775.140
  98807404.54845      2970.480          36.750
  20400903.140   107207483.323 9       813.871          51.750    20400900.700
  83538288.56149       634.180          50.250
  20402135.500   107213986.301 9      -946.953          52.500    20402135.540
  83543395.83549      -737.891          51.500
  23516450.680   123579787.085 7     -3162.980          44.000    23516451.200
  96295933.92446     -2464.664          40.000
  22232994.900   116835193.974 9      3171.898          49.250    22232992.200
  91040413.53447      2471.605          43.750
  24257188.780   127472429.781 7     -2988.418          42.250    24257186.120
  99329176.53344     -2328.641          32.250
  22411391.320   117772675.678 8      3129.141          48.000    22411390.240
  91770921.46246      2438.293          40.500
  24929325.100   131004496.862 7     -3421.566          43.250    24929321.360
 102081404.85244     -2666.246          33.750
  21840248.080   114771329.881 9     -2759.734          49.500    21840247.780
  89432198.43248     -2150.441          46.500
  23836837.260   125263432.906 6      2384.957          41.500    23836835.320
  97607858.60045      1858.402          37.250
  21971793.700   115462554.850 9      2607.563          49.000    21971793.420
  89970819.97548      2031.863          45.500
 19  1  1  1 47  0.0000000  0 11G01G07G08G09G11G16G18G23G27G28G30
  24108011.680   126688460.599 7      3810.730          42.000    24108013.820
  98718297.24745      2969.398          38.500
  20396305.120   107183320.864 9       796.715          51.750    20396302.720
  83519460.66749       620.813          50.000
  20407585.760   107242627.221 9      -962.641          52.250    20407585.780
  83565713.43949      -750.113          51.250
  23534522.920   123674756.580 7     -3168.223          44.000    23534523.260
  96369936.12646     -2468.750          40.000
  22214916.760   116740192.600 9      3161.359          49.500    22214913.940
  90966386.49947      2463.398          43.500
  24274252.860   127562101.614 6     -2989.254          41.500    24274250.240
  99399050.66345     -2329.297          37.250
  22393559.660   117678970.505 8      3117.938          47.500    22393558.680
  91697904.46546      2429.563          41.250
  24948851.320   131107108.080 6     -3419.281          40.500    24948847.840
 102161361.62443     -2664.379          31.500
  21856030.160   114854265.121 9     -2769.539          49.250    21856029.680
  89496823.30048     -2158.086          46.500
  23823228.560   125191918.797 7      2382.508          43.000    23823226.680
  97552133.34444      1856.496          35.750
  21956937.700   115384485.906 9      2596.898          49.000    21956937.400
  89909987.03848      2023.453          45.000
 19  1  1  1 47 30.0000000  0 11G01G07G08G09G11G16G18G23G27G28G30
  24086260.380   126574157.129 6      3809.164          41.750    24086262.600
  98629229.66146      2968.180          39.000
  20391805.880   107159677.235 9       779.652          51.750    20391803.380
  83501037.05849       607.516          49.750
  20413126.020   107271741.986 9      -978.227          52.250    20413126.160
  83588400.26549      -762.254          51.250
  23552624.500   123769881.766 7     -3173.145          43.000    23552624.940
  96444059.60046     -2472.586          39.000
  22196898.980   116645508.501 9      3150.910          49.500    22196896.100
  90892606.69247      2455.254          43.250
  24291324.620   127651814.379 7     -2990.762          42.000    24291322.080
  99468956.64344     -2330.469          35.750
  22375792.520   117585604.074 8      3106.813          47.750    22375791.780
  91625151.43546      2420.895          40.500
  24968364.560   131209653.029 5     -3416.914          38.250    24968361.200
 102241266.73842     -2662.531          26.250
  21871867.580   114937490.805 9     -2778.813          49.500    21871866.940
  89561674.49548     -2165.313          46.750
  23809634.740   125120480.420 7      2380.227          42.500    23809632.640
  97496467.09144      1854.723          35.750
  21942143.220   115306740.972 8      2586.184          48.500    21942143.220
  89849406.58648      2015.215          45.500
 19  1  1  1 48  0.0000000  0 11G01G07G08G09G11G16G18G23G27G28G30
  24064518.040   126459901.176 6      3807.395          41.250    24064520.300
  98540199.06746      2966.801          39.000
  20387404.300   107136547.212 9       761.988          51.750    20387401.760
  83483013.65949       593.758          49.750
  20418754.920   107301322.218 9      -994.094          52.250    20418755.080
  83611449.79249      -774.621          51.250
  23570753.740   123865152.876 7     -3178.504          42.000    23570754.380
  96518296.77445     -2476.762          38.750
  22178940.860   116551137.804 9      3140.039          49.500    22178937.820
  90819071.09047      2446.781          43.250
  24308403.020   127741560.749 6     -2992.480          41.500    24308400.440
  99538888.80544     -2331.809          35.500
  22358089.260   117492572.791 8      3095.074          48.000    22358088.360
  91552659.56346      2411.746          41.250
  24987863.980   131312122.647 6     -3414.453          40.250    24987860.900
 102321113.10643     -2660.621          31.250
  21887758.520   115020997.833 9     -2788.660          49.500    21887757.940
  89626744.91048     -2172.980          46.250
  23796053.960   125049111.416 7      2377.449          43.000    23796051.060
  97440854.87244      1852.559          34.750
  21927409.680   115229315.855 9      2575.238          49.000    21927409.460
  89789075.32048      2006.629          45.000
 19  1  1  1 48 30.0000000  0 11G01G07G08G09G11G16G18G23G27G28G30
  24042786.280   126345699.381 7      3805.563          42.500    24042788.380
  98451210.70445      2965.375          38.500
  20383101.380   107113935.948 9       744.781          51.500    20383098.980
  83465394.49249       580.348          50.250
  20424472.800   107331369.610 9     -1009.586          52.250    20424472.900
  83634863.34049      -786.695          51.500
  23588910.700   123960570.470 7     -3183.469          42.500    23588911.540
  96592648.12446     -2480.629          39.750
  22161043.700   116457087.354 9      3129.383          49.750    22161040.560
  90745785.05047      2438.480          43.750
  24325488.240   127831344.097 6     -2993.094          41.000    24325485.880
  99608849.76144     -2332.289          33.750
  22340451.280   117399883.814 8      3083.668          47.750    22340450.040
  91480434.41046      2402.859          41.500
  25007349.300   131414517.828 7     -3411.926          42.500    25007346.080
 102400901.53443     -2658.730          28.000
  21903703.180   115104787.321 9     -2797.902          49.250    21903702.620
  89692035.42248     -2180.188          47.000
  23782486.700   124977815.561 7      2375.090          42.000    23782483.800
  97385299.65845      1850.719          37.250
  21912738.100   115152216.426 9      2564.184          49.000    21912737.900
  89728997.84548      1998.063          45.250
 19  1  1  1 49  0.0000000  0 11G01G07G08G09G11G16G18G23G27G28G30
  24021066.120   126231558.032 7      3803.844          43.000    24021068.060
  98362269.42645      2964.035          37.750
  20378898.040   107091848.154 9       727.688          51.500    20378895.900
  83448183.21449       567.023          50.000
  20430280.080   107361886.039 9     -1024.770          52.250    20430280.000
  83658642.38249      -798.523          51.250
  23607096.000   124056134.525 7     -3187.734          43.250    23607096.740
  96667113.62945     -2483.949          38.500
  22143208.480   116363362.406 9      3118.934          49.500    22143205.360
  90672752.65247      2430.336          43.500
  24342580.660   127921166.952 6     -2994.484          41.500    24342578.460
  99678841.57545     -2333.363          37.000
  22322879.460   117307543.463 8      3072.363          47.500    22322878.240
  91408480.92146      2394.051          41.250
  25026820.580   131516839.162 7     -3409.121          42.750    25026817.660
 102480632.41944     -2656.461          32.500
  21919701.700   115188859.972 9     -2806.902          49.250    21919701.160
  89757546.58948     -2187.195          47.000
  23768934.240   124906596.247 7      2372.973          43.000    23768931.260
  97329804.07245      1849.066          36.250
  21898129.640   115075448.429 9      2553.605          49.000    21898129.240
  89669178.61448      1989.820          45.500
 19  1  1  1 49 30.0000000  0 11G01G07G08G09G11G16G18G23G27G28G30
  23999356.820   126117474.733 7      3801.680          42.500    23999358.800
  98273373.36946      2962.348          39.500
  20374793.640   107070279.786 9       710.172          51.500    20374791.600
  83431376.68349       553.375          50.000
  20436174.920   107392863.972 9     -1040.355          52.250    20436174.920
  83682781.02949      -810.672          51.500
  23625307.620   124151836.551 7     -3192.453          42.500    23625308.580
  96741686.57946     -2487.629          41.250
  22125434.640   116269960.197 9      3107.816          49.500    22125431.500
  90599971.72847      2421.676          43.750
  24359680.260   128011023.463 6     -2996.496          41.000    24359677.760
  99748859.60345     -2334.938          36.750
  22305373.600   117215549.834 8      3060.578          47.750    22305372.300
  91336797.61746      2384.863          41.250
  25046276.160   131619078.557 7     -3406.887          42.000    25046273.060
 102560299.49944     -2654.727          33.250
  21935752.520   115273207.824 9     -2816.270          49.000    21935752.140
  89823272.18248     -2194.500          46.750
  23755395.280   124835447.911 7      2370.195          43.000    23755392.380
  97274363.84844      1846.906          35.000
  21883583.680   114999008.725 9      2542.465          49.250    21883583.400
  89609615.21148      1981.109          46.000
 19  1  1  1 50  0.0000000  0 11G01G07G08G09G11G16G18G23G27G28G30
  23977659.600   126003455.393 7      3799.355          43.500    23977661.400
  98184527.13745      2960.531          37.250
  20370789.060   107049235.261 9       692.672          51.750    20370786.960
  83414978.35349       539.746          50.000
  20442157.840   107424304.760 9     -1055.754          52.250    20442157.940
  83707280.34849      -822.664          51.500
  23643545.220   124247676.233 6     -3197.039          41.750    23643546.340
  96816366.79346     -2491.203          40.500
  22107723.260   116176886.291 9      3096.852          49.750    22107720.080
  90527446.61247      2413.133          43.500
  24376786.100   128100915.698 6     -2996.762          41.500    24376783.600
  99818905.39644     -2335.145          35.000
  22287934.680   117123908.660 8      3048.734          47.750    22287933.620
  91265388.94946      2375.637          41.750
  25065716.220   131721235.853 7     -3403.871          43.000    25065712.520
 102639902.58444     -2652.371          34.000
  21951855.780   115357831.150 9     -2825.461          49.250    21951855.320
  89889212.43648     -2201.656          46.500
  23741870.380   124764373.452 7      2367.922          42.500    23741866.920
  97218981.12944      1845.129          35.000
  21869101.340   114922902.419 9      2531.145          49.500    21869101.000
  89550311.60848      1972.316          45.250
 19  1  1  1 50 30.0000000  0 11G01G07G08G09G11G16G18G23G27G28G30
  23955974.980   125889502.897 7      3797.016          42.500    23955976.940
  98095733.03945      2958.711          38.750
  20366884.400   107028715.579 9       675.137          51.750    20366882.200
  83398988.99449       526.078          50.000
  20448228.500   107456206.782 9     -1071.184          52.250    20448228.680
  83732139.06349      -834.691          51.250
  23661808.140   124343650.196 7     -3201.234          42.500    23661809.500
  96891151.66545     -2494.473          38.500
  22090074.840   116084143.157 9      3085.887          49.750    22090071.700
  90455179.25647      2404.586          44.000
  24393898.980   128190843.215 6     -2998.184          41.750    24393896.200
  99888978.73945     -2336.250          36.000
  22270563.480   117032623.022 8      3036.922          47.750    22270562.500
  91194257.30346      2366.434          41.000
  25085140.260   131823308.677 7     -3400.895          42.750    25085136.500
 102719439.79844     -2650.047          33.500
  21968010.960   115442727.320 9     -2834.473          49.000    21968010.440
  89955365.29348     -2208.684          46.500
  23728359.560   124693372.436 7      2365.445          43.250    23728355.860
  97163655.67944      1843.203          33.500
  21854682.800   114847131.742 9      2519.965          49.250    21854682.240
  89491269.51148      1963.609          46.000
